[
  {
    "rank": 82,
    "id": "2012387",
    "name": "陽",
    "url": "https://tabelog.com/aomori/A0202/A020201/2012387/",
    "image": "https://tblg.k-img.com/restaurant/images/Rvw/335050/640x640_rect_01cdaceb88916f39fdd54b30749d705f.jpg",
    "address": "青森県弘前市北川端町36-3",
    "rating": 4.25,
    "ratingCount": 46,
    "lat": 40.5996227458169,
    "lng": 140.47187083357025,
    "year": 2025,
    "award": "2025 ・ 百名店 日本料理 東日本",
    "genre": "日本料理"
  },
  {
    "rank": 86,
    "id": "2006500",
    "name": "カーサ・デル・チーボ",
    "url": "https://tabelog.com/aomori/A0203/A020301/2006500/",
    "image": "https://tblg.k-img.com/restaurant/images/Rvw/158507/640x640_rect_158507855.jpg",
    "address": "青森県八戸市湊高台1-19-6",
    "rating": 4.16,
    "ratingCount": 180,
    "lat": 40.50769523540885,
    "lng": 141.53611663073391,
    "year": 2025,
    "award": "2025 ・ 百名店 イタリアン 東日本",
    "genre": "イタリアン"
  },
  {
    "rank": 80,
    "id": "2011353",
    "name": "Kashu",
    "url": "https://tabelog.com/aomori/A0201/A020101/2011353/",
    "image": "https://tblg.k-img.com/restaurant/images/Rvw/277119/640x640_rect_22570c2d95a662f071b3e845c807f5c0.jpg",
    "address": "青森県青森市新町1-10-4",
    "rating": 4.11,
    "ratingCount": 43,
    "lat": 40.82747782575734,
    "lng": 140.73925385568438,
    "year": 2025,
    "award": "2025 ・ 百名店 フレンチ 東日本",
    "genre": "フレンチ"
  },
  {
    "rank": 8,
    "id": "2000293",
    "name": "オステリア・エノテカ・ダ・サスィーノ",
    "url": "https://tabelog.com/aomori/A0202/A020201/2000293/",
    "image": "https://tblg.k-img.com/restaurant/images/Rvw/193617/640x640_rect_283377d2d6461994ae5ef6362f40503e.jpg",
    "address": "青森県弘前市本町56-8 グレイス本町　２Ｆ",
    "rating": 3.97,
    "ratingCount": 150,
    "lat": 40.60098053500912,
    "lng": 140.46701733242557,
    "year": 2025,
    "award": "2025 ・ 百名店 イタリアン 東日本",
    "genre": "イタリアン"
  },
  {
    "rank": 53,
    "id": "2000155",
    "name": "プチレストラン ブーケ・ド・フランス",
    "url": "https://tabelog.com/aomori/A0201/A020101/2000155/",
    "image": "https://tblg.k-img.com/restaurant/images/Rvw/334783/640x640_rect_4313f0347f966d89d43ab1a1bb2860f3.jpg",
    "address": "青森県青森市虹ヶ丘1-10-7",
    "rating": 3.91,
    "ratingCount": 92,
    "lat": 40.81158953497932,
    "lng": 140.7934418343241,
    "year": 2025,
    "award": "2025 ・ 百名店 フレンチ 東日本",
    "genre": "フレンチ"
  },
  {
    "rank": 10,
    "id": "2000243",
    "name": "菜のはな",
    "url": "https://tabelog.com/aomori/A0201/A020101/2000243/",
    "image": "https://tblg.k-img.com/restaurant/images/Rvw/41915/640x640_rect_41915726.jpg",
    "address": "青森県青森市本町5-4-20",
    "rating": 3.77,
    "ratingCount": 51,
    "lat": 40.825657925762165,
    "lng": 140.7507634056579,
    "year": 2025,
    "award": "2025 ・ 百名店 日本料理 東日本",
    "genre": "日本料理"
  },
  {
    "rank": 39,
    "id": "2000619",
    "name": "ほむら",
    "url": "https://tabelog.com/aomori/A0203/A020301/2000619/",
    "image": "https://tblg.k-img.com/restaurant/images/Rvw/91685/640x640_rect_91685218.jpg",
    "address": "青森県八戸市一番町1丁目1-30",
    "rating": 3.76,
    "ratingCount": 143,
    "lat": 40.508441576180715,
    "lng": 141.43239445197594,
    "year": 2025,
    "award": "2025 ・ 百名店 日本料理 東日本",
    "genre": "日本料理"
  },
  {
    "rank": 41,
    "id": "2000473",
    "name": "池田ファーム",
    "url": "https://tabelog.com/aomori/A0203/A020302/2000473/",
    "image": "https://tblg.k-img.com/restaurant/images/Rvw/154835/640x640_rect_0938d30106511afff788928e9855ee99.jpg",
    "address": "青森県三戸郡田子町田子池振外平11",
    "rating": 3.76,
    "ratingCount": 119,
    "lat": 40.345631586190386,
    "lng": 141.1380837505377,
    "year": 2025,
    "award": "2025 ・ 百名店 焼肉 東日本",
    "genre": "焼肉"
  },
  {
    "rank": 89,
    "id": "2005075",
    "name": "アルチェントロ",
    "url": "https://tabelog.com/aomori/A0201/A020101/2005075/",
    "image": "https://tblg.k-img.com/restaurant/images/Rvw/316712/640x640_rect_88453efecd0cd2ef5699daf1fb78f543.jpg",
    "address": "青森県青森市長島2-15-2",
    "rating": 3.75,
    "ratingCount": 114,
    "lat": 40.82189378576184,
    "lng": 140.74223322562588,
    "year": 2025,
    "award": "2025 ・ 百名店 イタリアン 東日本",
    "genre": "イタリアン"
  },
  {
    "rank": 59,
    "id": "2001751",
    "name": "津軽割烹未来",
    "url": "https://tabelog.com/aomori/A0201/A020101/2001751/",
    "image": "https://tblg.k-img.com/restaurant/images/Rvw/39321/640x640_rect_39321580.jpg",
    "address": "青森県青森市安方2-3-16",
    "rating": 3.74,
    "ratingCount": 90,
    "lat": 40.827929634952156,
    "lng": 140.74076593452608,
    "year": 2025,
    "award": "2025 ・ 百名店 日本料理 東日本",
    "genre": "日本料理"
  },
  {
    "rank": 28,
    "id": "2000326",
    "name": "レストラン山崎",
    "url": "https://tabelog.com/aomori/A0202/A020201/2000326/",
    "image": "https://tblg.k-img.com/restaurant/images/Rvw/292187/640x640_rect_b6ae7a823b21e41b53e6ab15f2e26813.jpg",
    "address": "青森県弘前市親方町41",
    "rating": 3.73,
    "ratingCount": 336,
    "lat": 40.60239653500928,
    "lng": 140.47030113243758,
    "year": 2025,
    "award": "2025 ・ 百名店 フレンチ 東日本",
    "genre": "フレンチ"
  },
  {
    "rank": 53,
    "id": "2000865",
    "name": "みなと食堂",
    "url": "https://tabelog.com/aomori/A0203/A020301/2000865/",
    "image": "https://tblg.k-img.com/restaurant/images/Rvw/214850/640x640_rect_3ef1a9b4c2cfdca5324cf76f5c351768.jpg",
    "address": "青森県八戸市大字湊町字久保45-1",
    "rating": 3.72,
    "ratingCount": 1597,
    "lat": 40.52397863539622,
    "lng": 141.52895373090345,
    "year": 2026,
    "award": "2026 ・ 百名店 食堂",
    "genre": "食堂"
  },
  {
    "rank": 61,
    "id": "2006270",
    "name": "すし居酒屋 樽",
    "url": "https://tabelog.com/aomori/A0201/A020101/2006270/",
    "image": "https://tblg.k-img.com/restaurant/images/Rvw/360701/640x640_rect_20121a77a7fabbee3a6502d848a0a07b.jpg",
    "address": "青森県青森市新町1-11-13",
    "rating": 3.71,
    "ratingCount": 431,
    "lat": 40.82698877575783,
    "lng": 140.73980665567902,
    "year": 2025,
    "award": "2025 ・ 百名店 居酒屋 東日本",
    "genre": "居酒屋"
  },
  {
    "rank": 34,
    "id": "2007966",
    "name": "炭火焼肉 だいじゅん",
    "url": "https://tabelog.com/aomori/A0201/A020101/2007966/",
    "image": "https://tblg.k-img.com/restaurant/images/Rvw/282298/640x640_rect_b61e0cdd965b654b1af015618d5b286b.jpg",
    "address": "青森県青森市堤町2-22-32",
    "rating": 3.71,
    "ratingCount": 201,
    "lat": 40.82356363496091,
    "lng": 140.75955163446883,
    "year": 2025,
    "award": "2025 ・ 百名店 焼肉 東日本",
    "genre": "焼肉"
  },
  {
    "rank": 24,
    "id": "2007680",
    "name": "鮨 うえはら",
    "url": "https://tabelog.com/aomori/A0202/A020201/2007680/",
    "image": "https://tblg.k-img.com/restaurant/images/Rvw/308894/640x640_rect_9f81062a2378f3ff35cc0d03af97b254.jpg",
    "address": "青森県弘前市土手町31 土手町コミュニティーパーク ごちそうプラザ",
    "rating": 3.7,
    "ratingCount": 191,
    "lat": 40.602166335815184,
    "lng": 140.4715380835962,
    "year": 2025,
    "award": "2025 ・ 百名店 寿司 東日本",
    "genre": "寿司"
  },
  {
    "rank": 65,
    "id": "2000092",
    "name": "シュトラウス",
    "url": "https://tabelog.com/aomori/A0201/A020101/2000092/",
    "image": "https://tblg.k-img.com/restaurant/images/Rvw/308895/640x640_rect_12fd8fc15c219dbe78060faed8377654.jpg",
    "address": "青森県青森市新町1-13-21",
    "rating": 3.68,
    "ratingCount": 774,
    "lat": 40.82651769575778,
    "lng": 140.73872136567505,
    "year": 2023,
    "award": "2023 ・ 百名店 スイーツ 東日本",
    "genre": "スイーツ"
  },
  {
    "rank": 93,
    "id": "2006536",
    "name": "ローズガーデン",
    "url": "https://tabelog.com/aomori/A0203/A020301/2006536/",
    "image": "https://tblg.k-img.com/restaurant/images/Rvw/321149/640x640_rect_40de3f8374df4a1bed9b92d83e13cdb7.jpg",
    "address": "青森県八戸市長横町7 マルマンビル 3F",
    "rating": 3.67,
    "ratingCount": 117,
    "lat": 40.5080903662004,
    "lng": 141.49351374192955,
    "year": 2022,
    "award": "2022 ・ 百名店 バー",
    "genre": "バー"
  },
  {
    "rank": 87,
    "id": "2000414",
    "name": "はた善",
    "url": "https://tabelog.com/aomori/A0201/A020101/2000414/",
    "image": "https://tblg.k-img.com/restaurant/images/Rvw/113485/640x640_rect_113485868.jpg",
    "address": "青森県青森市安方2-17-15 ライオンズマンション新町通 1F",
    "rating": 3.67,
    "ratingCount": 243,
    "lat": 40.82646256575965,
    "lng": 140.74446769567047,
    "year": 2025,
    "award": "2025 ・ 百名店 居酒屋 東日本",
    "genre": "居酒屋"
  },
  {
    "rank": 5,
    "id": "2008523",
    "name": "ジェラート ナチュレ ドゥーエ",
    "url": "https://tabelog.com/aomori/A0201/A020101/2008523/",
    "image": "https://tblg.k-img.com/restaurant/images/Rvw/308647/640x640_rect_9fc450b3ea8161f3eb8d7fa0a18fe9c5.jpg",
    "address": "青森県青森市柳川1-4-2 A-FACTORY",
    "rating": 3.66,
    "ratingCount": 549,
    "lat": 40.830205605754266,
    "lng": 140.73504640571488,
    "year": 2023,
    "award": "2023 ・ 百名店 アイス・ジェラート",
    "genre": "アイス・ジェラート"
  },
  {
    "rank": 36,
    "id": "2009073",
    "name": "暖だん",
    "url": "https://tabelog.com/aomori/A0203/A020301/2009073/",
    "image": "https://tblg.k-img.com/restaurant/images/Rvw/347352/640x640_rect_1b5b6bc8c9bcbeb6e21d17a8aaaf6fd5.jpg",
    "address": "青森県八戸市大字鷹匠小路4",
    "rating": 3.64,
    "ratingCount": 34,
    "lat": 40.507988316200205,
    "lng": 141.4927046719291,
    "year": 2025,
    "award": "2025 ・ 百名店 居酒屋 東日本",
    "genre": "居酒屋"
  },
  {
    "rank": 91,
    "id": "2007573",
    "name": "はすや",
    "url": "https://tabelog.com/aomori/A0202/A020201/2007573/",
    "image": "https://tblg.k-img.com/restaurant/images/Rvw/77710/640x640_rect_77710916.jpg",
    "address": "青森県弘前市上瓦ケ町1-1",
    "rating": 3.64,
    "ratingCount": 141,
    "lat": 40.59927736581831,
    "lng": 140.47557721356418,
    "year": 2025,
    "award": "2025 ・ 百名店 居酒屋 東日本",
    "genre": "居酒屋"
  },
  {
    "rank": 1,
    "id": "2000818",
    "name": "ナチュレ",
    "url": "https://tabelog.com/aomori/A0201/A020101/2000818/",
    "image": "https://tblg.k-img.com/restaurant/images/Rvw/308647/640x640_rect_2caa67d2729e1bbb96e0bffe861cb483.jpg",
    "address": "青森県青森市新町1-6-22",
    "rating": 3.62,
    "ratingCount": 221,
    "lat": 40.826637575756905,
    "lng": 140.73619441567803,
    "year": 2023,
    "award": "2023 ・ 百名店 アイス・ジェラート",
    "genre": "アイス・ジェラート"
  },
  {
    "rank": 47,
    "id": "2000217",
    "name": "海峡荘",
    "url": "https://tabelog.com/aomori/A0204/A020403/2000217/",
    "image": "https://tblg.k-img.com/restaurant/images/Rvw/36185/640x640_rect_36185084.jpg",
    "address": "青森県下北郡大間町大字大間字大間平17-734",
    "rating": 3.61,
    "ratingCount": 369,
    "lat": 41.546221915356305,
    "lng": 140.91338582282228,
    "year": 2026,
    "award": "2026 ・ 百名店 食堂",
    "genre": "食堂"
  },
  {
    "rank": 54,
    "id": "2000410",
    "name": "ばんや",
    "url": "https://tabelog.com/aomori/A0203/A020301/2000410/",
    "image": "https://tblg.k-img.com/restaurant/images/Rvw/77223/640x640_rect_77223516.jpg",
    "address": "青森県八戸市朔日町4",
    "rating": 3.59,
    "ratingCount": 369,
    "lat": 40.509610346199025,
    "lng": 141.4922217919458,
    "year": 2025,
    "award": "2025 ・ 百名店 居酒屋 東日本",
    "genre": "居酒屋"
  }
]