[
  {
    "rank": 38,
    "id": "45000157",
    "name": "一心鮨 光洋",
    "url": "https://tabelog.com/miyazaki/A4501/A450101/45000157/",
    "image": "https://tblg.k-img.com/restaurant/images/Rvw/114074/640x640_rect_114074816.jpg",
    "address": "宮崎県宮崎市昭和町21",
    "rating": 4.31,
    "ratingCount": 705,
    "lat": 31.90849943765383,
    "lng": 131.43603065095397,
    "year": 2025,
    "award": "2025 ・ 百名店 寿司 西日本",
    "genre": "寿司"
  },
  {
    "rank": 79,
    "id": "45003573",
    "name": "チェルカ トローヴァ",
    "url": "https://tabelog.com/miyazaki/A4505/A450501/45003573/",
    "image": "https://tblg.k-img.com/restaurant/images/Rvw/170956/640x640_rect_84b4a4272ead449d16bf9d7cd598ab2f.jpg",
    "address": "宮崎県延岡市博労町4-14",
    "rating": 4.24,
    "ratingCount": 68,
    "lat": 32.58618642810334,
    "lng": 131.67010848879693,
    "year": 2025,
    "award": "2025 ・ 百名店 イタリアン 西日本",
    "genre": "イタリアン"
  },
  {
    "rank": 6,
    "id": "45011700",
    "name": "ひとつ",
    "url": "https://tabelog.com/miyazaki/A4501/A450101/45011700/",
    "image": "https://tblg.k-img.com/restaurant/images/Rvw/319406/640x640_rect_7695faeb5a035678042daed12d966178.jpg",
    "address": "宮崎県宮崎市橘通東3-4-3 Bricks MBビル 1F",
    "rating": 4.06,
    "ratingCount": 218,
    "lat": 31.915325437645436,
    "lng": 131.42328955103181,
    "year": 2025,
    "award": "2025 ・ 百名店 寿司 西日本",
    "genre": "寿司"
  },
  {
    "rank": 44,
    "id": "45000889",
    "name": "らんぷ亭",
    "url": "https://tabelog.com/miyazaki/A4501/A450101/45000889/",
    "image": "https://tblg.k-img.com/restaurant/images/Rvw/170957/640x640_rect_689900cad467dbc3419129089f14668e.jpg",
    "address": "宮崎県宮崎市中央通8-16 第２三輪ビル　中２Ｆ",
    "rating": 4,
    "ratingCount": 357,
    "lat": 31.91397453764546,
    "lng": 131.42068305102,
    "year": 2025,
    "award": "2025 ・ 百名店 洋食 西日本",
    "genre": "洋食"
  },
  {
    "rank": 26,
    "id": "45009812",
    "name": "イワナガ食堂",
    "url": "https://tabelog.com/miyazaki/A4501/A450101/45009812/",
    "image": "https://tblg.k-img.com/restaurant/images/Rvw/192952/640x640_rect_2a4b21c5eb4e10b42feeb6763d3583ad.jpg",
    "address": "宮崎県宮崎市橘通東3-3-7 福田ビル 1F",
    "rating": 3.94,
    "ratingCount": 169,
    "lat": 31.91483650845135,
    "lng": 131.42401812218816,
    "year": 2025,
    "award": "2025 ・ 百名店 洋食 西日本",
    "genre": "洋食"
  },
  {
    "rank": 96,
    "id": "45004060",
    "name": "きたうら善漁。",
    "url": "https://tabelog.com/miyazaki/A4505/A450501/45004060/",
    "image": "https://tblg.k-img.com/restaurant/images/Rvw/231436/640x640_rect_6ae01d4a627d86ed8dcfe7f0b992a6dc.jpg",
    "address": "宮崎県延岡市本町1-3-14",
    "rating": 3.79,
    "ratingCount": 68,
    "lat": 32.57985532810646,
    "lng": 131.66730285873493,
    "year": 2025,
    "award": "2025 ・ 百名店 日本料理 西日本",
    "genre": "日本料理"
  },
  {
    "rank": 70,
    "id": "45008051",
    "name": "il Sorriso",
    "url": "https://tabelog.com/miyazaki/A4501/A450101/45008051/",
    "image": "https://tblg.k-img.com/restaurant/images/Rvw/206910/640x640_rect_b6df4509f0d952efe1a478da66d9b02e.jpg",
    "address": "宮崎県宮崎市橘通東3-5-28 長ビル 1F",
    "rating": 3.77,
    "ratingCount": 35,
    "lat": 31.91540943764574,
    "lng": 131.42440165103193,
    "year": 2025,
    "award": "2025 ・ 百名店 イタリアン 西日本",
    "genre": "イタリアン"
  },
  {
    "rank": 49,
    "id": "45003540",
    "name": "GRILL 爛漫",
    "url": "https://tabelog.com/miyazaki/A4501/A450101/45003540/",
    "image": "https://tblg.k-img.com/restaurant/images/Rvw/366401/640x640_rect_e497f491d8b3333ae7dac081e5d5347b.jpg",
    "address": "宮崎県宮崎市中央通6-3 ウエストビル 1F",
    "rating": 3.77,
    "ratingCount": 390,
    "lat": 31.91525723764472,
    "lng": 131.4208922510328,
    "year": 2025,
    "award": "2025 ・ 百名店 洋食 西日本",
    "genre": "洋食"
  },
  {
    "rank": 90,
    "id": "45006886",
    "name": "板前焼肉 英",
    "url": "https://tabelog.com/miyazaki/A4504/A450402/45006886/",
    "image": "https://tblg.k-img.com/restaurant/images/Rvw/367127/640x640_rect_849875faf2ee607ccd7da64d65fde21f.jpg",
    "address": "宮崎県児湯郡川南町大字川南17702-45",
    "rating": 3.76,
    "ratingCount": 35,
    "lat": 32.19188371830819,
    "lng": 131.52698881491443,
    "year": 2025,
    "award": "2025 ・ 百名店 焼肉 西日本",
    "genre": "焼肉"
  },
  {
    "rank": 26,
    "id": "45000328",
    "name": "大淀河畔 みやちく",
    "url": "https://tabelog.com/miyazaki/A4501/A450101/45000328/",
    "image": "https://tblg.k-img.com/restaurant/images/Rvw/165778/640x640_rect_3fbb069edc1e59e64da6be4948a93d64.jpg",
    "address": "宮崎県宮崎市松山1-1-1 宮崎観光ホテル西館　２Ｆ",
    "rating": 3.75,
    "ratingCount": 289,
    "lat": 31.905828137652257,
    "lng": 131.42577325093416,
    "year": 2025,
    "award": "2025 ・ 百名店 ステーキ・鉄板焼き 西日本",
    "genre": "ステーキ・鉄板焼き"
  },
  {
    "rank": 28,
    "id": "45002895",
    "name": "割箸",
    "url": "https://tabelog.com/miyazaki/A4501/A450101/45002895/",
    "image": "https://tblg.k-img.com/restaurant/images/Rvw/209587/640x640_rect_d217a71d27583f033eaa4af8774e9148.jpg",
    "address": "宮崎県宮崎市高松町2-28",
    "rating": 3.73,
    "ratingCount": 190,
    "lat": 31.913620238450665,
    "lng": 131.4194354621791,
    "year": 2025,
    "award": "2025 ・ 百名店 鳥料理",
    "genre": "鳥料理"
  },
  {
    "rank": 51,
    "id": "45007417",
    "name": "喜泉",
    "url": "https://tabelog.com/miyazaki/A4501/A450101/45007417/",
    "image": "https://tblg.k-img.com/restaurant/images/Rvw/275875/640x640_rect_1b4920dd3f37a1d5793e3c7806a37fbe.jpg",
    "address": "宮崎県宮崎市橘通東3-5-5",
    "rating": 3.72,
    "ratingCount": 87,
    "lat": 31.915663637645505,
    "lng": 131.42420915103463,
    "year": 2025,
    "award": "2025 ・ 百名店 日本料理 西日本",
    "genre": "日本料理"
  },
  {
    "rank": 81,
    "id": "45004655",
    "name": "高千穂牛レストラン 和",
    "url": "https://tabelog.com/miyazaki/A4505/A450502/45004655/",
    "image": "https://tblg.k-img.com/restaurant/images/Rvw/265315/640x640_rect_7d0c48d981da5cade5418febd4699716.jpg",
    "address": "宮崎県西臼杵郡高千穂町大字三田井1099-1 高千穂がまだせ市場",
    "rating": 3.72,
    "ratingCount": 353,
    "lat": 32.70762453710487,
    "lng": 131.30598065911704,
    "year": 2025,
    "award": "2025 ・ 百名店 ステーキ・鉄板焼き 西日本",
    "genre": "ステーキ・鉄板焼き"
  },
  {
    "rank": 100,
    "id": "45002069",
    "name": "天一",
    "url": "https://tabelog.com/miyazaki/A4501/A450101/45002069/",
    "image": "https://tblg.k-img.com/restaurant/images/Rvw/231410/640x640_rect_0bf08b5eaec2f13149d67833d9055656.jpg",
    "address": "宮崎県宮崎市中央通2-28 カテイ堂ビル",
    "rating": 3.71,
    "ratingCount": 143,
    "lat": 31.914382637645463,
    "lng": 131.42148985102358,
    "year": 2025,
    "award": "2025 ・ 百名店 居酒屋 西日本",
    "genre": "居酒屋"
  },
  {
    "rank": 76,
    "id": "45000063",
    "name": "直ちゃん",
    "url": "https://tabelog.com/miyazaki/A4505/A450501/45000063/",
    "image": "https://tblg.k-img.com/restaurant/images/Rvw/363461/640x640_rect_6ca9e8109f520f91fc5221cb7580adb2.jpg",
    "address": "宮崎県延岡市栄町9-3",
    "rating": 3.71,
    "ratingCount": 863,
    "lat": 32.58914025810163,
    "lng": 131.67064045882637,
    "year": 2026,
    "award": "2026 ・ 百名店 食堂",
    "genre": "食堂"
  },
  {
    "rank": 10,
    "id": "45003654",
    "name": "ビーフクックくらぞの",
    "url": "https://tabelog.com/miyazaki/A4503/A450304/45003654/",
    "image": "https://tblg.k-img.com/restaurant/images/Rvw/229064/640x640_rect_587e6d56c7f29522458da743426b3e3b.jpg",
    "address": "宮崎県小林市北西方4047-1",
    "rating": 3.71,
    "ratingCount": 90,
    "lat": 32.02305012823947,
    "lng": 130.9745106035963,
    "year": 2025,
    "award": "2025 ・ 百名店 焼肉 西日本",
    "genre": "焼肉"
  },
  {
    "rank": 38,
    "id": "45007617",
    "name": "鳥雅",
    "url": "https://tabelog.com/miyazaki/A4501/A450101/45007617/",
    "image": "https://tblg.k-img.com/restaurant/images/Rvw/44191/640x640_rect_44191870.jpg",
    "address": "宮崎県宮崎市橘通東1-8-11 常盤25ビル 1F",
    "rating": 3.71,
    "ratingCount": 339,
    "lat": 31.909857573934783,
    "lng": 131.422587013515,
    "year": 2025,
    "award": "2025 ・ 百名店 焼き鳥 西日本",
    "genre": "焼き鳥"
  },
  {
    "rank": 51,
    "id": "45006334",
    "name": "ポチロン",
    "url": "https://tabelog.com/miyazaki/A4501/A450101/45006334/",
    "image": "https://tblg.k-img.com/restaurant/images/Rvw/78673/640x640_rect_78673076.jpg",
    "address": "宮崎県宮崎市広島1-4-9 第一小田ビル 1F",
    "rating": 3.7,
    "ratingCount": 166,
    "lat": 31.91595224807175,
    "lng": 131.42534928127682,
    "year": 2025,
    "award": "2025 ・ 百名店 フレンチ 西日本",
    "genre": "フレンチ"
  },
  {
    "rank": 4,
    "id": "45003434",
    "name": "まんごや",
    "url": "https://tabelog.com/miyazaki/A4501/A450101/45003434/",
    "image": "https://tblg.k-img.com/restaurant/images/Rvw/102445/640x640_rect_102445238.jpg",
    "address": "宮崎県宮崎市橘通東3-6-3",
    "rating": 3.69,
    "ratingCount": 117,
    "lat": 31.915517637645713,
    "lng": 131.4245538510329,
    "year": 2026,
    "award": "2026 ・ 百名店 アジア・エスニック 西日本",
    "genre": "アジア・エスニック"
  },
  {
    "rank": 78,
    "id": "45005126",
    "name": "蚤の市",
    "url": "https://tabelog.com/miyazaki/A4501/A450101/45005126/",
    "image": "https://tblg.k-img.com/restaurant/images/Rvw/165778/640x640_rect_73ebaa8f7d109730309f3ea1596c8020.jpg",
    "address": "宮崎県宮崎市中央通8‐28‐2F",
    "rating": 3.69,
    "ratingCount": 176,
    "lat": 31.91343642845127,
    "lng": 131.42096798217617,
    "year": 2022,
    "award": "2022 ・ 百名店 バー",
    "genre": "バー"
  },
  {
    "rank": 65,
    "id": "45012006",
    "name": "GIGLI",
    "url": "https://tabelog.com/miyazaki/A4501/A450101/45012006/",
    "image": "https://tblg.k-img.com/restaurant/images/Rvw/188953/640x640_rect_71cfa2a9ade4eb8164759360a8c1c14b.jpg",
    "address": "宮崎県宮崎市中央通3-22 高野ビル 1F",
    "rating": 3.69,
    "ratingCount": 37,
    "lat": 31.916671265464373,
    "lng": 131.4212062589162,
    "year": 2025,
    "award": "2025 ・ 百名店 イタリアン 西日本",
    "genre": "イタリアン"
  },
  {
    "rank": 38,
    "id": "45000675",
    "name": "蕎麦處 しみず",
    "url": "https://tabelog.com/miyazaki/A4501/A450101/45000675/",
    "image": "https://tblg.k-img.com/restaurant/images/Rvw/5740/320x320_square_5740311.jpg",
    "address": "宮崎県宮崎市橘通東2-6-4",
    "rating": 3.69,
    "ratingCount": 343,
    "lat": 31.913002008452256,
    "lng": 131.42320055217021,
    "year": 2025,
    "award": "2025 ・ 百名店 そば 西日本",
    "genre": "そば"
  },
  {
    "rank": 42,
    "id": "45003063",
    "name": "味川",
    "url": "https://tabelog.com/miyazaki/A4501/A450101/45003063/",
    "image": "https://tblg.k-img.com/restaurant/images/Rvw/183993/640x640_rect_fdbaa940b73bf7fce2788db5af947ae0.jpg",
    "address": "宮崎県宮崎市橘通西2-7-13",
    "rating": 3.69,
    "ratingCount": 140,
    "lat": 31.91286173845181,
    "lng": 131.42151333216998,
    "year": 2025,
    "award": "2025 ・ 百名店 焼き鳥 西日本",
    "genre": "焼き鳥"
  },
  {
    "rank": 35,
    "id": "45000051",
    "name": "ベル･エポック",
    "url": "https://tabelog.com/miyazaki/A4501/A450101/45000051/",
    "image": "https://tblg.k-img.com/restaurant/images/Rvw/229060/320x320_rect_5c063a5d477eacc6bf8d36590692cd0f.jpg",
    "address": "宮崎県宮崎市霧島3-6",
    "rating": 3.68,
    "ratingCount": 63,
    "lat": 31.931615938438156,
    "lng": 131.41604870236324,
    "year": 2025,
    "award": "2025 ・ 百名店 フレンチ 西日本",
    "genre": "フレンチ"
  },
  {
    "rank": 73,
    "id": "45000079",
    "name": "丸万焼鳥 本店",
    "url": "https://tabelog.com/miyazaki/A4501/A450101/45000079/",
    "image": "https://tblg.k-img.com/restaurant/images/Rvw/308054/640x640_rect_71789f75541abd550260e34728139442.jpg",
    "address": "宮崎県宮崎市橘通西3-6-7",
    "rating": 3.68,
    "ratingCount": 1007,
    "lat": 31.914514768450868,
    "lng": 131.42186371218642,
    "year": 2025,
    "award": "2025 ・ 百名店 鳥料理",
    "genre": "鳥料理"
  },
  {
    "rank": 62,
    "id": "45005978",
    "name": "オーク",
    "url": "https://tabelog.com/miyazaki/A4501/A450101/45005978/",
    "image": "https://tblg.k-img.com/restaurant/images/Rvw/195525/640x640_rect_8951e4d9d466e0316959a0ec10516b77.jpg",
    "address": "宮崎県宮崎市中央通1-10 第１ビル　 １Ｆ",
    "rating": 3.67,
    "ratingCount": 112,
    "lat": 31.913938288451043,
    "lng": 131.421264192181,
    "year": 2022,
    "award": "2022 ・ 百名店 バー",
    "genre": "バー"
  },
  {
    "rank": 71,
    "id": "45009161",
    "name": "ザ ビーチ バーガー ハウス",
    "url": "https://tabelog.com/miyazaki/A4501/A450101/45009161/",
    "image": "https://tblg.k-img.com/restaurant/images/Rvw/192953/640x640_rect_fc698341543f02f49db67789d25dfb8a.jpg",
    "address": "宮崎県宮崎市阿波岐原町1400-16",
    "rating": 3.67,
    "ratingCount": 235,
    "lat": 31.929079748456317,
    "lng": 131.46802167230118,
    "year": 2026,
    "award": "2026 ・ 百名店 ハンバーガー",
    "genre": "ハンバーガー"
  },
  {
    "rank": 68,
    "id": "45003947",
    "name": "広島風お好み焼き かっちゃん",
    "url": "https://tabelog.com/miyazaki/A4501/A450102/45003947/",
    "image": "https://tblg.k-img.com/restaurant/images/Rvw/358900/640x640_rect_ad83727e1c2b69b0e6adec8b7a3d9ff2.jpg",
    "address": "宮崎県宮崎市清武町木原61-7",
    "rating": 3.67,
    "ratingCount": 58,
    "lat": 31.85503340848179,
    "lng": 131.40033864160068,
    "year": 2025,
    "award": "2025 ・ 百名店 お好み焼き",
    "genre": "お好み焼き"
  },
  {
    "rank": 22,
    "id": "45000172",
    "name": "拉麺男",
    "url": "https://tabelog.com/miyazaki/A4501/A450101/45000172/",
    "image": "https://tblg.k-img.com/restaurant/images/Rvw/308055/640x640_rect_b5080a67f685c67d347fe3396f8f0f74.jpg",
    "address": "宮崎県宮崎市村角町坪平1221-1",
    "rating": 3.67,
    "ratingCount": 871,
    "lat": 31.951339858434164,
    "lng": 131.44283885254367,
    "year": 2025,
    "award": "2025 ・ 百名店 ラーメン 西日本",
    "genre": "ラーメン"
  },
  {
    "rank": 8,
    "id": "45001975",
    "name": "釜揚げうどん 織田薪 本店",
    "url": "https://tabelog.com/miyazaki/A4501/A450101/45001975/",
    "image": "https://tblg.k-img.com/restaurant/images/Rvw/142301/640x640_rect_142301060.jpg",
    "address": "宮崎県宮崎市中央通2-23",
    "rating": 3.67,
    "ratingCount": 1076,
    "lat": 31.914843437645178,
    "lng": 131.42150555102822,
    "year": 2024,
    "award": "2024 ・ 百名店 うどん 西日本",
    "genre": "うどん"
  },
  {
    "rank": 65,
    "id": "45000084",
    "name": "鉄板焼ステーキ 一ッ葉ミヤチク",
    "url": "https://tabelog.com/miyazaki/A4501/A450101/45000084/",
    "image": "https://tblg.k-img.com/restaurant/images/Rvw/142001/640x640_rect_142001845.jpg",
    "address": "宮崎県宮崎市新別府町前浜1401-255",
    "rating": 3.64,
    "ratingCount": 451,
    "lat": 31.92066886845895,
    "lng": 131.45951374222219,
    "year": 2025,
    "award": "2025 ・ 百名店 ステーキ・鉄板焼き 西日本",
    "genre": "ステーキ・鉄板焼き"
  },
  {
    "rank": 14,
    "id": "45009581",
    "name": "ゆう心",
    "url": "https://tabelog.com/miyazaki/A4501/A450101/45009581/",
    "image": "https://tblg.k-img.com/restaurant/images/Rvw/209321/640x640_rect_f0d2a9bc7e0028f73f7d2906179da48b.jpg",
    "address": "宮崎県宮崎市青島6-14-30",
    "rating": 3.64,
    "ratingCount": 91,
    "lat": 31.7925310071941,
    "lng": 131.47319210158565,
    "year": 2025,
    "award": "2025 ・ 百名店 寿司 西日本",
    "genre": "寿司"
  },
  {
    "rank": 47,
    "id": "45011961",
    "name": "saint M",
    "url": "https://tabelog.com/miyazaki/A4501/A450101/45011961/",
    "image": "https://tblg.k-img.com/restaurant/images/Rvw/293890/640x640_rect_b0a5e707763d14ee5a7ecbe7a097f28b.jpg",
    "address": "宮崎県宮崎市橘通東3-7-6 中馬ビル 2F",
    "rating": 3.63,
    "ratingCount": 58,
    "lat": 31.914807137646193,
    "lng": 131.42462995102565,
    "year": 2025,
    "award": "2025 ・ 百名店 フレンチ 西日本",
    "genre": "フレンチ"
  },
  {
    "rank": 27,
    "id": "45009703",
    "name": "粋仙",
    "url": "https://tabelog.com/miyazaki/A4501/A450101/45009703/",
    "image": "https://tblg.k-img.com/restaurant/images/Rvw/91833/640x640_rect_91833181.jpg",
    "address": "宮崎県宮崎市広島2-11-3",
    "rating": 3.63,
    "ratingCount": 483,
    "lat": 31.914816837647628,
    "lng": 131.42917825102256,
    "year": 2025,
    "award": "2025 ・ 百名店 鳥料理",
    "genre": "鳥料理"
  },
  {
    "rank": 33,
    "id": "45010063",
    "name": "髙峯",
    "url": "https://tabelog.com/miyazaki/A4501/A450101/45010063/",
    "image": "https://tblg.k-img.com/restaurant/images/Rvw/359808/640x640_rect_7cbace666698442bd3bf4dae9c66c5a6.jpg",
    "address": "宮崎県宮崎市高松町3-35 西銀座ビル 1F",
    "rating": 3.63,
    "ratingCount": 174,
    "lat": 31.9144822584504,
    "lng": 131.42031695218716,
    "year": 2025,
    "award": "2025 ・ 百名店 鳥料理",
    "genre": "鳥料理"
  },
  {
    "rank": 99,
    "id": "45000391",
    "name": "小林 地鶏の里",
    "url": "https://tabelog.com/miyazaki/A4503/A450304/45000391/",
    "image": "https://tblg.k-img.com/restaurant/images/Rvw/172794/640x640_rect_2bf4745d03c72cbbb2ab3ae101bdbc62.jpg",
    "address": "宮崎県小林市南西方1247-1",
    "rating": 3.63,
    "ratingCount": 278,
    "lat": 31.98424161825194,
    "lng": 130.9362745332311,
    "year": 2025,
    "award": "2025 ・ 百名店 鳥料理",
    "genre": "鳥料理"
  },
  {
    "rank": 100,
    "id": "45009069",
    "name": "炭火焼 山空",
    "url": "https://tabelog.com/miyazaki/A4502/A450201/45009069/",
    "image": "https://tblg.k-img.com/restaurant/images/Rvw/68199/640x640_rect_68199288.jpg",
    "address": "宮崎県日南市大字風田2693",
    "rating": 3.63,
    "ratingCount": 52,
    "lat": 31.627552408633875,
    "lng": 131.4242228192862,
    "year": 2025,
    "award": "2025 ・ 百名店 鳥料理",
    "genre": "鳥料理"
  },
  {
    "rank": 45,
    "id": "45000017",
    "name": "鉄板焼 ふかみ",
    "url": "https://tabelog.com/miyazaki/A4501/A450101/45000017/",
    "image": "https://tblg.k-img.com/restaurant/images/Rvw/367009/640x640_rect_62b078307bde9b003952cca058e057c9.jpg",
    "address": "宮崎県宮崎市山崎町浜山 フェニックス・シーガイア・オーシャン・タワー 1F",
    "rating": 3.62,
    "ratingCount": 69,
    "lat": 31.958844137632664,
    "lng": 131.46997635143867,
    "year": 2025,
    "award": "2025 ・ 百名店 ステーキ・鉄板焼き 西日本",
    "genre": "ステーキ・鉄板焼き"
  },
  {
    "rank": 87,
    "id": "45000076",
    "name": "ふれあいの里 梅北本店",
    "url": "https://tabelog.com/miyazaki/A4503/A450301/45000076/",
    "image": "https://tblg.k-img.com/restaurant/images/Rvw/342722/640x640_rect_e18d5d49080795553fc1088ebd25fe16.jpg",
    "address": "宮崎県都城市梅北町1447-7",
    "rating": 3.62,
    "ratingCount": 149,
    "lat": 31.682548138482357,
    "lng": 131.0581230300983,
    "year": 2025,
    "award": "2025 ・ 百名店 鳥料理",
    "genre": "鳥料理"
  },
  {
    "rank": 1,
    "id": "45000077",
    "name": "そばや哲心",
    "url": "https://tabelog.com/miyazaki/A4501/A450101/45000077/",
    "image": "https://tblg.k-img.com/restaurant/images/Rvw/360662/640x640_rect_16901e6c3845de48201bf1d518546f65.jpg",
    "address": "宮崎県宮崎市橘通東3-4-9",
    "rating": 3.6,
    "ratingCount": 211,
    "lat": 31.915954108450507,
    "lng": 131.42359386219977,
    "year": 2025,
    "award": "2025 ・ 百名店 そば 西日本",
    "genre": "そば"
  },
  {
    "rank": 82,
    "id": "45006031",
    "name": "地鶏庵城の平",
    "url": "https://tabelog.com/miyazaki/A4501/A450102/45006031/",
    "image": "https://tblg.k-img.com/restaurant/images/Rvw/285996/640x640_rect_36b7f99eaeda967c64dab26d1a251c6f.jpg",
    "address": "宮崎県東諸県郡綾町入野2794-2",
    "rating": 3.6,
    "ratingCount": 25,
    "lat": 31.9912054483542,
    "lng": 131.27125816306665,
    "year": 2025,
    "award": "2025 ・ 百名店 鳥料理",
    "genre": "鳥料理"
  },
  {
    "rank": 59,
    "id": "45000577",
    "name": "鳥の里",
    "url": "https://tabelog.com/miyazaki/A4501/A450101/45000577/",
    "image": "https://tblg.k-img.com/restaurant/images/Rvw/17646/640x640_rect_17646277.jpg",
    "address": "宮崎県宮崎市川原町4-16",
    "rating": 3.59,
    "ratingCount": 163,
    "lat": 31.908044218455824,
    "lng": 131.4245244221192,
    "year": 2025,
    "award": "2025 ・ 百名店 鳥料理",
    "genre": "鳥料理"
  },
  {
    "rank": 47,
    "id": "45011705",
    "name": "平家の郷 新別府店",
    "url": "https://tabelog.com/miyazaki/A4501/A450101/45011705/",
    "image": "https://tblg.k-img.com/restaurant/images/Rvw/344964/640x640_rect_5c64422b98b1ac9961140e8bad2febe9.jpg",
    "address": "宮崎県宮崎市新別府町土田541-3",
    "rating": 3.56,
    "ratingCount": 65,
    "lat": 31.927100754826732,
    "lng": 131.45395849884864,
    "year": 2025,
    "award": "2025 ・ 百名店 洋食 西日本",
    "genre": "洋食"
  },
  {
    "rank": 29,
    "id": "45000012",
    "name": "味のおぐら 本店",
    "url": "https://tabelog.com/miyazaki/A4501/A450101/45000012/",
    "image": "https://tblg.k-img.com/restaurant/images/Rvw/115234/640x640_rect_115234307.jpg",
    "address": "宮崎県宮崎市橘通東3-4-24",
    "rating": 3.53,
    "ratingCount": 2127,
    "lat": 31.915887608450582,
    "lng": 131.42370218219898,
    "year": 2025,
    "award": "2025 ・ 百名店 洋食 西日本",
    "genre": "洋食"
  },
  {
    "rank": 27,
    "id": "45001424",
    "name": "黒兵衛",
    "url": "https://tabelog.com/miyazaki/A4505/A450501/45001424/",
    "image": "https://tblg.k-img.com/restaurant/images/Rvw/272878/640x640_rect_9ae982c13c4473e503375e214a95eaba.jpg",
    "address": "宮崎県延岡市新町2-3",
    "rating": 3.51,
    "ratingCount": 115,
    "lat": 32.58062052810672,
    "lng": 131.66963235874104,
    "year": 2024,
    "award": "2024 ・ 百名店 餃子",
    "genre": "餃子"
  },
  {
    "rank": 22,
    "id": "45000944",
    "name": "ざくろ",
    "url": "https://tabelog.com/miyazaki/A4501/A450101/45000944/",
    "image": "https://tblg.k-img.com/restaurant/images/Rvw/347060/640x640_rect_8570b1f1a2071615934f400b5c1ee49d.jpg",
    "address": "宮崎県宮崎市広島1-1-1",
    "rating": 3.28,
    "ratingCount": 41,
    "lat": 31.913226837647247,
    "lng": 131.42479385100955,
    "year": 2024,
    "award": "2024 ・ 百名店 すき焼き・しゃぶしゃぶ",
    "genre": "すき焼き・しゃぶしゃぶ"
  }
]