[
  {
    "rank": 1,
    "id": "27099661",
    "name": "情",
    "url": "https://tabelog.com/osaka/A2701/A270202/27099661/",
    "image": "https://tblg.k-img.com/restaurant/images/Rvw/71252/640x640_rect_71252545.jpg",
    "address": "大阪府大阪市中央区東心斎橋2-3-29 リップルプロローグ88　1F",
    "rating": 3.55,
    "ratingCount": 226,
    "lat": 34.67096966046527,
    "lng": 135.5048233575731
  },
  {
    "rank": 2,
    "id": "40062209",
    "name": "thuk wan",
    "url": "https://tabelog.com/fukuoka/A4001/A400202/40062209/",
    "image": "https://tblg.k-img.com/restaurant/images/Rvw/306036/640x640_rect_dfd21b8e0444ae2959d5ea8e79f08270.jpg",
    "address": "福岡県福岡市南区大楠3-7-26",
    "rating": 3.6,
    "ratingCount": 57,
    "lat": 33.569208336274116,
    "lng": 130.4156443684439
  },
  {
    "rank": 3,
    "id": "43001132",
    "name": "スリランカくまもと",
    "url": "https://tabelog.com/kumamoto/A4301/A430101/43001132/",
    "image": "https://tblg.k-img.com/restaurant/images/Rvw/96962/640x640_rect_96962269.jpg",
    "address": "熊本県熊本市中央区下通1-4-3 熊本ビル 2F",
    "rating": 3.68,
    "ratingCount": 408,
    "lat": 32.802047636854425,
    "lng": 130.70788886049004
  },
  {
    "rank": 4,
    "id": "45003434",
    "name": "まんごや",
    "url": "https://tabelog.com/miyazaki/A4501/A450101/45003434/",
    "image": "https://tblg.k-img.com/restaurant/images/Rvw/102445/640x640_rect_102445238.jpg",
    "address": "宮崎県宮崎市橘通東3-6-3",
    "rating": 3.69,
    "ratingCount": 117,
    "lat": 31.915517637645713,
    "lng": 131.4245538510329
  },
  {
    "rank": 5,
    "id": "27145969",
    "name": "シンサコッケダン",
    "url": "https://tabelog.com/osaka/A2701/A270101/27145969/",
    "image": "https://tblg.k-img.com/restaurant/images/Rvw/274175/640x640_rect_5b2520e5e49d9adb956272951bef1f05.jpg",
    "address": "大阪府大阪市北区堂山町1-14 こだまレジャービル 4F",
    "rating": 3.52,
    "ratingCount": 261,
    "lat": 34.70284262721705,
    "lng": 135.50408000737428
  },
  {
    "rank": 6,
    "id": "27113322",
    "name": "天太",
    "url": "https://tabelog.com/osaka/A2701/A270101/27113322/",
    "image": "https://tblg.k-img.com/restaurant/images/Rvw/130080/640x640_rect_130080078.jpg",
    "address": "大阪府大阪市北区曽根崎新地",
    "rating": 3.68,
    "ratingCount": 105,
    "lat": 0,
    "lng": 0
  },
  {
    "rank": 7,
    "id": "27091309",
    "name": "カレーや デッカオ",
    "url": "https://tabelog.com/osaka/A2701/A270201/27091309/",
    "image": "https://tblg.k-img.com/restaurant/images/Rvw/359157/640x640_rect_64795e2c8e2e1de197fa245f53ce38c2.jpg",
    "address": "大阪府大阪市中央区南船場3-8-5 南船場ビル 2F",
    "rating": 3.65,
    "ratingCount": 550,
    "lat": 34.6776755679954,
    "lng": 135.50226580723663
  },
  {
    "rank": 8,
    "id": "28038103",
    "name": "カラピンチャ",
    "url": "https://tabelog.com/hyogo/A2801/A280103/28038103/",
    "image": "https://tblg.k-img.com/restaurant/images/Rvw/87620/640x640_rect_87620042.jpg",
    "address": "兵庫県神戸市灘区王子町1-2-13",
    "rating": 3.61,
    "ratingCount": 489,
    "lat": 34.70978293707922,
    "lng": 135.2183688765982
  },
  {
    "rank": 9,
    "id": "27124395",
    "name": "参鶏湯 人ル",
    "url": "https://tabelog.com/osaka/A2701/A270205/27124395/",
    "image": "https://tblg.k-img.com/restaurant/images/Rvw/181155/640x640_rect_22d9461c15e149155a60efbed9fac5c4.jpg",
    "address": "大阪府大阪市生野区桃谷4-1-11",
    "rating": 3.73,
    "ratingCount": 588,
    "lat": 34.66200486801643,
    "lng": 135.53705407705397
  },
  {
    "rank": 10,
    "id": "27009647",
    "name": "Am BoLuZo",
    "url": "https://tabelog.com/osaka/A2701/A270205/27009647/",
    "image": "https://tblg.k-img.com/restaurant/images/Rvw/355456/640x640_rect_16d755c945202334227c8b9531b36264.jpg",
    "address": "大阪府大阪市中央区東平2-2-7 メゾンルミエール　１Ｆ",
    "rating": 3.59,
    "ratingCount": 162,
    "lat": 34.66743975438815,
    "lng": 135.5182302342244
  },
  {
    "rank": 11,
    "id": "27146949",
    "name": "韓国料理 DANJI",
    "url": "https://tabelog.com/osaka/A2701/A270104/27146949/",
    "image": "https://tblg.k-img.com/restaurant/images/Rvw/311373/640x640_rect_4480ec864dc354b7c1897af2983c0c58.jpg",
    "address": "大阪府大阪市中央区内本町2-3-8 ダイアパレスビル本町 119号室",
    "rating": 3.35,
    "ratingCount": 117,
    "lat": 34.68311273799515,
    "lng": 135.51226837728456
  },
  {
    "rank": 12,
    "id": "28020503",
    "name": "アカーシュ",
    "url": "https://tabelog.com/hyogo/A2803/A280301/28020503/",
    "image": "https://tblg.k-img.com/restaurant/images/Rvw/364570/640x640_rect_27613bfa734cef18d25a30a8c176875a.jpg",
    "address": "兵庫県西宮市門前町7-26",
    "rating": 3.6,
    "ratingCount": 225,
    "lat": 34.756406377901264,
    "lng": 135.36365968812908
  },
  {
    "rank": 13,
    "id": "27067234",
    "name": "チェディルアン 淀屋橋",
    "url": "https://tabelog.com/osaka/A2701/A270102/27067234/",
    "image": "https://tblg.k-img.com/restaurant/images/Rvw/59499/640x640_rect_59499084.jpg",
    "address": "大阪府大阪市中央区北浜4-7-28 住友ビル2号館",
    "rating": 3.58,
    "ratingCount": 758,
    "lat": 34.691432837179974,
    "lng": 135.49812557621675
  },
  {
    "rank": 14,
    "id": "43004509",
    "name": "とらぢ",
    "url": "https://tabelog.com/kumamoto/A4301/A430101/43004509/",
    "image": "https://tblg.k-img.com/restaurant/images/Rvw/248810/640x640_rect_f77ba072a13290c1a626bac837fc1184.jpg",
    "address": "熊本県熊本市中央区下通1-7-7",
    "rating": 3.62,
    "ratingCount": 24,
    "lat": 32.801243357660276,
    "lng": 130.70777824164375
  },
  {
    "rank": 15,
    "id": "44010337",
    "name": "Norary-Crary",
    "url": "https://tabelog.com/oita/A4402/A440202/44010337/",
    "image": "https://tblg.k-img.com/restaurant/images/Rvw/359727/640x640_rect_7d6f5142a88d4a89f2ca232f06e47b5f.jpg",
    "address": "大分県別府市元町15-7 竹瓦温泉前",
    "rating": 3.55,
    "ratingCount": 102,
    "lat": 33.27727043680675,
    "lng": 131.5059206647308
  },
  {
    "rank": 16,
    "id": "40042795",
    "name": "Mon an",
    "url": "https://tabelog.com/fukuoka/A4001/A400104/40042795/",
    "image": "https://tblg.k-img.com/restaurant/images/Rvw/220401/640x640_rect_1be89e9f640f1454a1acb6b50303159c.jpg",
    "address": "福岡県福岡市中央区赤坂3-9-28 大産赤坂ビル",
    "rating": 3.65,
    "ratingCount": 126,
    "lat": 33.58383850517628,
    "lng": 130.38784032043094
  },
  {
    "rank": 17,
    "id": "27114772",
    "name": "旅人シェフのタイ食堂 KHAO",
    "url": "https://tabelog.com/osaka/A2701/A270103/27114772/",
    "image": "https://tblg.k-img.com/restaurant/images/Rvw/362647/640x640_rect_9ef38ee7e3fbc33dcf2cc61061d763ed.jpg",
    "address": "大阪府大阪市北区天神橋6-2-5",
    "rating": 3.67,
    "ratingCount": 302,
    "lat": 34.70892202797863,
    "lng": 135.51189684754553
  },
  {
    "rank": 18,
    "id": "27145909",
    "name": "Korean Dining コッテジ 福島店",
    "url": "https://tabelog.com/osaka/A2701/A270108/27145909/",
    "image": "https://tblg.k-img.com/restaurant/images/Rvw/303953/640x640_rect_1004fcece5cc566573fb6a439c9d5f2b.jpg",
    "address": "大阪府大阪市福島区福島8-1‐1",
    "rating": 3.35,
    "ratingCount": 173,
    "lat": 34.69584778010095,
    "lng": 135.4840505158422
  },
  {
    "rank": 19,
    "id": "28072170",
    "name": "カンジャンケジャン 渡 神戸三宮店",
    "url": "https://tabelog.com/hyogo/A2801/A280101/28072170/",
    "image": "https://tblg.k-img.com/restaurant/images/Rvw/288597/640x640_rect_1df3373d48c94fe3a97678941be4fc53.jpg",
    "address": "兵庫県神戸市中央区中山手通2-11-1 ニイビル 4F",
    "rating": 3.34,
    "ratingCount": 231,
    "lat": 34.69613619345695,
    "lng": 135.19009833674048
  },
  {
    "rank": 20,
    "id": "28013567",
    "name": "O'KINY",
    "url": "https://tabelog.com/hyogo/A2803/A280301/28013567/",
    "image": "https://tblg.k-img.com/restaurant/images/Rvw/154823/640x640_rect_154823283.jpg",
    "address": "兵庫県西宮市北名次町10-12 夙川サニーガーデン 2F",
    "rating": 3.62,
    "ratingCount": 328,
    "lat": 34.75306182789266,
    "lng": 135.32998242811888
  },
  {
    "rank": 21,
    "id": "29012452",
    "name": "toi印食店",
    "url": "https://tabelog.com/nara/A2901/A290101/29012452/",
    "image": "https://tblg.k-img.com/restaurant/images/Rvw/308012/640x640_rect_7bb7826b31cb4e51c23418038a6ec523.jpg",
    "address": "奈良県奈良市花芝町30-3",
    "rating": 3.74,
    "ratingCount": 354,
    "lat": 34.685712037288994,
    "lng": 135.829029875927
  },
  {
    "rank": 22,
    "id": "27076552",
    "name": "スパイスカレーまるせ",
    "url": "https://tabelog.com/osaka/A2701/A270101/27076552/",
    "image": "https://tblg.k-img.com/restaurant/images/Rvw/294626/640x640_rect_820d38c4963f00672412e880f0456740.jpg",
    "address": "大阪府大阪市北区中津1-11-28",
    "rating": 3.6,
    "ratingCount": 863,
    "lat": 34.71174103716668,
    "lng": 135.49687417642275
  },
  {
    "rank": 23,
    "id": "47013964",
    "name": "トルティーヤ",
    "url": "https://tabelog.com/okinawa/A4703/A470404/47013964/",
    "image": "https://tblg.k-img.com/restaurant/images/Rvw/301543/640x640_rect_f15dae881b66f5e8711a0acd15272fd3.jpg",
    "address": "沖縄県浦添市大平1-7-5",
    "rating": 3.58,
    "ratingCount": 263,
    "lat": 26.250193100867303,
    "lng": 127.71316527757122
  },
  {
    "rank": 24,
    "id": "28053601",
    "name": "チーニーカリー",
    "url": "https://tabelog.com/hyogo/A2801/A280102/28053601/",
    "image": "https://tblg.k-img.com/restaurant/images/Rvw/215836/640x640_rect_fda79e269f5794d85e62dd64f507c446.jpg",
    "address": "兵庫県神戸市中央区栄町通3-1-18 三浦ビル 1F",
    "rating": 3.66,
    "ratingCount": 274,
    "lat": 34.686575907889356,
    "lng": 135.18701916754753
  },
  {
    "rank": 25,
    "id": "27124311",
    "name": "CARNE asaeda",
    "url": "https://tabelog.com/osaka/A2701/A270201/27124311/",
    "image": "https://tblg.k-img.com/restaurant/images/Rvw/243156/640x640_rect_c084c4f9da24f637ad204bd2dbf0d9d0.jpg",
    "address": "大阪府大阪市西区新町1-2-5",
    "rating": 3.6,
    "ratingCount": 151,
    "lat": 34.677872637188436,
    "lng": 135.49764887608012
  },
  {
    "rank": 26,
    "id": "26034537",
    "name": "韓国料理 先斗町 李南河　",
    "url": "https://tabelog.com/kyoto/A2601/A260201/26034537/",
    "image": "https://tblg.k-img.com/restaurant/images/Rvw/291215/640x640_rect_d74f23d32b9b083be9b49bdb67bb5d93.jpg",
    "address": "京都府京都市中京区先斗町通四条上る鍋屋町232",
    "rating": 3.61,
    "ratingCount": 143,
    "lat": 35.00476916486442,
    "lng": 135.77116364707948
  },
  {
    "rank": 27,
    "id": "27094202",
    "name": "韓味一 朴邸",
    "url": "https://tabelog.com/osaka/A2701/A270106/27094202/",
    "image": "https://tblg.k-img.com/restaurant/images/Rvw/107687/640x640_rect_107687749.jpg",
    "address": "大阪府大阪市西区靭本町1-7-17 ラシーヌ四ツ橋 B1F",
    "rating": 3.69,
    "ratingCount": 279,
    "lat": 34.686320107119215,
    "lng": 135.49717050860104
  },
  {
    "rank": 28,
    "id": "27005229",
    "name": "喰海",
    "url": "https://tabelog.com/osaka/A2701/A270101/27005229/",
    "image": "https://tblg.k-img.com/restaurant/images/Rvw/172125/640x640_rect_6ff6844bee8f5265b8b6011e2668eabb.jpg",
    "address": "大阪府大阪市北区堂島1-3-29 日宝新地レジャービル 1F",
    "rating": 3.7,
    "ratingCount": 118,
    "lat": 34.69689063717644,
    "lng": 135.49787887627204
  },
  {
    "rank": 29,
    "id": "26042695",
    "name": "The Churrasco 京都河原町",
    "url": "https://tabelog.com/kyoto/A2601/A260201/26042695/",
    "image": "https://tblg.k-img.com/restaurant/images/Rvw/305891/640x640_rect_87a2ae05690a115b5430441b0dc3accb.jpg",
    "address": "京都府京都市中京区河原町通蛸薬師下る塩屋町321 ドン・キホーテ四条河原町店 6F",
    "rating": 3.34,
    "ratingCount": 187,
    "lat": 35.005775723449474,
    "lng": 135.7690720923874
  },
  {
    "rank": 30,
    "id": "40000441",
    "name": "田無羅",
    "url": "https://tabelog.com/fukuoka/A4001/A400103/40000441/",
    "image": "https://tblg.k-img.com/restaurant/images/Rvw/109183/320x320_rect_109183547.jpg",
    "address": "福岡県福岡市中央区春吉3-22-29",
    "rating": 3.98,
    "ratingCount": 238,
    "lat": 33.58917773625819,
    "lng": 130.40550036865272
  },
  {
    "rank": 31,
    "id": "29003583",
    "name": "一平ちゃん",
    "url": "https://tabelog.com/nara/A2902/A290203/29003583/",
    "image": "https://tblg.k-img.com/restaurant/images/Rvw/358170/640x640_rect_16598b97f04bf76131feb1c92bcff0fe.jpg",
    "address": "奈良県生駒郡斑鳩町興留5-15-33",
    "rating": 3.55,
    "ratingCount": 213,
    "lat": 34.603057148117735,
    "lng": 135.737562796318
  },
  {
    "rank": 32,
    "id": "40005367",
    "name": "ザエカ",
    "url": "https://tabelog.com/fukuoka/A4001/A400104/40005367/",
    "image": "https://tblg.k-img.com/restaurant/images/Rvw/40165/320x320_rect_40165639.jpg",
    "address": "福岡県福岡市中央区舞鶴1-3-4 曙コーポ　２Ｆ",
    "rating": 3.68,
    "ratingCount": 325,
    "lat": 33.59163373625283,
    "lng": 130.39352476868592
  },
  {
    "rank": 33,
    "id": "47000033",
    "name": "チャーリー多幸寿",
    "url": "https://tabelog.com/okinawa/A4703/A470301/47000033/",
    "image": "https://tblg.k-img.com/restaurant/images/Rvw/348737/640x640_rect_7da1d5a2ffe6e1b473dd27f0ed64120a.jpg",
    "address": "沖縄県沖縄市中央4-11-5",
    "rating": 3.65,
    "ratingCount": 924,
    "lat": 26.34014105083762,
    "lng": 127.79933943841937
  },
  {
    "rank": 34,
    "id": "17013055",
    "name": "ジョニーのビリヤニ",
    "url": "https://tabelog.com/ishikawa/A1702/A170203/17013055/",
    "image": "https://tblg.k-img.com/restaurant/images/Rvw/179668/320x320_rect_059223b938f181a6c7d19a4a6e27b5ce.jpg",
    "address": "石川県野々市市白山町4-1 イオンタウン野々市",
    "rating": 3.67,
    "ratingCount": 239,
    "lat": 36.527384287174606,
    "lng": 136.61383078514126
  },
  {
    "rank": 35,
    "id": "44005660",
    "name": "トムヤムクン。",
    "url": "https://tabelog.com/oita/A4402/A440202/44005660/",
    "image": "https://tblg.k-img.com/restaurant/images/Rvw/89433/640x640_rect_89433567.jpg",
    "address": "大分県別府市浜脇2-2-3 再開発ビル 1F",
    "rating": 3.64,
    "ratingCount": 45,
    "lat": 33.27009232761717,
    "lng": 131.50745186581904
  },
  {
    "rank": 36,
    "id": "40061727",
    "name": "Spice & Dining KALA",
    "url": "https://tabelog.com/fukuoka/A4004/A400401/40061727/",
    "image": "https://tblg.k-img.com/restaurant/images/Rvw/243969/640x640_rect_aa7f9dfdbf646317ea3177687e85d773.jpg",
    "address": "福岡県北九州市小倉北区馬借3-3-30",
    "rating": 3.88,
    "ratingCount": 60,
    "lat": 33.877998336226,
    "lng": 130.88034667123725
  },
  {
    "rank": 37,
    "id": "44003850",
    "name": "韓国風ろばた高麗房",
    "url": "https://tabelog.com/oita/A4402/A440202/44003850/",
    "image": "https://tblg.k-img.com/restaurant/images/Rvw/348845/640x640_rect_788c8953fb54d3ef72188c6ec3227b84.jpg",
    "address": "大分県別府市元町5-8",
    "rating": 3.64,
    "ratingCount": 67,
    "lat": 33.2775883076113,
    "lng": 131.50397391589715
  },
  {
    "rank": 38,
    "id": "40041110",
    "name": "106 サウスインディアン 福岡天神店",
    "url": "https://tabelog.com/fukuoka/A4001/A400103/40041110/",
    "image": "https://tblg.k-img.com/restaurant/images/Rvw/47803/640x640_rect_47803015.jpg",
    "address": "福岡県福岡市中央区今泉1-17-14 IMAIZUMI二十四節季ビル 1F",
    "rating": 3.68,
    "ratingCount": 663,
    "lat": 33.58612723625797,
    "lng": 130.39864126862673
  },
  {
    "rank": 39,
    "id": "27000527",
    "name": "玉一",
    "url": "https://tabelog.com/osaka/A2701/A270103/27000527/",
    "image": "https://tblg.k-img.com/restaurant/images/Rvw/41291/320x320_rect_41291260.jpg",
    "address": "大阪府大阪市北区池田町17-4",
    "rating": 3.55,
    "ratingCount": 820,
    "lat": 34.70797166914407,
    "lng": 135.51244352107935
  },
  {
    "rank": 40,
    "id": "26034529",
    "name": "ビリヤニ専門店 INDIA GATE",
    "url": "https://tabelog.com/kyoto/A2601/A260201/26034529/",
    "image": "https://tblg.k-img.com/restaurant/images/Rvw/234163/640x640_rect_3009d209491e7b604d97b91885fb38b7.jpg",
    "address": "京都府京都市中京区天神山町271",
    "rating": 3.66,
    "ratingCount": 714,
    "lat": 35.00495524786859,
    "lng": 135.7567413103641
  },
  {
    "rank": 41,
    "id": "47000035",
    "name": "キングタコス 長田店",
    "url": "https://tabelog.com/okinawa/A4703/A470404/47000035/",
    "image": "https://tblg.k-img.com/restaurant/images/Rvw/23813/640x640_rect_23813246.jpg",
    "address": "沖縄県宜野湾市宜野湾3-1-1",
    "rating": 3.53,
    "ratingCount": 541,
    "lat": 26.262484340874753,
    "lng": 127.76107640766179
  },
  {
    "rank": 42,
    "id": "26017889",
    "name": "セクションドール",
    "url": "https://tabelog.com/kyoto/A2601/A260302/26017889/",
    "image": "https://tblg.k-img.com/restaurant/images/Rvw/145727/640x640_rect_8f3334a10c71c73e8d84beedf3766efd.jpg",
    "address": "京都府京都市左京区岡崎西天王町84-1 M&M's APARTMENT 1F",
    "rating": 3.71,
    "ratingCount": 320,
    "lat": 35.01530321786915,
    "lng": 135.77915942045288
  },
  {
    "rank": 43,
    "id": "26035998",
    "name": "汽",
    "url": "https://tabelog.com/kyoto/A2601/A260201/26035998/",
    "image": "https://tblg.k-img.com/restaurant/images/Rvw/235930/640x640_rect_b6f853df60765a6f509f8280b21647f0.jpg",
    "address": "京都府京都市下京区都市町149",
    "rating": 3.7,
    "ratingCount": 369,
    "lat": 34.9941916370732,
    "lng": 135.76659317908673
  },
  {
    "rank": 44,
    "id": "27074470",
    "name": "カレー&スパイス ワルン",
    "url": "https://tabelog.com/osaka/A2701/A270105/27074470/",
    "image": "https://tblg.k-img.com/restaurant/images/Rvw/338130/640x640_rect_0dd01eb2693d9ac9babbc0d238e507e2.jpg",
    "address": "大阪府大阪市西区北堀江3-4-17 LIFE LABO BLD. 1F",
    "rating": 3.6,
    "ratingCount": 520,
    "lat": 34.673547617994096,
    "lng": 135.48992397720363
  },
  {
    "rank": 45,
    "id": "28002129",
    "name": "バーンタイ 三宮本店",
    "url": "https://tabelog.com/hyogo/A2801/A280101/28002129/",
    "image": "https://tblg.k-img.com/restaurant/images/Rvw/188735/640x640_rect_0861595876eb5af11710f8f2c0743b03.jpg",
    "address": "兵庫県神戸市中央区北長狭通1-8-8 しんせい堂ビル　１Ｆ",
    "rating": 3.57,
    "ratingCount": 584,
    "lat": 34.693171297886735,
    "lng": 135.1919295376107
  },
  {
    "rank": 46,
    "id": "34027524",
    "name": "CHILAN",
    "url": "https://tabelog.com/hiroshima/A3402/A340201/34027524/",
    "image": "https://tblg.k-img.com/restaurant/images/Rvw/356781/640x640_rect_7b46b393f9b2285491abb8212220bd11.jpg",
    "address": "広島県廿日市市阿品4-2-39",
    "rating": 3.84,
    "ratingCount": 27,
    "lat": 34.323444336398644,
    "lng": 132.31081807473393
  },
  {
    "rank": 47,
    "id": "26002357",
    "name": "イスタンブール・サライ",
    "url": "https://tabelog.com/kyoto/A2601/A260202/26002357/",
    "image": "https://tblg.k-img.com/restaurant/images/Rvw/350064/640x640_rect_56611718ca554621c3acfedf992d7636.jpg",
    "address": "京都府京都市中京区河原町通三条上ル恵比須町534-28 松木ビル　３Ｆ",
    "rating": 3.56,
    "ratingCount": 189,
    "lat": 35.009550447869714,
    "lng": 135.7694678504016
  },
  {
    "rank": 48,
    "id": "47013164",
    "name": "スパイスハーブホリデー",
    "url": "https://tabelog.com/okinawa/A4701/A470101/47013164/",
    "image": "https://tblg.k-img.com/restaurant/images/Rvw/190207/640x640_rect_b803b814f29b0b6f9616d6e1841ed20e.jpg",
    "address": "沖縄県那覇市牧志1-12-1 屋比久ビル 1F",
    "rating": 3.55,
    "ratingCount": 73,
    "lat": 26.21686512087889,
    "lng": 127.68308057725567
  },
  {
    "rank": 49,
    "id": "28042097",
    "name": "バーンタイ ASHIYA",
    "url": "https://tabelog.com/hyogo/A2803/A280302/28042097/",
    "image": "https://tblg.k-img.com/restaurant/images/Rvw/363127/640x640_rect_287a1a74b6774a9d8f55af1b383b72ea.jpg",
    "address": "兵庫県芦屋市川西町4-2 VIVO芦屋",
    "rating": 3.67,
    "ratingCount": 272,
    "lat": 34.730284947897566,
    "lng": 135.29997339790987
  },
  {
    "rank": 50,
    "id": "47029534",
    "name": "ブエノチキン 浦添店",
    "url": "https://tabelog.com/okinawa/A4703/A470404/47029534/",
    "image": "https://tblg.k-img.com/restaurant/images/Rvw/364555/640x640_rect_7e0b901018cb48f307d2929f52080db6.jpg",
    "address": "沖縄県浦添市内間2-11-15",
    "rating": 3.62,
    "ratingCount": 443,
    "lat": 26.23656907087327,
    "lng": 127.70473276743951
  },
  {
    "rank": 51,
    "id": "27002716",
    "name": "チェディルアン 北堀江本店",
    "url": "https://tabelog.com/osaka/A2701/A270201/27002716/",
    "image": "https://tblg.k-img.com/restaurant/images/Rvw/28617/640x640_rect_28617149.jpg",
    "address": "大阪府大阪市西区北堀江1-17-11",
    "rating": 3.66,
    "ratingCount": 776,
    "lat": 34.67419233718978,
    "lng": 135.49452827604512
  },
  {
    "rank": 52,
    "id": "27056190",
    "name": "ロッダグループ",
    "url": "https://tabelog.com/osaka/A2701/A270401/27056190/",
    "image": "https://tblg.k-img.com/restaurant/images/Rvw/128526/640x640_rect_128526886.jpg",
    "address": "大阪府大阪市西区千代崎1-23-9 桜ビル2号 1F",
    "rating": 3.68,
    "ratingCount": 1028,
    "lat": 34.673899837185196,
    "lng": 135.47954797605266
  },
  {
    "rank": 53,
    "id": "27076081",
    "name": "韓国食堂 入ル",
    "url": "https://tabelog.com/osaka/A2701/A270108/27076081/",
    "image": "https://tblg.k-img.com/restaurant/images/Rvw/22938/320x320_square_22938637.jpg",
    "address": "大阪府大阪市福島区福島3-8-10",
    "rating": 3.69,
    "ratingCount": 584,
    "lat": 34.69351548798001,
    "lng": 135.4855127474084
  },
  {
    "rank": 54,
    "id": "39006430",
    "name": "多国籍食堂 錆と煤",
    "url": "https://tabelog.com/kochi/A3901/A390102/39006430/",
    "image": "https://tblg.k-img.com/restaurant/images/Rvw/155271/640x640_rect_155271717.jpg",
    "address": "高知県南国市立田632-19",
    "rating": 3.73,
    "ratingCount": 65,
    "lat": 33.5708714481145,
    "lng": 133.668938507342
  },
  {
    "rank": 55,
    "id": "16006914",
    "name": "タイ料理 喃楽",
    "url": "https://tabelog.com/toyama/A1601/A160101/16006914/",
    "image": "https://tblg.k-img.com/restaurant/images/Rvw/271809/640x640_rect_5ca56d2b1f28d619b75cf2a7cf9107b4.jpg",
    "address": "富山県富山市桜木町6-8 桜木町ビル 1F",
    "rating": 3.55,
    "ratingCount": 55,
    "lat": 36.69445313645471,
    "lng": 137.21541089524533
  },
  {
    "rank": 56,
    "id": "27095755",
    "name": "DIAMOND BIRYANI",
    "url": "https://tabelog.com/osaka/A2701/A270101/27095755/",
    "image": "https://tblg.k-img.com/restaurant/images/Rvw/298547/640x640_rect_1db3c9cf6443dc1005ac06253a57b8a4.jpg",
    "address": "大阪府大阪市北区中津3-17-2",
    "rating": 3.68,
    "ratingCount": 892,
    "lat": 34.71102384797146,
    "lng": 135.49360522757956
  },
  {
    "rank": 57,
    "id": "27150638",
    "name": "Blue Entrance Kitchen 大阪心斎橋店",
    "url": "https://tabelog.com/osaka/A2701/A270202/27150638/",
    "image": "https://tblg.k-img.com/restaurant/images/Rvw/363596/640x640_rect_ef8dade6dbccf547f5a54424bb5d971a.jpg",
    "address": "大阪府-大阪府大阪市中央区西心斎橋2-6-7 道頓堀ビル 4F",
    "rating": 3.59,
    "ratingCount": 332,
    "lat": 34.66928243799951,
    "lng": 135.49843957715453
  },
  {
    "rank": 58,
    "id": "40050313",
    "name": "東インド ベンガル料理専門店インディアンスパイスファクトリー",
    "url": "https://tabelog.com/fukuoka/A4003/A400301/40050313/",
    "image": "https://tblg.k-img.com/restaurant/images/Rvw/312170/640x640_rect_554ad0452341548b50f1347355974c43.jpg",
    "address": "福岡県春日市昇町4-24 稲生ビル1F",
    "rating": 3.63,
    "ratingCount": 95,
    "lat": 33.52640143631189,
    "lng": 130.4488765679882
  },
  {
    "rank": 59,
    "id": "17006301",
    "name": "海月が雲になる日",
    "url": "https://tabelog.com/ishikawa/A1701/A170101/17006301/",
    "image": "https://tblg.k-img.com/restaurant/images/Rvw/270713/640x640_rect_9138e745133c29a9921bdea681385a73.jpg",
    "address": "石川県金沢市長町2-6-5",
    "rating": 3.59,
    "ratingCount": 89,
    "lat": 36.56505649716187,
    "lng": 136.6489330454972
  },
  {
    "rank": 60,
    "id": "40000400",
    "name": "韓国料理 漢陽",
    "url": "https://tabelog.com/fukuoka/A4001/A400106/40000400/",
    "image": "https://tblg.k-img.com/restaurant/images/Rvw/22196/640x640_rect_22196132.jpg",
    "address": "福岡県福岡市博多区御供所町2-41",
    "rating": 3.56,
    "ratingCount": 145,
    "lat": 33.59576525706212,
    "lng": 130.41407060987507
  },
  {
    "rank": 61,
    "id": "28054538",
    "name": "韓国料理 釜山",
    "url": "https://tabelog.com/hyogo/A2803/A280304/28054538/",
    "image": "https://tblg.k-img.com/restaurant/images/Rvw/366353/640x640_rect_7da3122558bec96b38156d1ffe1208c8.jpg",
    "address": "兵庫県尼崎市西立花町2-4-5",
    "rating": 3.72,
    "ratingCount": 144,
    "lat": 34.735408117925424,
    "lng": 135.39766022789314
  },
  {
    "rank": 62,
    "id": "34028426",
    "name": "バンコク食堂 バードマン",
    "url": "https://tabelog.com/hiroshima/A3401/A340126/34028426/",
    "image": "https://tblg.k-img.com/restaurant/images/Rvw/153300/640x640_rect_153300946.jpg",
    "address": "広島県広島市佐伯区海老山町2-15 五日市駅前横丁",
    "rating": 3.55,
    "ratingCount": 79,
    "lat": 34.36596423638909,
    "lng": 132.36562487512498
  },
  {
    "rank": 63,
    "id": "26039345",
    "name": "MOT",
    "url": "https://tabelog.com/kyoto/A2601/A260503/26039345/",
    "image": "https://tblg.k-img.com/restaurant/images/Rvw/353594/640x640_rect_42324e16cd876bc0f227883153bcb574.jpg",
    "address": "京都府京都市上京区上御霊前通烏丸東入上御霊前町409-2",
    "rating": 3.75,
    "ratingCount": 37,
    "lat": 35.03671497569866,
    "lng": 135.75964146136573
  },
  {
    "rank": 64,
    "id": "27117855",
    "name": "Modern Thai CIEL 大阪本店",
    "url": "https://tabelog.com/osaka/A2701/A270108/27117855/",
    "image": "https://tblg.k-img.com/restaurant/images/Rvw/255971/320x320_rect_6c6c14ae2159ee8a85c077dd2062faf8.jpg",
    "address": "大阪府大阪市福島区福島3-12-5",
    "rating": 3.55,
    "ratingCount": 285,
    "lat": 34.69373583717441,
    "lng": 135.48525977624902
  },
  {
    "rank": 65,
    "id": "28041421",
    "name": "老虎菜 オーキッドコート店",
    "url": "https://tabelog.com/hyogo/A2801/A280106/28041421/",
    "image": "https://tblg.k-img.com/restaurant/images/Rvw/157720/640x640_rect_157720930.jpg",
    "address": "兵庫県神戸市東灘区西岡本2-7-3 オーキッドコート右峯館 1F",
    "rating": 3.55,
    "ratingCount": 216,
    "lat": 34.72211903708679,
    "lng": 135.26671237668893
  },
  {
    "rank": 66,
    "id": "47032070",
    "name": "タコス専門店 MEXICO 北谷店",
    "url": "https://tabelog.com/okinawa/A4703/A470304/47032070/",
    "image": "https://tblg.k-img.com/restaurant/images/Rvw/366719/640x640_rect_e7b347ea9e8dea33e93558c7a819c818.jpg",
    "address": "沖縄県中頭郡北谷町北谷1-12-10",
    "rating": 3.65,
    "ratingCount": 381,
    "lat": 26.307106440846326,
    "lng": 127.76079979811271
  },
  {
    "rank": 67,
    "id": "27037407",
    "name": "ソウル・ケー",
    "url": "https://tabelog.com/osaka/A2701/A270201/27037407/",
    "image": "https://tblg.k-img.com/restaurant/images/Rvw/333269/640x640_rect_e69087062ad8125f2562921bd6853fe1.jpg",
    "address": "大阪府大阪市西区北堀江2-2-7 北堀江ゲイトビル B1F",
    "rating": 3.65,
    "ratingCount": 197,
    "lat": 34.674415187994526,
    "lng": 135.49300033721022
  },
  {
    "rank": 68,
    "id": "43001320",
    "name": "メキシコレストラン トルタコス",
    "url": "https://tabelog.com/kumamoto/A4301/A430101/43001320/",
    "image": "https://tblg.k-img.com/restaurant/images/Rvw/91729/640x640_rect_91729323.jpg",
    "address": "熊本県熊本市中央区練兵町73",
    "rating": 3.62,
    "ratingCount": 88,
    "lat": 32.7973593928108,
    "lng": 130.7029588312924
  },
  {
    "rank": 69,
    "id": "27129061",
    "name": "アラブ料理専門店 七つの丘 SEVEN HILLS",
    "url": "https://tabelog.com/osaka/A2701/A270103/27129061/",
    "image": "https://tblg.k-img.com/restaurant/images/Rvw/366908/640x640_rect_fbd49a92ef5a2f22df53717d6707a86c.jpg",
    "address": "大阪府大阪市北区西天満5-16-3 西天満ファイブビル B1F",
    "rating": 3.6,
    "ratingCount": 154,
    "lat": 34.69810678974803,
    "lng": 135.50664890096343
  },
  {
    "rank": 70,
    "id": "43015735",
    "name": "トルコ食堂タマム",
    "url": "https://tabelog.com/kumamoto/A4301/A430101/43015735/",
    "image": "https://tblg.k-img.com/restaurant/images/Rvw/318490/640x640_rect_17a07e764c8b409b63d347c85868cd05.jpg",
    "address": "熊本県熊本市中央区水前寺6-24-1",
    "rating": 3.54,
    "ratingCount": 34,
    "lat": 32.78813561767969,
    "lng": 130.74258028148694
  },
  {
    "rank": 71,
    "id": "43008536",
    "name": "路家",
    "url": "https://tabelog.com/kumamoto/A4301/A430101/43008536/",
    "image": "https://tblg.k-img.com/restaurant/images/Rvw/337792/640x640_rect_92cd241f4c0b5eaf99f1195cc86d6bf9.jpg",
    "address": "熊本県熊本市東区健軍3-1-55",
    "rating": 3.54,
    "ratingCount": 101,
    "lat": 32.78121465768753,
    "lng": 130.75337500140947
  },
  {
    "rank": 72,
    "id": "47026260",
    "name": "Amigo",
    "url": "https://tabelog.com/okinawa/A4701/A470101/47026260/",
    "image": "https://tblg.k-img.com/restaurant/images/Rvw/302827/640x640_rect_eef11cfa3f1c8f229a6ee16cf4f008d4.jpg",
    "address": "沖縄県那覇市若狭1-17-21",
    "rating": 3.52,
    "ratingCount": 68,
    "lat": 26.220318413032494,
    "lng": 127.67299009613153
  },
  {
    "rank": 73,
    "id": "27044252",
    "name": "ミセス ユン",
    "url": "https://tabelog.com/osaka/A2701/A270105/27044252/",
    "image": "https://tblg.k-img.com/restaurant/images/Rvw/173911/640x640_rect_c752bf7532883c98a4e98ab5e1588542.jpg",
    "address": "大阪府大阪市西区北堀江2-6-15 winビル 1F",
    "rating": 3.62,
    "ratingCount": 292,
    "lat": 34.67380391799443,
    "lng": 135.4914717772051
  },
  {
    "rank": 74,
    "id": "40034145",
    "name": "ドゥワンチャン",
    "url": "https://tabelog.com/fukuoka/A4009/A400901/40034145/",
    "image": "https://tblg.k-img.com/restaurant/images/Rvw/22983/640x640_rect_22983501.jpg",
    "address": "福岡県糸島市二丈深江2129-18",
    "rating": 3.66,
    "ratingCount": 230,
    "lat": 33.51215021702456,
    "lng": 130.12935155923003
  },
  {
    "rank": 75,
    "id": "27119490",
    "name": "エリックサウス 西天満",
    "url": "https://tabelog.com/osaka/A2701/A270101/27119490/",
    "image": "https://tblg.k-img.com/restaurant/images/Rvw/327244/640x640_rect_fb0ce41a64ed97e80969e466607e6b54.jpg",
    "address": "大阪府大阪市北区西天満4-1-9 ニュー若松ビル 1F",
    "rating": 3.57,
    "ratingCount": 274,
    "lat": 34.69624773717919,
    "lng": 135.50525897626036
  },
  {
    "rank": 76,
    "id": "27135839",
    "name": "ホッホ",
    "url": "https://tabelog.com/osaka/A2701/A270103/27135839/",
    "image": "https://tblg.k-img.com/restaurant/images/Rvw/343092/640x640_rect_7b0b5094d6966c122778b787de6407a5.jpg",
    "address": "大阪府大阪市北区池田町9-9",
    "rating": 4.1,
    "ratingCount": 201,
    "lat": 34.70727173177952,
    "lng": 135.51361834108056
  },
  {
    "rank": 77,
    "id": "28006373",
    "name": "CAFE NADI",
    "url": "https://tabelog.com/hyogo/A2803/A280301/28006373/",
    "image": "https://tblg.k-img.com/restaurant/images/Rvw/364186/640x640_rect_ac063b5599c414afadb5eb284606d7a0.jpg",
    "address": "兵庫県西宮市松籟荘7-21 ニューコーべビル２Ｆ",
    "rating": 3.57,
    "ratingCount": 105,
    "lat": 34.76605579789377,
    "lng": 135.3593762682295
  },
  {
    "rank": 78,
    "id": "27072653",
    "name": "セイロンカリー",
    "url": "https://tabelog.com/osaka/A2701/A270106/27072653/",
    "image": "https://tblg.k-img.com/restaurant/images/Rvw/53498/640x640_rect_53498705.jpg",
    "address": "大阪府大阪市中央区南船場1-13-4 フロントラインビル 1F",
    "rating": 3.57,
    "ratingCount": 914,
    "lat": 34.677192637192206,
    "lng": 135.50817187606586
  },
  {
    "rank": 79,
    "id": "27152082",
    "name": "ジョニーのビリヤニ 大阪北浜店",
    "url": "https://tabelog.com/osaka/A2701/A270102/27152082/",
    "image": "https://tblg.k-img.com/restaurant/images/Rvw/362138/640x640_rect_54025cce839cd9e1754d23fa2304dc9d.jpg",
    "address": "大阪府大阪市中央区高麗橋2-2-2",
    "rating": 3.62,
    "ratingCount": 70,
    "lat": 34.68934132206648,
    "lng": 135.50571271562495
  },
  {
    "rank": 80,
    "id": "46004255",
    "name": "スリランカ かごしま",
    "url": "https://tabelog.com/kagoshima/A4601/A460101/46004255/",
    "image": "https://tblg.k-img.com/restaurant/images/Rvw/174614/640x640_rect_6665121bdd1c4bc824a39d790799e11a.jpg",
    "address": "鹿児島県鹿児島市東千石町8-23 天神プラザビル2F-2B",
    "rating": 3.65,
    "ratingCount": 324,
    "lat": 31.591662537574106,
    "lng": 130.553820348372
  },
  {
    "rank": 81,
    "id": "24012047",
    "name": "スカスカ",
    "url": "https://tabelog.com/mie/A2402/A240202/24012047/",
    "image": "https://tblg.k-img.com/restaurant/images/Rvw/366913/640x640_rect_f1526b5e2f6f376b0192e1e9d76d0cc2.jpg",
    "address": "三重県鈴鹿市算所5-12-5",
    "rating": 3.63,
    "ratingCount": 141,
    "lat": 34.876342518203,
    "lng": 136.55036300850867
  },
  {
    "rank": 82,
    "id": "40058739",
    "name": "ダルマサーガラ",
    "url": "https://tabelog.com/fukuoka/A4008/A400801/40058739/",
    "image": "https://tblg.k-img.com/restaurant/images/Rvw/161426/320x320_rect_161426708.jpg",
    "address": "福岡県久留米市田主丸町石垣83-3",
    "rating": 3.61,
    "ratingCount": 78,
    "lat": 33.3305372365197,
    "lng": 130.71079436582622
  },
  {
    "rank": 83,
    "id": "28036713",
    "name": "神戸サムギョプサル",
    "url": "https://tabelog.com/hyogo/A2801/A280102/28036713/",
    "image": "https://tblg.k-img.com/restaurant/images/Rvw/214705/640x640_rect_4c5441f8cb056ad4ea8a0c1e3d3e3a60.jpg",
    "address": "兵庫県神戸市中央区下山手通り4-14-3 1F",
    "rating": 3.57,
    "ratingCount": 138,
    "lat": 34.69239568028854,
    "lng": 135.18552277784912
  },
  {
    "rank": 84,
    "id": "27149759",
    "name": "シンサコッケダン",
    "url": "https://tabelog.com/osaka/A2701/A270201/27149759/",
    "image": "https://tblg.k-img.com/restaurant/images/Rvw/304858/640x640_rect_61da4faf5ac2794b3c944b7ee01e4e2d.jpg",
    "address": "大阪府大阪市西区南堀江1-14-27 GONTAXビル 3F",
    "rating": 3.5,
    "ratingCount": 90,
    "lat": 34.671691078525974,
    "lng": 135.49500830616336
  },
  {
    "rank": 85,
    "id": "40001214",
    "name": "タイ屋台料理＆ヌードル オシャ",
    "url": "https://tabelog.com/fukuoka/A4001/A400202/40001214/",
    "image": "https://tblg.k-img.com/restaurant/images/Rvw/21407/640x640_rect_21407402.jpg",
    "address": "福岡県福岡市南区大橋1-23-21 安部ビル　１Ｆ",
    "rating": 3.6,
    "ratingCount": 196,
    "lat": 33.556549817091174,
    "lng": 130.42706445946982
  },
  {
    "rank": 86,
    "id": "28047288",
    "name": "スンドゥブチゲタン",
    "url": "https://tabelog.com/hyogo/A2803/A280304/28047288/",
    "image": "https://tblg.k-img.com/restaurant/images/Rvw/351309/640x640_rect_70581c99f17aaee56ff7954390444e64.jpg",
    "address": "兵庫県尼崎市東難波町5-16-28",
    "rating": 3.58,
    "ratingCount": 304,
    "lat": 34.72208745793898,
    "lng": 135.41367529774735
  },
  {
    "rank": 87,
    "id": "27042315",
    "name": "堀内チキンライス",
    "url": "https://tabelog.com/osaka/A2701/A270203/27042315/",
    "image": "https://tblg.k-img.com/restaurant/images/Rvw/23253/640x640_rect_23253202.jpg",
    "address": "大阪府大阪市阿倍野区天王寺町南2-10-1",
    "rating": 3.65,
    "ratingCount": 411,
    "lat": 34.64311480802424,
    "lng": 135.52386193687244
  },
  {
    "rank": 88,
    "id": "40034419",
    "name": "ハラールフードマルハバ",
    "url": "https://tabelog.com/fukuoka/A4001/A400201/40034419/",
    "image": "https://tblg.k-img.com/restaurant/images/Rvw/46667/640x640_rect_46667680.jpg",
    "address": "福岡県福岡市東区筥松3-10-13",
    "rating": 3.71,
    "ratingCount": 258,
    "lat": 33.62428013624335,
    "lng": 130.4288557689909
  },
  {
    "rank": 89,
    "id": "27014750",
    "name": "万宝家",
    "url": "https://tabelog.com/osaka/A2701/A270306/27014750/",
    "image": "https://tblg.k-img.com/restaurant/images/Rvw/344825/640x640_rect_91f1eacd3713bc03fd73cfe548d72a04.jpg",
    "address": "大阪府大阪市生野区新今里3丁目11-20",
    "rating": 3.67,
    "ratingCount": 164,
    "lat": 34.66055363721526,
    "lng": 135.54731537587034
  },
  {
    "rank": 90,
    "id": "27007933",
    "name": "タイ料理 Sweet Basil",
    "url": "https://tabelog.com/osaka/A2701/A270101/27007933/",
    "image": "https://tblg.k-img.com/restaurant/images/Rvw/266327/640x640_rect_dcdf4179fb3bfb4c57c9da33845dbe11.jpg",
    "address": "大阪府大阪市北区大淀南1-11-9 2F",
    "rating": 3.67,
    "ratingCount": 766,
    "lat": 34.701523237170186,
    "lng": 135.4875279763261
  },
  {
    "rank": 91,
    "id": "27072992",
    "name": "大阪ハラールレストラン",
    "url": "https://tabelog.com/osaka/A2701/A270407/27072992/",
    "image": "https://tblg.k-img.com/restaurant/images/Rvw/230123/640x640_rect_a0a604abbd80b096dbe68d4cb0b2dbc6.jpg",
    "address": "大阪府大阪市西淀川区大和田4-13-2",
    "rating": 3.57,
    "ratingCount": 298,
    "lat": 34.70849953715216,
    "lng": 135.44483157642648
  },
  {
    "rank": 92,
    "id": "27152136",
    "name": "Mugunfa",
    "url": "https://tabelog.com/osaka/A2701/A270103/27152136/",
    "image": "https://tblg.k-img.com/restaurant/images/Rvw/321339/320x320_rect_4260c08515669a12b89e79b64941b728.jpg",
    "address": "大阪府大阪市北区西天満5-16-15 エフワンビル 1F",
    "rating": 3.73,
    "ratingCount": 71,
    "lat": 34.69825421508536,
    "lng": 135.50685959168305
  },
  {
    "rank": 93,
    "id": "27125082",
    "name": "天波",
    "url": "https://tabelog.com/osaka/A2701/A270101/27125082/",
    "image": "https://tblg.k-img.com/restaurant/images/Rvw/165886/640x640_rect_10466093d892cdd5a9b0db4d895ed438.jpg",
    "address": "大阪府大阪市北区",
    "rating": 3.66,
    "ratingCount": 84,
    "lat": 0,
    "lng": 0
  },
  {
    "rank": 94,
    "id": "40055138",
    "name": "ユズフザイハラール",
    "url": "https://tabelog.com/fukuoka/A4001/A400201/40055138/",
    "image": "https://tblg.k-img.com/restaurant/images/Rvw/364526/640x640_rect_d1e440c9f922d07b4a3395285c924408.jpg",
    "address": "福岡県福岡市東区多の津1-13-1",
    "rating": 3.55,
    "ratingCount": 76,
    "lat": 33.62522888641716,
    "lng": 130.4500300389484
  },
  {
    "rank": 95,
    "id": "27142252",
    "name": "貝焼き グイ 92",
    "url": "https://tabelog.com/osaka/A2701/A270205/27142252/",
    "image": "https://tblg.k-img.com/restaurant/images/Rvw/312879/640x640_rect_9c4515e3c74e0c45bb72f475f1c8d22e.jpg",
    "address": "大阪府大阪市東成区東小橋3-13-20",
    "rating": 3.34,
    "ratingCount": 112,
    "lat": 34.66626503801207,
    "lng": 135.53185086710067
  },
  {
    "rank": 96,
    "id": "27134235",
    "name": "唯",
    "url": "https://tabelog.com/osaka/A2701/A270306/27134235/",
    "image": "https://tblg.k-img.com/restaurant/images/Rvw/307575/640x640_rect_5fb71b83e1ffc0ea07bb9de7e48d8618.jpg",
    "address": "大阪府大阪市生野区中川西2-12-4",
    "rating": 3.68,
    "ratingCount": 32,
    "lat": 34.660669292512935,
    "lng": 135.5409038247326
  },
  {
    "rank": 97,
    "id": "26041488",
    "name": "京韓堂 アジョシ祇園本店",
    "url": "https://tabelog.com/kyoto/A2601/A260301/26041488/",
    "image": "https://tblg.k-img.com/restaurant/images/Rvw/257157/640x640_rect_43f565fb528d5507fc7ad7e905c1e479.jpg",
    "address": "京都府京都市東山区4-小松町4-2",
    "rating": 3.6,
    "ratingCount": 122,
    "lat": 35.00316865980601,
    "lng": 135.77329266806126
  },
  {
    "rank": 98,
    "id": "28039372",
    "name": "リトル ランカ",
    "url": "https://tabelog.com/hyogo/A2803/A280301/28039372/",
    "image": "https://tblg.k-img.com/restaurant/images/Rvw/22939/640x640_rect_22939179.jpg",
    "address": "兵庫県西宮市山口町船坂1380-1",
    "rating": 3.63,
    "ratingCount": 192,
    "lat": 34.806576137036465,
    "lng": 135.2771446775347
  },
  {
    "rank": 99,
    "id": "27090916",
    "name": "スパイス料理ナッラマナム",
    "url": "https://tabelog.com/osaka/A2701/A270106/27090916/",
    "image": "https://tblg.k-img.com/restaurant/images/Rvw/135764/640x640_rect_135764471.jpg",
    "address": "大阪府大阪市中央区瓦町1-4-6 市岡興産ビル 1F",
    "rating": 3.81,
    "ratingCount": 599,
    "lat": 34.685785547992005,
    "lng": 135.50776790731473
  },
  {
    "rank": 100,
    "id": "27044516",
    "name": "シンズキッチン",
    "url": "https://tabelog.com/osaka/A2701/A270202/27044516/",
    "image": "https://tblg.k-img.com/restaurant/images/Rvw/108753/640x640_rect_108753478.jpg",
    "address": "大阪府大阪市中央区日本橋 1-21-20 丸富パールビル　１Ｆ",
    "rating": 3.52,
    "ratingCount": 978,
    "lat": 34.665654422942964,
    "lng": 135.50638569476658
  }
]