[
  {
    "rank": 1,
    "id": "13170211",
    "name": "カーン・ケバブ・ビリヤニ",
    "url": "https://tabelog.com/tokyo/A1301/A130103/13170211/",
    "image": "https://tblg.k-img.com/restaurant/images/Rvw/94614/640x640_rect_94614363.jpg",
    "address": "東京都中央区銀座8-8-11 銀座博品館 6F",
    "rating": 3.65,
    "ratingCount": 3098,
    "lat": 35.6678862379174,
    "lng": 139.76100778309166
  },
  {
    "rank": 2,
    "id": "13267611",
    "name": "タイ料理 ミャオミャオ",
    "url": "https://tabelog.com/tokyo/A1318/A131807/13267611/",
    "image": "https://tblg.k-img.com/restaurant/images/Rvw/168197/640x640_rect_42eaae8d5092147ff1a750ebbacd6307.jpg",
    "address": "東京都渋谷区幡ヶ谷2-1-4 ACN渋谷幡ヶ谷ビル 2F",
    "rating": 3.62,
    "ratingCount": 510,
    "lat": 35.677959737884734,
    "lng": 139.67855318325124
  },
  {
    "rank": 3,
    "id": "13230241",
    "name": "ケララの風モーニング",
    "url": "https://tabelog.com/tokyo/A1315/A131502/13230241/",
    "image": "https://tblg.k-img.com/restaurant/images/Rvw/365852/640x640_rect_239722b86f2948293266ab87eb0c54c1.jpg",
    "address": "東京都大田区山王3-1-10",
    "rating": 3.66,
    "ratingCount": 311,
    "lat": 35.58545036876385,
    "lng": 139.7255861134456
  },
  {
    "rank": 4,
    "id": "13019721",
    "name": "韓灯",
    "url": "https://tabelog.com/tokyo/A1313/A131302/13019721/",
    "image": "https://tblg.k-img.com/restaurant/images/Rvw/158258/640x640_rect_158258136.jpg",
    "address": "東京都中央区月島2-8-12 AS ONE月島 B1F",
    "rating": 3.6,
    "ratingCount": 449,
    "lat": 35.663347637927835,
    "lng": 139.78470088302922
  },
  {
    "rank": 5,
    "id": "13204833",
    "name": "ヨヨナム",
    "url": "https://tabelog.com/tokyo/A1318/A131810/13204833/",
    "image": "https://tblg.k-img.com/restaurant/images/Rvw/72433/640x640_rect_72433592.jpg",
    "address": "東京都渋谷区代々木5-66-4",
    "rating": 3.67,
    "ratingCount": 583,
    "lat": 35.67138928869807,
    "lng": 139.69044665433827
  },
  {
    "rank": 6,
    "id": "13296304",
    "name": "KHAO",
    "url": "https://tabelog.com/tokyo/A1310/A131003/13296304/",
    "image": "https://tblg.k-img.com/restaurant/images/Rvw/243991/640x640_rect_202bb3a170e56d4c986c7e159a82165b.jpg",
    "address": "東京都千代田区神田神保町2-12-7 フェルメール 1F",
    "rating": 3.96,
    "ratingCount": 172,
    "lat": 35.69658228930529,
    "lng": 139.75696216347552
  },
  {
    "rank": 7,
    "id": "13153983",
    "name": "ペルー料理 bepocah",
    "url": "https://tabelog.com/tokyo/A1306/A130601/13153983/",
    "image": "https://tblg.k-img.com/restaurant/images/Rvw/309107/640x640_rect_905295389e46206dfb02900b994ab04e.jpg",
    "address": "東京都渋谷区神宮前2-17-6",
    "rating": 3.76,
    "ratingCount": 521,
    "lat": 35.67253645870362,
    "lng": 139.71014267433605
  },
  {
    "rank": 8,
    "id": "13207605",
    "name": "やっぱりインディア",
    "url": "https://tabelog.com/tokyo/A1323/A132302/13207605/",
    "image": "https://tblg.k-img.com/restaurant/images/Rvw/165029/640x640_rect_f8dd24a63a9f52ee98e09f4562fbfbc0.jpg",
    "address": "東京都豊島区南大塚3-50-3 運来ビル 2F",
    "rating": 3.69,
    "ratingCount": 1433,
    "lat": 35.73023929522893,
    "lng": 139.7280388492572
  },
  {
    "rank": 9,
    "id": "13004636",
    "name": "李南河 代官山店",
    "url": "https://tabelog.com/tokyo/A1303/A130303/13004636/",
    "image": "https://tblg.k-img.com/restaurant/images/Rvw/29384/640x640_rect_29384695.jpg",
    "address": "東京都渋谷区代官山町20-20 モンシェリー代官山 B1F",
    "rating": 3.59,
    "ratingCount": 519,
    "lat": 35.64806933791127,
    "lng": 139.70228938293266
  },
  {
    "rank": 10,
    "id": "13171570",
    "name": "韓国旬菜ハル",
    "url": "https://tabelog.com/tokyo/A1306/A130603/13171570/",
    "image": "https://tblg.k-img.com/restaurant/images/Rvw/35311/640x640_rect_35311922.jpg",
    "address": "東京都港区南青山3-2-6 モリヤサンライトビル 1F",
    "rating": 3.59,
    "ratingCount": 202,
    "lat": 35.667621137903794,
    "lng": 139.71774608311932
  },
  {
    "rank": 11,
    "id": "13116418",
    "name": "ネパリコ 渋谷店",
    "url": "https://tabelog.com/tokyo/A1303/A130301/13116418/",
    "image": "https://tblg.k-img.com/restaurant/images/Rvw/309224/640x640_rect_da1730919d2f26f32ba145c01f8c4add.jpg",
    "address": "東京都渋谷区桜丘町30-18 メイサ南平台 １Ｆ",
    "rating": 3.69,
    "ratingCount": 939,
    "lat": 35.655846437905105,
    "lng": 139.69840168301394
  },
  {
    "rank": 12,
    "id": "13000663",
    "name": "イズミル",
    "url": "https://tabelog.com/tokyo/A1319/A131905/13000663/",
    "image": "https://tblg.k-img.com/restaurant/images/Rvw/211334/640x640_rect_a3b3e5c9fed0ce2ab94c7cba17bf1239.jpg",
    "address": "東京都杉並区阿佐谷北2-13-2 阿佐谷北口駅前ビル（パサージュ） 2F",
    "rating": 3.56,
    "ratingCount": 279,
    "lat": 35.705657368659,
    "lng": 139.6360985847225
  },
  {
    "rank": 13,
    "id": "13035074",
    "name": "チョンソル",
    "url": "https://tabelog.com/tokyo/A1308/A130801/13035074/",
    "image": "https://tblg.k-img.com/restaurant/images/Rvw/329115/640x640_rect_fd5378bdd7f3fcd916f5bbc98165798e.jpg",
    "address": "東京都港区赤坂2-13-8 赤坂ロイヤルプラザ102",
    "rating": 3.55,
    "ratingCount": 1609,
    "lat": 35.67214194871288,
    "lng": 139.73844498431225
  },
  {
    "rank": 14,
    "id": "13193476",
    "name": "アロマズ オブ インディア",
    "url": "https://tabelog.com/tokyo/A1310/A131002/13193476/",
    "image": "https://tblg.k-img.com/restaurant/images/Rvw/52289/640x640_rect_52289786.jpg",
    "address": "東京都千代田区神田須田町1-21-4 神田NKビル B1F・1F",
    "rating": 3.65,
    "ratingCount": 823,
    "lat": 35.69682303555605,
    "lng": 139.7693536232817
  },
  {
    "rank": 15,
    "id": "13238530",
    "name": "タイ料理 みもっと",
    "url": "https://tabelog.com/tokyo/A1316/A131601/13238530/",
    "image": "https://tblg.k-img.com/restaurant/images/Rvw/298729/640x640_rect_7848ca8f79087fe87882d1267aa58212.jpg",
    "address": "東京都目黒区目黒1-24-7",
    "rating": 3.74,
    "ratingCount": 161,
    "lat": 35.635205637921906,
    "lng": 139.7099943827973
  },
  {
    "rank": 16,
    "id": "13268755",
    "name": "獅天鶏飯",
    "url": "https://tabelog.com/tokyo/A1303/A130301/13268755/",
    "image": "https://tblg.k-img.com/restaurant/images/Rvw/169445/320x320_square_30a0927d48cd5ebc9c9971597a00a51c.jpg",
    "address": "東京都渋谷区渋谷3-18-10 大野ビル2号館 2F",
    "rating": 3.58,
    "ratingCount": 1029,
    "lat": 35.65698563790617,
    "lng": 139.70400698302151
  },
  {
    "rank": 17,
    "id": "13120294",
    "name": "カッチャル バッチャル",
    "url": "https://tabelog.com/tokyo/A1323/A132302/13120294/",
    "image": "https://tblg.k-img.com/restaurant/images/Rvw/94240/320x320_rect_94240609.jpg",
    "address": "東京都豊島区南大塚3-2-10 林ビル 2F",
    "rating": 3.85,
    "ratingCount": 1683,
    "lat": 35.72731824867498,
    "lng": 139.72947709487585
  },
  {
    "rank": 18,
    "id": "13122530",
    "name": "ベトナムちゃん",
    "url": "https://tabelog.com/tokyo/A1304/A130404/13122530/",
    "image": "https://tblg.k-img.com/restaurant/images/Rvw/348549/640x640_rect_5bd906247a956c5402185ec0e0bedf9d.jpg",
    "address": "東京都新宿区百人町1-19-17",
    "rating": 3.61,
    "ratingCount": 1404,
    "lat": 35.701506258680844,
    "lng": 139.6963898346383
  },
  {
    "rank": 19,
    "id": "13284013",
    "name": "TOKYO BHAVAN",
    "url": "https://tabelog.com/tokyo/A1309/A130905/13284013/",
    "image": "https://tblg.k-img.com/restaurant/images/Rvw/305139/640x640_rect_907f4fcb96b2122d638db4e475ed859a.jpg",
    "address": "東京都千代田区飯田橋1-12-7 MSビル",
    "rating": 3.69,
    "ratingCount": 860,
    "lat": 35.69891383789372,
    "lng": 139.74854688341384
  },
  {
    "rank": 20,
    "id": "13294182",
    "name": "Modern Thai CIEL 北参道",
    "url": "https://tabelog.com/tokyo/A1304/A130403/13294182/",
    "image": "https://tblg.k-img.com/restaurant/images/Rvw/260700/640x640_rect_b34ed58d5c7f4e7c12f636a28b9ae466.jpg",
    "address": "東京都渋谷区千駄ヶ谷4-22-4",
    "rating": 3.55,
    "ratingCount": 144,
    "lat": 35.68024006955464,
    "lng": 139.7059049761338
  },
  {
    "rank": 21,
    "id": "13233798",
    "name": "スパイスバザール アチャカナ",
    "url": "https://tabelog.com/tokyo/A1304/A130401/13233798/",
    "image": "https://tblg.k-img.com/restaurant/images/Rvw/277927/640x640_rect_18a1e63dd0cb09125f16970e4b36f83e.jpg",
    "address": "東京都新宿区西新宿7-12-23 松沢ビル 3F",
    "rating": 3.7,
    "ratingCount": 1052,
    "lat": 35.69388108868588,
    "lng": 139.69701857456087
  },
  {
    "rank": 22,
    "id": "13281551",
    "name": "thalee ling",
    "url": "https://tabelog.com/tokyo/A1318/A131811/13281551/",
    "image": "https://tblg.k-img.com/restaurant/images/Rvw/356960/640x640_rect_35eda3b45dc7b97e241eb139e57c513b.jpg",
    "address": "東京都渋谷区元代々木町16-16",
    "rating": 3.61,
    "ratingCount": 239,
    "lat": 35.671048137890864,
    "lng": 139.6839616831776
  },
  {
    "rank": 23,
    "id": "13001747",
    "name": "ソルティーモード",
    "url": "https://tabelog.com/tokyo/A1303/A130302/13001747/",
    "image": "https://tblg.k-img.com/restaurant/images/Rvw/359623/640x640_rect_8654e02072da526c78da69f847c5dcd3.jpg",
    "address": "東京都渋谷区恵比寿西2-8-9 代官山宝ビルⅢ５Ｆ",
    "rating": 3.56,
    "ratingCount": 322,
    "lat": 35.6492318187176,
    "lng": 139.70758662410248
  },
  {
    "rank": 24,
    "id": "13227066",
    "name": "ロス タコス アスーレス",
    "url": "https://tabelog.com/tokyo/A1317/A131706/13227066/",
    "image": "https://tblg.k-img.com/restaurant/images/Rvw/104916/640x640_rect_104916939.jpg",
    "address": "東京都世田谷区上馬1-17-9",
    "rating": 3.77,
    "ratingCount": 861,
    "lat": 35.63835373790658,
    "lng": 139.66812608285846
  },
  {
    "rank": 25,
    "id": "13262438",
    "name": "ビリヤニ大澤",
    "url": "https://tabelog.com/tokyo/A1310/A131002/13262438/",
    "image": "https://tblg.k-img.com/restaurant/images/Rvw/367344/640x640_rect_23a8337c8644d1c71aea20f15c3d8db5.jpg",
    "address": "東京都千代田区内神田1-15-12 内神田サトウビル B1F",
    "rating": 3.95,
    "ratingCount": 593,
    "lat": 35.69222833790355,
    "lng": 139.76606398333402
  },
  {
    "rank": 26,
    "id": "13227101",
    "name": "バンダラ ランカ",
    "url": "https://tabelog.com/tokyo/A1309/A130903/13227101/",
    "image": "https://tblg.k-img.com/restaurant/images/Rvw/249749/640x640_rect_078d3e5ccf25be7957b65b71f9d9471a.jpg",
    "address": "東京都新宿区大京町12-9 アートコンプレックスセンター 1F",
    "rating": 3.7,
    "ratingCount": 915,
    "lat": 35.68431713789324,
    "lng": 139.71792208328785
  },
  {
    "rank": 27,
    "id": "13036794",
    "name": "ベンガル料理プージャー",
    "url": "https://tabelog.com/tokyo/A1324/A132401/13036794/",
    "image": "https://tblg.k-img.com/restaurant/images/Rvw/106818/640x640_rect_106818916.jpg",
    "address": "東京都荒川区町屋3-2-1 ライオンズプラザ町屋　Ｂ１Ｆ",
    "rating": 3.61,
    "ratingCount": 509,
    "lat": 35.74603171867988,
    "lng": 139.78217008502793
  },
  {
    "rank": 28,
    "id": "13239329",
    "name": "ゼロワンカレーA.o.D",
    "url": "https://tabelog.com/tokyo/A1314/A131402/13239329/",
    "image": "https://tblg.k-img.com/restaurant/images/Rvw/364969/640x640_rect_716ea36f86a07f3a0b11b19293ea03c2.jpg",
    "address": "東京都港区三田3-2-9 杉浦ビル 1F",
    "rating": 3.72,
    "ratingCount": 1701,
    "lat": 35.64740783792479,
    "lng": 139.7433571828972
  },
  {
    "rank": 29,
    "id": "13310428",
    "name": "Night Market",
    "url": "https://tabelog.com/tokyo/A1303/A130301/13310428/",
    "image": "https://tblg.k-img.com/restaurant/images/Rvw/361531/640x640_rect_662d54f5e3b98369908daf00facaba2d.jpg",
    "address": "東京都渋谷区渋谷2-6-6 COERU渋谷イースト 1F",
    "rating": 3.6,
    "ratingCount": 170,
    "lat": 35.65975223871104,
    "lng": 139.70799058420846
  },
  {
    "rank": 30,
    "id": "13284903",
    "name": "Indian Street Food & Bar GOND",
    "url": "https://tabelog.com/tokyo/A1310/A131002/13284903/",
    "image": "https://tblg.k-img.com/restaurant/images/Rvw/277038/640x640_rect_913f5af820d3904e58958b460d1054a5.jpg",
    "address": "東京都千代田区神田駿河台3-5-15 荒井ビル 1F",
    "rating": 3.67,
    "ratingCount": 694,
    "lat": 35.696095928705795,
    "lng": 139.76395709453632
  },
  {
    "rank": 31,
    "id": "13128960",
    "name": "タンドールバル カマルプール 木場店",
    "url": "https://tabelog.com/tokyo/A1313/A131303/13128960/",
    "image": "https://tblg.k-img.com/restaurant/images/Rvw/297395/640x640_rect_3d9775fc4b3ae733da524adc8acb1b5f.jpg",
    "address": "東京都江東区東陽3-20-9 鈴木ビル 1F",
    "rating": 3.72,
    "ratingCount": 2284,
    "lat": 35.66888698873801,
    "lng": 139.8108685442286
  },
  {
    "rank": 32,
    "id": "13206264",
    "name": "ナンディニ 虎ノ門店",
    "url": "https://tabelog.com/tokyo/A1301/A130103/13206264/",
    "image": "https://tblg.k-img.com/restaurant/images/Rvw/90358/640x640_rect_90358333.jpg",
    "address": "東京都港区西新橋2-22-1 ル・グラシエルBLDG4 1F",
    "rating": 3.67,
    "ratingCount": 1062,
    "lat": 35.66568497872152,
    "lng": 139.75269081423704
  },
  {
    "rank": 33,
    "id": "13295527",
    "name": "すぱいし家 飯田橋店",
    "url": "https://tabelog.com/tokyo/A1309/A130905/13295527/",
    "image": "https://tblg.k-img.com/restaurant/images/Rvw/243806/320x320_rect_8658836f04c0329bc5cbaaccc35a5afa.jpg",
    "address": "東京都千代田区飯田橋4-2-5 フジテラス飯田橋 102",
    "rating": 3.56,
    "ratingCount": 289,
    "lat": 35.69987904343845,
    "lng": 139.74731560769249
  },
  {
    "rank": 34,
    "id": "13248455",
    "name": "ADI",
    "url": "https://tabelog.com/tokyo/A1317/A131701/13248455/",
    "image": "https://tblg.k-img.com/restaurant/images/Rvw/239355/640x640_rect_eabc3310d31361eef6feec41a915f574.jpg",
    "address": "東京都目黒区上目黒2-46-7",
    "rating": 3.71,
    "ratingCount": 185,
    "lat": 35.64175611871854,
    "lng": 139.69561743403534
  },
  {
    "rank": 35,
    "id": "13174128",
    "name": "okudo 東京",
    "url": "https://tabelog.com/tokyo/A1304/A130402/13174128/",
    "image": "https://tblg.k-img.com/restaurant/images/Rvw/111418/640x640_rect_111418312.jpg",
    "address": "東京都新宿区新宿1-15-14 オムニビル 1F",
    "rating": 3.6,
    "ratingCount": 619,
    "lat": 35.68989247242786,
    "lng": 139.71057826810903
  },
  {
    "rank": 36,
    "id": "13160030",
    "name": "松記鶏飯",
    "url": "https://tabelog.com/tokyo/A1310/A131002/13160030/",
    "image": "https://tblg.k-img.com/restaurant/images/Rvw/36826/640x640_rect_36826034.jpg",
    "address": "東京都千代田区神田司町2-15-1  パレヤソジマ 1F",
    "rating": 3.68,
    "ratingCount": 994,
    "lat": 35.69390246926736,
    "lng": 139.76675786221645
  },
  {
    "rank": 37,
    "id": "13280691",
    "name": "タンジャイミールス",
    "url": "https://tabelog.com/tokyo/A1318/A131807/13280691/",
    "image": "https://tblg.k-img.com/restaurant/images/Rvw/307518/640x640_rect_c99fa076ebbfc4b1d9b0cf8e96b08f73.jpg",
    "address": "東京都-渋谷区幡ケ谷2-7-10 松本ビル 2F",
    "rating": 3.58,
    "ratingCount": 278,
    "lat": 35.677914748689844,
    "lng": 139.67760791441322
  },
  {
    "rank": 38,
    "id": "13245273",
    "name": "エリックサウス 高円寺カレー＆ビリヤニセンター",
    "url": "https://tabelog.com/tokyo/A1319/A131904/13245273/",
    "image": "https://tblg.k-img.com/restaurant/images/Rvw/191406/640x640_rect_4ea2b488c6933238e7f44a0105428bb8.jpg",
    "address": "東京都杉並区高円寺南4-49-1",
    "rating": 3.65,
    "ratingCount": 764,
    "lat": 35.70532680866414,
    "lng": 139.6515844347083
  },
  {
    "rank": 39,
    "id": "13136701",
    "name": "アーンドラ・ダイニング 銀座",
    "url": "https://tabelog.com/tokyo/A1301/A130101/13136701/",
    "image": "https://tblg.k-img.com/restaurant/images/Rvw/11685/320x320_rect_11685033.jpg",
    "address": "東京都中央区銀座1-8-2 銀座プルミエビル２Ｆ",
    "rating": 3.6,
    "ratingCount": 1777,
    "lat": 35.6745331187211,
    "lng": 139.76903003431494
  },
  {
    "rank": 40,
    "id": "13002329",
    "name": "ナイルレストラン",
    "url": "https://tabelog.com/tokyo/A1301/A130101/13002329/",
    "image": "https://tblg.k-img.com/restaurant/images/Rvw/208796/640x640_rect_a3265b8678cf3d22c24500021cf35736.jpg",
    "address": "東京都中央区銀座4-10-7",
    "rating": 3.65,
    "ratingCount": 3450,
    "lat": 35.67011242872333,
    "lng": 139.76719553427156
  },
  {
    "rank": 41,
    "id": "13195314",
    "name": "すぱいす暮らし",
    "url": "https://tabelog.com/tokyo/A1317/A131702/13195314/",
    "image": "https://tblg.k-img.com/restaurant/images/Rvw/353896/640x640_rect_139de4ffff91c0b3ff9242edf8fdc691.jpg",
    "address": "東京都目黒区鷹番2-20-14",
    "rating": 3.65,
    "ratingCount": 235,
    "lat": 35.62946751872335,
    "lng": 139.6862195839178
  },
  {
    "rank": 42,
    "id": "13294998",
    "name": "獅天鶏飯ハナレ",
    "url": "https://tabelog.com/tokyo/A1303/A130301/13294998/",
    "image": "https://tblg.k-img.com/restaurant/images/Rvw/242270/640x640_rect_cc2b53c698e450a19352b0555223b591.jpg",
    "address": "東京都渋谷区渋谷1-24-7 渋谷フラットビル 2F",
    "rating": 3.53,
    "ratingCount": 287,
    "lat": 35.66058406854119,
    "lng": 139.70199977440888
  },
  {
    "rank": 43,
    "id": "13004078",
    "name": "マンゴツリー東京",
    "url": "https://tabelog.com/tokyo/A1302/A130201/13004078/",
    "image": "https://tblg.k-img.com/restaurant/images/Rvw/69704/640x640_rect_69704392.jpg",
    "address": "東京都千代田区丸の内2-4-1 丸の内ビルディング 35F",
    "rating": 3.65,
    "ratingCount": 1401,
    "lat": 35.680935837910056,
    "lng": 139.76400018322138
  },
  {
    "rank": 44,
    "id": "13237344",
    "name": "ARALE",
    "url": "https://tabelog.com/tokyo/A1303/A130301/13237344/",
    "image": "https://tblg.k-img.com/restaurant/images/Rvw/129324/640x640_rect_129324845.jpg",
    "address": "東京都渋谷区鶯谷町7-12 GranDuo渋谷 1F",
    "rating": 3.56,
    "ratingCount": 132,
    "lat": 35.65411174871275,
    "lng": 139.70208075415562
  },
  {
    "rank": 45,
    "id": "13130363",
    "name": "エリックサウス 八重洲店",
    "url": "https://tabelog.com/tokyo/A1302/A130202/13130363/",
    "image": "https://tblg.k-img.com/restaurant/images/Rvw/160281/640x640_rect_160281570.jpg",
    "address": "東京都中央区八重洲2-1 八重洲地下街 中4号 (八重洲地下二番通り)",
    "rating": 3.67,
    "ratingCount": 3502,
    "lat": 35.67949489871853,
    "lng": 139.7708521643638
  },
  {
    "rank": 46,
    "id": "13091996",
    "name": "馬来西亜マレー",
    "url": "https://tabelog.com/tokyo/A1318/A131814/13091996/",
    "image": "https://tblg.k-img.com/restaurant/images/Rvw/248596/320x320_rect_bf5f2cab06569527dbbef1feee5fcc57.jpg",
    "address": "東京都世田谷区祖師谷4-21-1",
    "rating": 3.63,
    "ratingCount": 365,
    "lat": 35.64829452868601,
    "lng": 139.60649490416384
  },
  {
    "rank": 47,
    "id": "13242332",
    "name": "マロロガ バワン",
    "url": "https://tabelog.com/tokyo/A1321/A132104/13242332/",
    "image": "https://tblg.k-img.com/restaurant/images/Rvw/239539/640x640_rect_b1668df391da3f8503c5454bfc3e987d.jpg",
    "address": "東京都中野区新井1-35-12",
    "rating": 3.69,
    "ratingCount": 357,
    "lat": 35.713035928664496,
    "lng": 139.66806724477465
  },
  {
    "rank": 48,
    "id": "13288199",
    "name": "MOMO Stand Tokyo",
    "url": "https://tabelog.com/tokyo/A1307/A130703/13288199/",
    "image": "https://tblg.k-img.com/restaurant/images/Rvw/256621/640x640_rect_8eb3f4b2c2fecb6195f6587c426c4b0a.jpg",
    "address": "東京都渋谷区広尾5-18-8 1F",
    "rating": 3.66,
    "ratingCount": 205,
    "lat": 35.64903123791647,
    "lng": 139.7205229829296
  },
  {
    "rank": 49,
    "id": "13056242",
    "name": "コチン ニヴァース",
    "url": "https://tabelog.com/tokyo/A1304/A130401/13056242/",
    "image": "https://tblg.k-img.com/restaurant/images/Rvw/341162/640x640_rect_ce60076330cb3afa921ac88940099f61.jpg",
    "address": "東京都新宿区西新宿5-9-17 1F",
    "rating": 3.69,
    "ratingCount": 1084,
    "lat": 35.6917486986837,
    "lng": 139.6859176245471
  },
  {
    "rank": 50,
    "id": "13151371",
    "name": "南インド料理 なんどり",
    "url": "https://tabelog.com/tokyo/A1323/A132303/13151371/",
    "image": "https://tblg.k-img.com/restaurant/images/Rvw/97295/320x320_rect_97295143.jpg",
    "address": "東京都荒川区西尾久7-29-9",
    "rating": 3.59,
    "ratingCount": 226,
    "lat": 35.75066746866847,
    "lng": 139.7555980950934
  },
  {
    "rank": 51,
    "id": "13001860",
    "name": "シモン",
    "url": "https://tabelog.com/tokyo/A1307/A130702/13001860/",
    "image": "https://tblg.k-img.com/restaurant/images/Rvw/275064/640x640_rect_26e955468a022644d0d57a2c67938687.jpg",
    "address": "東京都港区麻布十番1-5-5 湯建十番ビル",
    "rating": 3.65,
    "ratingCount": 636,
    "lat": 35.65735237872051,
    "lng": 139.73290722416672
  },
  {
    "rank": 52,
    "id": "13209346",
    "name": "An Di",
    "url": "https://tabelog.com/tokyo/A1306/A130603/13209346/",
    "image": "https://tblg.k-img.com/restaurant/images/Rvw/237892/640x640_rect_51e0d94bf696f273a30a3fec6b600f78.jpg",
    "address": "東京都渋谷区神宮前3-42-12 1F",
    "rating": 3.84,
    "ratingCount": 687,
    "lat": 35.671919837899836,
    "lng": 139.71390768316544
  },
  {
    "rank": 53,
    "id": "13271579",
    "name": "スリマンガラムA/C 祖師ヶ谷大蔵店",
    "url": "https://tabelog.com/tokyo/A1318/A131814/13271579/",
    "image": "https://tblg.k-img.com/restaurant/images/Rvw/314200/640x640_rect_d6eb80a1bbd2ef8e7acdcc90794b3a1c.jpg",
    "address": "東京都世田谷区祖師谷3-33-2 三興ビル B1F",
    "rating": 3.61,
    "ratingCount": 381,
    "lat": 35.643776688689506,
    "lng": 139.60846614411685
  },
  {
    "rank": 54,
    "id": "13013124",
    "name": "ガラムマサラ",
    "url": "https://tabelog.com/tokyo/A1318/A131813/13013124/",
    "image": "https://tblg.k-img.com/restaurant/images/Rvw/296552/640x640_rect_2283f8db33332cac39724c8d8dfbca1e.jpg",
    "address": "東京都世田谷区経堂1-22-18 タイムポート経堂 2Ｆ",
    "rating": 3.7,
    "ratingCount": 1058,
    "lat": 35.65077613788838,
    "lng": 139.63581018300658
  },
  {
    "rank": 55,
    "id": "13151738",
    "name": "シバカリーワラ",
    "url": "https://tabelog.com/tokyo/A1317/A131706/13151738/",
    "image": "https://tblg.k-img.com/restaurant/images/Rvw/316250/640x640_rect_e75083ba900b459046ba7c02d40b8579.jpg",
    "address": "東京都世田谷区太子堂4-28-6 2F",
    "rating": 3.74,
    "ratingCount": 1530,
    "lat": 35.64599199870763,
    "lng": 139.6698257740962
  },
  {
    "rank": 56,
    "id": "13002457",
    "name": "グルガオン",
    "url": "https://tabelog.com/tokyo/A1301/A130101/13002457/",
    "image": "https://tblg.k-img.com/restaurant/images/Rvw/308142/640x640_rect_ace5916bc5b9d471a2a6ebfa03b3780e.jpg",
    "address": "東京都中央区銀座1-6-13 銀座１０６ビル　Ｂ１Ｆ",
    "rating": 3.7,
    "ratingCount": 3239,
    "lat": 35.67453442872057,
    "lng": 139.76735406431612
  },
  {
    "rank": 57,
    "id": "13252062",
    "name": "四次元食堂 南インドオステリア",
    "url": "https://tabelog.com/tokyo/A1305/A130504/13252062/",
    "image": "https://tblg.k-img.com/restaurant/images/Rvw/303200/640x640_rect_6aa88533ac6302f6c29ddc587ab7ad24.jpg",
    "address": "東京都新宿区西早稲田3-19-1",
    "rating": 3.59,
    "ratingCount": 149,
    "lat": 35.71070713787472,
    "lng": 139.7123952835583
  },
  {
    "rank": 58,
    "id": "13096305",
    "name": "アーンドラ・キッチン",
    "url": "https://tabelog.com/tokyo/A1311/A131101/13096305/",
    "image": "https://tblg.k-img.com/restaurant/images/Rvw/23756/320x320_rect_23756096.jpg",
    "address": "東京都台東区上野3-20-2 水野ビル　B1F",
    "rating": 3.66,
    "ratingCount": 1589,
    "lat": 35.70573396870285,
    "lng": 139.77393099462665
  },
  {
    "rank": 59,
    "id": "13248715",
    "name": "アンコム",
    "url": "https://tabelog.com/tokyo/A1307/A130703/13248715/",
    "image": "https://tblg.k-img.com/restaurant/images/Rvw/255014/640x640_rect_b437d2b467adf3bd5e421036901e020b.jpg",
    "address": "東京都渋谷区広尾5-4-16 EAT PLAY WORKS THE RESTAURANT 2F",
    "rating": 3.59,
    "ratingCount": 255,
    "lat": 35.65073246004346,
    "lng": 139.72192237013653
  },
  {
    "rank": 60,
    "id": "13009589",
    "name": "サンサール 小岩店",
    "url": "https://tabelog.com/tokyo/A1312/A131204/13009589/",
    "image": "https://tblg.k-img.com/restaurant/images/Rvw/333892/640x640_rect_d261536a9a903064125b077790fbc7e9.jpg",
    "address": "東京都江戸川区南小岩5-18-16 ニューシャトレー　１０３",
    "rating": 3.58,
    "ratingCount": 541,
    "lat": 35.72601395872457,
    "lng": 139.88259980475536
  },
  {
    "rank": 61,
    "id": "13000438",
    "name": "アジャンタ",
    "url": "https://tabelog.com/tokyo/A1308/A130803/13000438/",
    "image": "https://tblg.k-img.com/restaurant/images/Rvw/61306/640x640_rect_61306797.jpg",
    "address": "東京都千代田区二番町3-11",
    "rating": 3.68,
    "ratingCount": 2018,
    "lat": 35.686149237898135,
    "lng": 139.73693318329302
  },
  {
    "rank": 62,
    "id": "13298243",
    "name": "ジョニーのビリヤニ 神田店",
    "url": "https://tabelog.com/tokyo/A1310/A131002/13298243/",
    "image": "https://tblg.k-img.com/restaurant/images/Rvw/304088/640x640_rect_331ea1d014009349ebfab7de9b41198d.jpg",
    "address": "東京都千代田区内神田3-8-1",
    "rating": 3.58,
    "ratingCount": 300,
    "lat": 35.690864237492406,
    "lng": 139.7698702436192
  },
  {
    "rank": 63,
    "id": "13231356",
    "name": "タンドールバル カマル2号",
    "url": "https://tabelog.com/tokyo/A1312/A131202/13231356/",
    "image": "https://tblg.k-img.com/restaurant/images/Rvw/229193/640x640_rect_c1cec794143ffdaf3ffe759c421bebf9.jpg",
    "address": "東京都江東区亀戸6-24-8 ニューハウス亀戸 1F",
    "rating": 3.68,
    "ratingCount": 811,
    "lat": 35.695637928726,
    "lng": 139.82651000448783
  },
  {
    "rank": 64,
    "id": "13055381",
    "name": "ブルガズ アダ",
    "url": "https://tabelog.com/tokyo/A1307/A130702/13055381/",
    "image": "https://tblg.k-img.com/restaurant/images/Rvw/33098/640x640_rect_33098964.jpg",
    "address": "東京都港区麻布十番3-7-4 麻布六堂　３Ｆ",
    "rating": 3.77,
    "ratingCount": 329,
    "lat": 35.65373853791811,
    "lng": 139.73503178296698
  },
  {
    "rank": 65,
    "id": "13281095",
    "name": "草原の料理 スヨリト",
    "url": "https://tabelog.com/tokyo/A1309/A130905/13281095/",
    "image": "https://tblg.k-img.com/restaurant/images/Rvw/213215/640x640_rect_5456440a93147efaea99e3a078da0f5b.jpg",
    "address": "東京都新宿区矢来町82",
    "rating": 3.67,
    "ratingCount": 385,
    "lat": 35.70101413869278,
    "lng": 139.73290745460775
  },
  {
    "rank": 66,
    "id": "13002616",
    "name": "デリー 銀座店",
    "url": "https://tabelog.com/tokyo/A1301/A130101/13002616/",
    "image": "https://tblg.k-img.com/restaurant/images/Rvw/85897/640x640_rect_85897949.jpg",
    "address": "東京都中央区銀座6-3-11 西銀座ビル 3F",
    "rating": 3.67,
    "ratingCount": 2296,
    "lat": 35.67119133791525,
    "lng": 139.76085168312514
  },
  {
    "rank": 67,
    "id": "13252301",
    "name": "セレンディッブ",
    "url": "https://tabelog.com/tokyo/A1311/A131103/13252301/",
    "image": "https://tblg.k-img.com/restaurant/images/Rvw/326601/640x640_rect_1f981f448e7af73eedb3bec29d3828a0.jpg",
    "address": "東京都台東区寿3-8-3 1F",
    "rating": 3.63,
    "ratingCount": 683,
    "lat": 35.70637146870788,
    "lng": 139.79100434462117
  },
  {
    "rank": 68,
    "id": "13279173",
    "name": "NoruraDa",
    "url": "https://tabelog.com/tokyo/A1307/A130701/13279173/",
    "image": "https://tblg.k-img.com/restaurant/images/Rvw/252067/640x640_rect_1bb2ecebaf6208501978b3555af5b0e3.jpg",
    "address": "東京都港区赤坂2-22-11 メープルアーベント赤坂 103",
    "rating": 3.56,
    "ratingCount": 258,
    "lat": 35.668068359633416,
    "lng": 139.73905024166984
  },
  {
    "rank": 69,
    "id": "13196997",
    "name": "ネパール民族料理 アーガン",
    "url": "https://tabelog.com/tokyo/A1304/A130404/13196997/",
    "image": "https://tblg.k-img.com/restaurant/images/Rvw/58371/640x640_rect_58371221.jpg",
    "address": "東京都新宿区大久保2-32-3 リスボンビル4F",
    "rating": 3.57,
    "ratingCount": 1376,
    "lat": 35.70147843787742,
    "lng": 139.702478183472
  },
  {
    "rank": 70,
    "id": "13006879",
    "name": "キャラヴァンサライ包",
    "url": "https://tabelog.com/tokyo/A1319/A131901/13006879/",
    "image": "https://tblg.k-img.com/restaurant/images/Rvw/129236/320x320_rect_129236043.jpg",
    "address": "東京都中野区東中野2-25-6",
    "rating": 3.59,
    "ratingCount": 460,
    "lat": 35.70585835867362,
    "lng": 139.6824184646921
  },
  {
    "rank": 71,
    "id": "13232077",
    "name": "フォーティントーキョー",
    "url": "https://tabelog.com/tokyo/A1305/A130501/13232077/",
    "image": "https://tblg.k-img.com/restaurant/images/Rvw/129572/640x640_rect_129572425.jpg",
    "address": "東京都豊島区東池袋1-12-14 ハヤカワビル B1F",
    "rating": 3.67,
    "ratingCount": 2108,
    "lat": 35.72941220866892,
    "lng": 139.71461785490743
  },
  {
    "rank": 72,
    "id": "13207647",
    "name": "スパイスバル コザブロ",
    "url": "https://tabelog.com/tokyo/A1323/A132301/13207647/",
    "image": "https://tblg.k-img.com/restaurant/images/Rvw/352239/640x640_rect_448440c6be67c6fb96c4eb05fbf9e070.jpg",
    "address": "東京都文京区向丘2-34-8 1F",
    "rating": 3.67,
    "ratingCount": 473,
    "lat": 35.724035468685614,
    "lng": 139.75632398482387
  },
  {
    "rank": 73,
    "id": "13167391",
    "name": "スパイスバル猫六",
    "url": "https://tabelog.com/tokyo/A1312/A131203/13167391/",
    "image": "https://tblg.k-img.com/restaurant/images/Rvw/167958/640x640_rect_6a0651e0be45f0f18a1a0ef2f47d9d01.jpg",
    "address": "東京都墨田区東向島2-14-2",
    "rating": 3.67,
    "ratingCount": 288,
    "lat": 35.71760643870871,
    "lng": 139.81600664471708
  },
  {
    "rank": 74,
    "id": "13301838",
    "name": "BIANCHI",
    "url": "https://tabelog.com/tokyo/A1307/A130701/13301838/",
    "image": "https://tblg.k-img.com/restaurant/images/Rvw/267850/640x640_rect_09af58efbeda92fb4a33d2b0978d11ab.jpg",
    "address": "東京都港区六本木7-17-19 BPRスクエア 2F",
    "rating": 3.9,
    "ratingCount": 378,
    "lat": 35.66245789119642,
    "lng": 139.72904895172658
  },
  {
    "rank": 75,
    "id": "13195313",
    "name": "サンバレーホテル",
    "url": "https://tabelog.com/tokyo/A1317/A131706/13195313/",
    "image": "https://tblg.k-img.com/restaurant/images/Rvw/168263/640x640_rect_e56d61677d9ba7a06b951ad7f12fd855.jpg",
    "address": "東京都世田谷区上馬1-15-10 オリエント三軒茶屋ハウス1F",
    "rating": 3.67,
    "ratingCount": 258,
    "lat": 35.63838193790633,
    "lng": 139.66742028285924
  },
  {
    "rank": 76,
    "id": "13120204",
    "name": "砂の岬",
    "url": "https://tabelog.com/tokyo/A1317/A131707/13120204/",
    "image": "https://tblg.k-img.com/restaurant/images/Rvw/141825/640x640_rect_141825274.jpg",
    "address": "東京都世田谷区新町2-6-14",
    "rating": 3.67,
    "ratingCount": 654,
    "lat": 35.631132688710885,
    "lng": 139.65039954395974
  },
  {
    "rank": 77,
    "id": "13051190",
    "name": "ラヒ パンジャービー･キッチン",
    "url": "https://tabelog.com/tokyo/A1319/A131907/13051190/",
    "image": "https://tblg.k-img.com/restaurant/images/Rvw/85479/640x640_rect_85479799.jpg",
    "address": "東京都杉並区西荻南3-15-17 2F",
    "rating": 3.66,
    "ratingCount": 377,
    "lat": 35.703171088649604,
    "lng": 139.60164520472156
  },
  {
    "rank": 78,
    "id": "13186472",
    "name": "カリ～ アンド スパイスバル カリ～ビト",
    "url": "https://tabelog.com/tokyo/A1309/A130905/13186472/",
    "image": "https://tblg.k-img.com/restaurant/images/Rvw/43211/640x640_rect_43211519.jpg",
    "address": "東京都千代田区飯田橋3-2-6 フィルパーク飯田橋 1F",
    "rating": 3.69,
    "ratingCount": 1043,
    "lat": 35.7008247986978,
    "lng": 139.74827643459508
  },
  {
    "rank": 79,
    "id": "13255851",
    "name": "西インドスパイス ガヤバジ",
    "url": "https://tabelog.com/tokyo/A1311/A131102/13255851/",
    "image": "https://tblg.k-img.com/restaurant/images/Rvw/152379/640x640_rect_152379664.jpg",
    "address": "東京都台東区西浅草1-6-2",
    "rating": 3.58,
    "ratingCount": 484,
    "lat": 35.710801537899506,
    "lng": 139.79042578350453
  },
  {
    "rank": 80,
    "id": "13248858",
    "name": "SHE meguro",
    "url": "https://tabelog.com/tokyo/A1317/A131710/13248858/",
    "image": "https://tblg.k-img.com/restaurant/images/Rvw/183844/640x640_rect_32f23a2395902ee42c66cc33d402a6d8.jpg",
    "address": "東京都品川区上大崎4-5-31",
    "rating": 3.58,
    "ratingCount": 428,
    "lat": 35.62905983792778,
    "lng": 139.71618238273092
  },
  {
    "rank": 81,
    "id": "13295672",
    "name": "中目黒 若狭",
    "url": "https://tabelog.com/tokyo/A1317/A131701/13295672/",
    "image": "https://tblg.k-img.com/restaurant/images/Rvw/249947/640x640_rect_30f902ff02bc33226b236496c04aa743.jpg",
    "address": "東京都目黒区上目黒1-15-12",
    "rating": 3.86,
    "ratingCount": 222,
    "lat": 35.64654994887967,
    "lng": 139.69826684169612
  },
  {
    "rank": 82,
    "id": "13199412",
    "name": "アーンドラ・ダバ",
    "url": "https://tabelog.com/tokyo/A1310/A131002/13199412/",
    "image": "https://tblg.k-img.com/restaurant/images/Rvw/58133/640x640_rect_58133157.jpg",
    "address": "東京都千代田区内神田3-7-8 サトウハウスビル 2F",
    "rating": 3.56,
    "ratingCount": 886,
    "lat": 35.690749708711174,
    "lng": 139.77019853447794
  },
  {
    "rank": 83,
    "id": "13227361",
    "name": "HASUO",
    "url": "https://tabelog.com/tokyo/A1307/A130703/13227361/",
    "image": "https://tblg.k-img.com/restaurant/images/Rvw/216105/640x640_rect_9eab9aea1577103e4b93ed5836ce9840.jpg",
    "address": "東京都渋谷区広尾5-10-3 フロストバード広尾 1F",
    "rating": 3.65,
    "ratingCount": 522,
    "lat": 35.649504637916344,
    "lng": 139.72105558293396
  },
  {
    "rank": 84,
    "id": "13195398",
    "name": "初台スパイス食堂 和魂印才たんどーる",
    "url": "https://tabelog.com/tokyo/A1318/A131807/13195398/",
    "image": "https://tblg.k-img.com/restaurant/images/Rvw/55143/320x320_rect_559f616e1a059cabb29bbc67fef0da0d.jpg",
    "address": "東京都新宿区西新宿4-41-10 スカイコート西新宿 １Ｆ",
    "rating": 3.67,
    "ratingCount": 477,
    "lat": 35.68469278868803,
    "lng": 139.68546285447616
  },
  {
    "rank": 85,
    "id": "13248350",
    "name": "FUKUMEN Tequila & Modern Ethnic",
    "url": "https://tabelog.com/tokyo/A1311/A131102/13248350/",
    "image": "https://tblg.k-img.com/restaurant/images/Rvw/295099/640x640_rect_62efee16fd808c68371232c75c7bf923.jpg",
    "address": "東京都台東区浅草2-14-13",
    "rating": 3.56,
    "ratingCount": 180,
    "lat": 35.715554132660465,
    "lng": 139.79361574090794
  },
  {
    "rank": 86,
    "id": "13301818",
    "name": "BIANCHI mini me",
    "url": "https://tabelog.com/tokyo/A1307/A130701/13301818/",
    "image": "https://tblg.k-img.com/restaurant/images/Rvw/267887/640x640_rect_5763baa0584386db0e01a5286c3caa9e.jpg",
    "address": "東京都港区六本木7-17-19 BPRスクエア 2F",
    "rating": 3.67,
    "ratingCount": 244,
    "lat": 35.6624604470961,
    "lng": 139.7290594118116
  },
  {
    "rank": 87,
    "id": "13248957",
    "name": "ペルー料理 DESTINO51",
    "url": "https://tabelog.com/tokyo/A1306/A130602/13248957/",
    "image": "https://tblg.k-img.com/restaurant/images/Rvw/149660/640x640_rect_149660006.jpg",
    "address": "東京都港区南青山5-4-30 CASA SERENA 1F",
    "rating": 3.58,
    "ratingCount": 540,
    "lat": 35.66168273790644,
    "lng": 139.71419788306181
  },
  {
    "rank": 88,
    "id": "13023967",
    "name": "インド料理 想いの木",
    "url": "https://tabelog.com/tokyo/A1309/A130905/13023967/",
    "image": "https://tblg.k-img.com/restaurant/images/Rvw/245020/640x640_rect_49af67e0088d59361f42377662037281.jpg",
    "address": "東京都新宿区神楽坂5-22 KS神楽坂　 2F",
    "rating": 3.77,
    "ratingCount": 1265,
    "lat": 35.70230773788815,
    "lng": 139.7378229834556
  },
  {
    "rank": 89,
    "id": "13020927",
    "name": "韓流 安歡",
    "url": "https://tabelog.com/tokyo/A1301/A130101/13020927/",
    "image": "https://tblg.k-img.com/restaurant/images/Rvw/275140/640x640_rect_76b10b89dc83931eede6e3aeb4bbe9ce.jpg",
    "address": "東京都中央区銀座6-4-8 ニューギンザビル３号館　２Ｆ",
    "rating": 3.52,
    "ratingCount": 155,
    "lat": 35.6711029379155,
    "lng": 139.76145328312384
  },
  {
    "rank": 90,
    "id": "13258025",
    "name": "アラビックレストラン＆カフェ アブイサーム",
    "url": "https://tabelog.com/tokyo/A1309/A130905/13258025/",
    "image": "https://tblg.k-img.com/restaurant/images/Rvw/182057/640x640_rect_ce5a9baafee6f78220d738a8ad9cd23c.jpg",
    "address": "東京都新宿区矢来町111-1 Y’s Kagurazaka 1F",
    "rating": 3.55,
    "ratingCount": 258,
    "lat": 35.704203728690565,
    "lng": 139.7323111546404
  },
  {
    "rank": 91,
    "id": "13110628",
    "name": "プロカンジャンケジャン 赤坂店",
    "url": "https://tabelog.com/tokyo/A1308/A130801/13110628/",
    "image": "https://tblg.k-img.com/restaurant/images/Rvw/51932/640x640_rect_51932511.jpg",
    "address": "東京都港区赤坂3-11-7 ソシアル赤坂ビル２階",
    "rating": 3.53,
    "ratingCount": 863,
    "lat": 35.674581137905676,
    "lng": 139.73754928317572
  },
  {
    "rank": 92,
    "id": "13293197",
    "name": "ロス タコス アスーレス 恵比寿",
    "url": "https://tabelog.com/tokyo/A1303/A130302/13293197/",
    "image": "https://tblg.k-img.com/restaurant/images/Rvw/234837/640x640_rect_623a000062cb84533f6df2892a3f5348.jpg",
    "address": "東京都渋谷区恵比寿西2-7-1 スズキビル 1F",
    "rating": 3.67,
    "ratingCount": 148,
    "lat": 35.65041441296659,
    "lng": 139.70715259247513
  },
  {
    "rank": 93,
    "id": "13190512",
    "name": "Curry&Spice青い鳥",
    "url": "https://tabelog.com/tokyo/A1318/A131807/13190512/",
    "image": "https://tblg.k-img.com/restaurant/images/Rvw/189450/640x640_rect_accb6a78de69a5d79431b1ed17cf9afe.jpg",
    "address": "東京都渋谷区幡ヶ谷2-47-12 2F",
    "rating": 3.6,
    "ratingCount": 607,
    "lat": 35.67923136868884,
    "lng": 139.67709913442687
  },
  {
    "rank": 94,
    "id": "13006010",
    "name": "アンジュナ",
    "url": "https://tabelog.com/tokyo/A1329/A132903/13006010/",
    "image": "https://tblg.k-img.com/restaurant/images/Rvw/133801/320x320_rect_1a2bdd14b6cd68286f6775501a2c8283.jpg",
    "address": "東京都日野市高幡3-7 ユニバーサルビル　１Ｆ",
    "rating": 3.59,
    "ratingCount": 593,
    "lat": 35.66222447861533,
    "lng": 139.41234162444064
  },
  {
    "rank": 95,
    "id": "13234867",
    "name": "三燈舎",
    "url": "https://tabelog.com/tokyo/A1310/A131002/13234867/",
    "image": "https://tblg.k-img.com/restaurant/images/Rvw/325207/640x640_rect_2d1093091bf2b311fd986ec7e53e2184.jpg",
    "address": "東京都千代田区神田小川町3-2 古室ビル 2F",
    "rating": 3.67,
    "ratingCount": 1214,
    "lat": 35.69479283790084,
    "lng": 139.76269308336228
  },
  {
    "rank": 96,
    "id": "13171369",
    "name": "大岩食堂",
    "url": "https://tabelog.com/tokyo/A1319/A131907/13171369/",
    "image": "https://tblg.k-img.com/restaurant/images/Rvw/237000/640x640_rect_4e2aba3a374a2b40246c4acca2b5bea2.jpg",
    "address": "東京都杉並区西荻南3-24-1",
    "rating": 3.59,
    "ratingCount": 516,
    "lat": 35.70387112864936,
    "lng": 139.60227560472816
  },
  {
    "rank": 97,
    "id": "13266235",
    "name": "HOPPERS",
    "url": "https://tabelog.com/tokyo/A1302/A130203/13266235/",
    "image": "https://tblg.k-img.com/restaurant/images/Rvw/327959/640x640_rect_9d04f9463ce85f8a9709b7fdabcf44aa.jpg",
    "address": "東京都中央区日本橋兜町7-1 KABUTO ONE 1F",
    "rating": 3.74,
    "ratingCount": 952,
    "lat": 35.6812143379144,
    "lng": 139.77815678321426
  },
  {
    "rank": 98,
    "id": "13191118",
    "name": "スパイスボックス",
    "url": "https://tabelog.com/tokyo/A1310/A131002/13191118/",
    "image": "https://tblg.k-img.com/restaurant/images/Rvw/180234/640x640_rect_86a592ae132a1d19a5d1d79670f16fca.jpg",
    "address": "東京都千代田区内神田1-15-12 第二斉木ビル 1F",
    "rating": 3.66,
    "ratingCount": 1181,
    "lat": 35.69224193790348,
    "lng": 139.76590268333425
  },
  {
    "rank": 99,
    "id": "13002935",
    "name": "スパイスカフェ",
    "url": "https://tabelog.com/tokyo/A1312/A131203/13002935/",
    "image": "https://tblg.k-img.com/restaurant/images/Rvw/171536/640x640_rect_fb4902c9c814061deb6955c76addd8c0.jpg",
    "address": "東京都墨田区文花1-6-10",
    "rating": 3.71,
    "ratingCount": 1360,
    "lat": 35.70977147871497,
    "lng": 139.82005198463514
  },
  {
    "rank": 100,
    "id": "13003307",
    "name": "ミ・レイ",
    "url": "https://tabelog.com/tokyo/A1315/A131503/13003307/",
    "image": "https://tblg.k-img.com/restaurant/images/Rvw/179386/640x640_rect_305421d59b8d9eb82301f5058139c38b.jpg",
    "address": "東京都大田区蒲田5-1-4 関根ビル　２Ｆ",
    "rating": 3.7,
    "ratingCount": 735,
    "lat": 35.56420463796924,
    "lng": 139.7170309820752
  }
]