[
  {
    "rank": 1,
    "id": "34000100",
    "name": "薬研堀 八昌",
    "url": "https://tabelog.com/hiroshima/A3401/A340110/34000100/",
    "image": "https://tblg.k-img.com/restaurant/images/Rvw/71292/640x640_rect_71292405.jpg",
    "address": "広島県広島市中区薬研堀10-6",
    "rating": 3.7,
    "ratingCount": 1589,
    "lat": 34.38942743721128,
    "lng": 132.46523238645395
  },
  {
    "rank": 2,
    "id": "35001993",
    "name": "広島お好み焼き 弘々家",
    "url": "https://tabelog.com/yamaguchi/A3502/A350201/35001993/",
    "image": "https://tblg.k-img.com/restaurant/images/Rvw/349593/640x640_rect_36bf6fba08f44f4c8c7ccf1f6630a4e6.jpg",
    "address": "山口県下関市山の田中央町1-13 武嶋ビル 1F",
    "rating": 3.71,
    "ratingCount": 152,
    "lat": 33.98659378697764,
    "lng": 130.92820438346234
  },
  {
    "rank": 3,
    "id": "27004637",
    "name": "尾道 むらかみ",
    "url": "https://tabelog.com/osaka/A2701/A270101/27004637/",
    "image": "https://tblg.k-img.com/restaurant/images/Rvw/139446/640x640_rect_139446838.jpg",
    "address": "大阪府大阪市北区堂島1-3-9 日宝堂島センタービル 1Ｆ",
    "rating": 3.51,
    "ratingCount": 417,
    "lat": 34.69657373717658,
    "lng": 135.49769927626895
  },
  {
    "rank": 4,
    "id": "37001631",
    "name": "ふみや お好み焼き 本店",
    "url": "https://tabelog.com/kagawa/A3701/A370101/37001631/",
    "image": "https://tblg.k-img.com/restaurant/images/Rvw/271646/640x640_rect_a87faca88baccc7b3cac96b738ec2d77.jpg",
    "address": "香川県高松市瓦町2丁目2-35",
    "rating": 3.53,
    "ratingCount": 239,
    "lat": 34.34058307774724,
    "lng": 134.05074435484917
  },
  {
    "rank": 5,
    "id": "27001439",
    "name": "味乃家 本店",
    "url": "https://tabelog.com/osaka/A2701/A270202/27001439/",
    "image": "https://tblg.k-img.com/restaurant/images/Rvw/137587/640x640_rect_137587379.jpg",
    "address": "大阪府大阪市中央区難波1-7-16",
    "rating": 3.6,
    "ratingCount": 1709,
    "lat": 34.66807383800109,
    "lng": 135.50098487714058
  },
  {
    "rank": 6,
    "id": "11063803",
    "name": "アサカナキッチン ルーブルー",
    "url": "https://tabelog.com/saitama/A1103/A110301/11063803/",
    "image": "https://tblg.k-img.com/restaurant/images/Rvw/274004/640x640_rect_ddcb616d119a76f46060e54e2a56f719.jpg",
    "address": "埼玉県朝霞市本町2-8-15 第2ホワイトビルB 1F",
    "rating": 3.66,
    "ratingCount": 81,
    "lat": 35.79916450858685,
    "lng": 139.59602096569512
  },
  {
    "rank": 7,
    "id": "27069514",
    "name": "お好み たまちゃん viva",
    "url": "https://tabelog.com/osaka/A2701/A270201/27069514/",
    "image": "https://tblg.k-img.com/restaurant/images/Rvw/228584/640x640_rect_7e6b50b77b5c26c0db6df00802bc3374.jpg",
    "address": "大阪府大阪市西区北堀江2-3-10 TSUJIビルディング 1F",
    "rating": 3.59,
    "ratingCount": 461,
    "lat": 34.67359223718957,
    "lng": 135.49265827604037
  },
  {
    "rank": 8,
    "id": "27002204",
    "name": "お好み焼 千草",
    "url": "https://tabelog.com/osaka/A2701/A270103/27002204/",
    "image": "https://tblg.k-img.com/restaurant/images/Rvw/171183/640x640_rect_0570890fa62f293c602279c94c9ed636.jpg",
    "address": "大阪府大阪市北区天神橋4-11-18",
    "rating": 3.66,
    "ratingCount": 1594,
    "lat": 34.70628255798021,
    "lng": 135.51160152751905
  },
  {
    "rank": 9,
    "id": "23000212",
    "name": "くるみ",
    "url": "https://tabelog.com/aichi/A2301/A230104/23000212/",
    "image": "https://tblg.k-img.com/restaurant/images/Rvw/217565/640x640_rect_a18491fbb3183987292f3c77235bbbca.jpg",
    "address": "愛知県名古屋市中区新栄2-1-44 シャトームラセ",
    "rating": 3.62,
    "ratingCount": 178,
    "lat": 35.16905805813479,
    "lng": 136.91990406120635
  },
  {
    "rank": 10,
    "id": "27040855",
    "name": "お好み焼きもみじ",
    "url": "https://tabelog.com/osaka/A2701/A270205/27040855/",
    "image": "https://tblg.k-img.com/restaurant/images/Rvw/215573/640x640_rect_c7305fd0235aa4a4c934370860c76f34.jpg",
    "address": "大阪府大阪市天王寺区生玉町9-19",
    "rating": 3.62,
    "ratingCount": 555,
    "lat": 34.66647178800625,
    "lng": 135.51397353711528
  },
  {
    "rank": 11,
    "id": "27002851",
    "name": "象屋",
    "url": "https://tabelog.com/osaka/A2701/A270406/27002851/",
    "image": "https://tblg.k-img.com/restaurant/images/Rvw/167715/640x640_rect_6baaf5ed501ca09cc6388d30b06a8fe5.jpg",
    "address": "大阪府大阪市西成区玉出西2-7-10",
    "rating": 3.59,
    "ratingCount": 420,
    "lat": 34.62340138802586,
    "lng": 135.48966387669728
  },
  {
    "rank": 12,
    "id": "34001191",
    "name": "お好み焼き 越田 本店",
    "url": "https://tabelog.com/hiroshima/A3401/A340109/34001191/",
    "image": "https://tblg.k-img.com/restaurant/images/Rvw/297732/640x640_rect_8054c8e3d0d57717b5f1f85341e7439f.jpg",
    "address": "広島県広島市中区流川町8-30",
    "rating": 3.66,
    "ratingCount": 994,
    "lat": 34.38942297721109,
    "lng": 132.46461510645435
  },
  {
    "rank": 13,
    "id": "28000977",
    "name": "美作 神戸北野店",
    "url": "https://tabelog.com/hyogo/A2801/A280101/28000977/",
    "image": "https://tblg.k-img.com/restaurant/images/Rvw/286636/640x640_rect_cff43c3622c0b600eeb3e2c31ff8a8a1.jpg",
    "address": "兵庫県神戸市中央区中山手通1-8-1 明関ビル 1F",
    "rating": 3.71,
    "ratingCount": 597,
    "lat": 34.69470647788604,
    "lng": 135.1928111476256
  },
  {
    "rank": 14,
    "id": "13072955",
    "name": "源亀",
    "url": "https://tabelog.com/tokyo/A1312/A131201/13072955/",
    "image": "https://tblg.k-img.com/restaurant/images/Rvw/333897/640x640_rect_913d2dd67d2e11ea43aa70963c89ef76.jpg",
    "address": "東京都墨田区錦糸4-14-9 本間ビル　１Ｆ",
    "rating": 3.62,
    "ratingCount": 397,
    "lat": 35.69778033791582,
    "lng": 139.81570198335527
  },
  {
    "rank": 15,
    "id": "17005442",
    "name": "京祇園ねぎ焼 粉",
    "url": "https://tabelog.com/ishikawa/A1701/A170101/17005442/",
    "image": "https://tblg.k-img.com/restaurant/images/Rvw/271694/640x640_rect_74838c5ed73ba070dcc1c201cb2f3c68.jpg",
    "address": "石川県金沢市片町2-7-21",
    "rating": 3.72,
    "ratingCount": 409,
    "lat": 36.5619210171651,
    "lng": 136.65284017546276
  },
  {
    "rank": 16,
    "id": "27019100",
    "name": "お好み焼き ちとせ",
    "url": "https://tabelog.com/osaka/A2701/A270206/27019100/",
    "image": "https://tblg.k-img.com/restaurant/images/Rvw/156733/640x640_rect_79ee616f2aaf5017581ee2c9032e344d.jpg",
    "address": "大阪府大阪市西成区太子 1-11-10",
    "rating": 3.66,
    "ratingCount": 340,
    "lat": 34.647534188015314,
    "lng": 135.50467400693051
  },
  {
    "rank": 17,
    "id": "26034294",
    "name": "山本まんぼ",
    "url": "https://tabelog.com/kyoto/A2601/A260101/26034294/",
    "image": "https://tblg.k-img.com/restaurant/images/Rvw/333408/640x640_rect_bdc2ad1138207660632a9be4afc835b2.jpg",
    "address": "京都府京都市下京区小稲荷町61-54",
    "rating": 3.68,
    "ratingCount": 1337,
    "lat": 34.98794389788134,
    "lng": 135.762852510188
  },
  {
    "rank": 18,
    "id": "27020373",
    "name": "お好み焼き はやし",
    "url": "https://tabelog.com/osaka/A2701/A270203/27020373/",
    "image": "https://tblg.k-img.com/restaurant/images/Rvw/302288/640x640_rect_d79b6ba93e3be151ec0e5ef3d76b65e7.jpg",
    "address": "大阪府大阪市阿倍野区旭町2-1-1 あべのマルシェ東館住宅棟　１Ｆ",
    "rating": 3.52,
    "ratingCount": 224,
    "lat": 34.64475039801837,
    "lng": 135.50871414689954
  },
  {
    "rank": 19,
    "id": "27010845",
    "name": "AT THE 21",
    "url": "https://tabelog.com/osaka/A2706/A270601/27010845/",
    "image": "https://tblg.k-img.com/restaurant/images/Rvw/219753/640x640_rect_f707306d79ac50f66c573d6000e7ba60.jpg",
    "address": "大阪府豊中市上野東3-18-19",
    "rating": 3.61,
    "ratingCount": 763,
    "lat": 34.79996014790825,
    "lng": 135.47248363849272
  },
  {
    "rank": 20,
    "id": "34027532",
    "name": "電光石火 ekie広島店",
    "url": "https://tabelog.com/hiroshima/A3401/A340121/34027532/",
    "image": "https://tblg.k-img.com/restaurant/images/Rvw/138528/320x320_rect_138528346.jpg",
    "address": "広島県広島市南区松原町1-2 ekie 2F",
    "rating": 3.49,
    "ratingCount": 1881,
    "lat": 34.3976414364044,
    "lng": 132.47688657536696
  },
  {
    "rank": 21,
    "id": "28016979",
    "name": "ノルド",
    "url": "https://tabelog.com/hyogo/A2803/A280304/28016979/",
    "image": "https://tblg.k-img.com/restaurant/images/Rvw/363097/320x320_rect_35f33783cad485ddb3d8eafc34df0fe7.jpg",
    "address": "兵庫県尼崎市七松町1-9-3",
    "rating": 3.57,
    "ratingCount": 262,
    "lat": 34.7362291379254,
    "lng": 135.39921117790036
  },
  {
    "rank": 22,
    "id": "13120197",
    "name": "お好み焼 きじ 品川店",
    "url": "https://tabelog.com/tokyo/A1314/A131403/13120197/",
    "image": "https://tblg.k-img.com/restaurant/images/Rvw/18190/640x640_rect_18190828.jpg",
    "address": "東京都港区港南2-3-13 品川フロントビル 2F",
    "rating": 3.56,
    "ratingCount": 1816,
    "lat": 35.629051488742164,
    "lng": 139.74444579387279
  },
  {
    "rank": 23,
    "id": "14002209",
    "name": "キャベツ畑",
    "url": "https://tabelog.com/kanagawa/A1404/A140401/14002209/",
    "image": "https://tblg.k-img.com/restaurant/images/Rvw/10169/640x640_rect_10169737.jpg",
    "address": "神奈川県鎌倉市大船1-20-4",
    "rating": 3.62,
    "ratingCount": 333,
    "lat": 35.351900138045266,
    "lng": 139.53239548006016
  },
  {
    "rank": 24,
    "id": "13008999",
    "name": "浪花",
    "url": "https://tabelog.com/tokyo/A1321/A132102/13008999/",
    "image": "https://tblg.k-img.com/restaurant/images/Rvw/316463/640x640_rect_42572f3509bbf343dd4c728d59c82bfa.jpg",
    "address": "東京都練馬区豊玉北5-15-1 小泉ビル　２Ｆ",
    "rating": 3.6,
    "ratingCount": 462,
    "lat": 35.73566253784056,
    "lng": 139.65490988385065
  },
  {
    "rank": 25,
    "id": "27009618",
    "name": "どんたく ",
    "url": "https://tabelog.com/osaka/A2701/A270101/27009618/",
    "image": "https://tblg.k-img.com/restaurant/images/Rvw/207879/640x640_rect_fcbe6ded0b6075cafd55e0693814738c.jpg",
    "address": "大阪府大阪市北区堂山町16-12",
    "rating": 3.66,
    "ratingCount": 666,
    "lat": 34.70412499797877,
    "lng": 135.50277794750343
  },
  {
    "rank": 26,
    "id": "28008622",
    "name": "てんてこ 武庫之荘店",
    "url": "https://tabelog.com/hyogo/A2803/A280304/28008622/",
    "image": "https://tblg.k-img.com/restaurant/images/Rvw/96513/640x640_rect_96513120.jpg",
    "address": "兵庫県尼崎市南武庫之荘3-36-11",
    "rating": 3.61,
    "ratingCount": 182,
    "lat": 34.74844561791565,
    "lng": 135.3929715080281
  },
  {
    "rank": 27,
    "id": "13020110",
    "name": "お好み焼 きじ 丸の内店",
    "url": "https://tabelog.com/tokyo/A1302/A130201/13020110/",
    "image": "https://tblg.k-img.com/restaurant/images/Rvw/359452/640x640_rect_db17f25a236beb1ba08090740c1f8e41.jpg",
    "address": "東京都千代田区丸の内2-7-3 東京ビルTOKIA B1F",
    "rating": 3.66,
    "ratingCount": 2523,
    "lat": 35.67845211871736,
    "lng": 139.7650939043573
  },
  {
    "rank": 28,
    "id": "34030225",
    "name": "NIKUTAMA 横川広島本店",
    "url": "https://tabelog.com/hiroshima/A3401/A340103/34030225/",
    "image": "https://tblg.k-img.com/restaurant/images/Rvw/271146/640x640_rect_86dda6971a6aaa5933c305285b9a6cbb.jpg",
    "address": "広島県広島市西区横川町3-1-38",
    "rating": 3.6,
    "ratingCount": 92,
    "lat": 34.41051453638856,
    "lng": 132.4528125755139
  },
  {
    "rank": 29,
    "id": "35000655",
    "name": "そば玉や",
    "url": "https://tabelog.com/yamaguchi/A3506/A350601/35000655/",
    "image": "https://tblg.k-img.com/restaurant/images/Rvw/357658/640x640_rect_75daf1c6a712a334878c21f08d716985.jpg",
    "address": "山口県岩国市麻里布町6-8-22",
    "rating": 3.56,
    "ratingCount": 150,
    "lat": 34.168673777273206,
    "lng": 132.21941641439645
  },
  {
    "rank": 30,
    "id": "13155810",
    "name": "お好み焼き いまり 恵比寿",
    "url": "https://tabelog.com/tokyo/A1303/A130302/13155810/",
    "image": "https://tblg.k-img.com/restaurant/images/Rvw/73709/640x640_rect_73709045.jpg",
    "address": "東京都渋谷区恵比寿西2-3-11 メゾン ド エビス 1F",
    "rating": 3.71,
    "ratingCount": 805,
    "lat": 35.649881637911854,
    "lng": 139.70770048294716
  },
  {
    "rank": 31,
    "id": "13163322",
    "name": "戸田亘のお好み焼 さんて寛",
    "url": "https://tabelog.com/tokyo/A1307/A130701/13163322/",
    "image": "https://tblg.k-img.com/restaurant/images/Rvw/100649/640x640_rect_100649018.jpg",
    "address": "東京都港区六本木1-4-5 アークヒルズサウスタワー B1F",
    "rating": 3.53,
    "ratingCount": 969,
    "lat": 35.66559653791199,
    "lng": 139.73946048308366
  },
  {
    "rank": 32,
    "id": "34003109",
    "name": "いっちゃん 本店",
    "url": "https://tabelog.com/hiroshima/A3401/A340121/34003109/",
    "image": "https://tblg.k-img.com/restaurant/images/Rvw/365210/640x640_rect_97199fcbed27dfaf4ea2a9a74b1a3c99.jpg",
    "address": "広島県広島市東区光町1-6-30 第一吉岡ビル",
    "rating": 3.65,
    "ratingCount": 676,
    "lat": 34.39954540721006,
    "lng": 132.4815800465447
  },
  {
    "rank": 33,
    "id": "28005999",
    "name": "もりぐち",
    "url": "https://tabelog.com/hyogo/A2801/A280108/28005999/",
    "image": "https://tblg.k-img.com/restaurant/images/Rvw/237772/640x640_rect_8feee939c1bf79730a6fedb276f89308.jpg",
    "address": "兵庫県神戸市灘区琵琶町1-10-11",
    "rating": 3.66,
    "ratingCount": 212,
    "lat": 34.713556857888186,
    "lng": 135.2371622477849
  },
  {
    "rank": 34,
    "id": "34002563",
    "name": "五日市 八昌",
    "url": "https://tabelog.com/hiroshima/A3401/A340126/34002563/",
    "image": "https://tblg.k-img.com/restaurant/images/Rvw/270595/640x640_rect_22941a4fa50177552d8e390cec6def15.jpg",
    "address": "広島県広島市佐伯区五日市中央1-3-33",
    "rating": 3.58,
    "ratingCount": 404,
    "lat": 34.367589347189195,
    "lng": 132.3523325563125
  },
  {
    "rank": 35,
    "id": "11000170",
    "name": "人形町",
    "url": "https://tabelog.com/saitama/A1101/A110101/11000170/",
    "image": "https://tblg.k-img.com/restaurant/images/Rvw/363984/640x640_rect_43e17d05c2ffd26243f18bf82c39fed6.jpg",
    "address": "埼玉県さいたま市大宮区仲町3-16",
    "rating": 3.63,
    "ratingCount": 110,
    "lat": 35.905463398529875,
    "lng": 139.62912156674562
  },
  {
    "rank": 36,
    "id": "34000044",
    "name": "元祖八昌",
    "url": "https://tabelog.com/hiroshima/A3401/A340101/34000044/",
    "image": "https://tblg.k-img.com/restaurant/images/Rvw/366015/640x640_rect_306f20bc5d7081a0f704f20cc8538f89.jpg",
    "address": "広島県広島市中区竹屋町5-21",
    "rating": 3.71,
    "ratingCount": 207,
    "lat": 34.383316807213866,
    "lng": 132.46117896639507
  },
  {
    "rank": 37,
    "id": "17003809",
    "name": "お好み焼 平野屋",
    "url": "https://tabelog.com/ishikawa/A1703/A170302/17003809/",
    "image": "https://tblg.k-img.com/restaurant/images/Rvw/354583/640x640_rect_f5e444e3227393cbbe8d40ebff705f30.jpg",
    "address": "石川県七尾市本府中町ル-20",
    "rating": 3.61,
    "ratingCount": 123,
    "lat": 37.03603164696419,
    "lng": 136.96749597003114
  },
  {
    "rank": 38,
    "id": "27103780",
    "name": "お好み焼き あじくらや",
    "url": "https://tabelog.com/osaka/A2701/A270205/27103780/",
    "image": "https://tblg.k-img.com/restaurant/images/Rvw/229270/640x640_rect_8848a5f32cd527e3c9b028ac018ddef8.jpg",
    "address": "大阪府大阪市天王寺区小橋町13-18 リッチハイムアルテ上本町 1F",
    "rating": 3.61,
    "ratingCount": 487,
    "lat": 34.666235737204254,
    "lng": 135.52412227594402
  },
  {
    "rank": 39,
    "id": "26000572",
    "name": "祇園ねぎ焼 かな 東店",
    "url": "https://tabelog.com/kyoto/A2601/A260301/26000572/",
    "image": "https://tblg.k-img.com/restaurant/images/Rvw/348940/640x640_rect_a1b212298707a73497b1a45faab4057e.jpg",
    "address": "京都府京都市東山区東大路安井北門通月見町13",
    "rating": 3.67,
    "ratingCount": 471,
    "lat": 35.001394487877434,
    "lng": 135.77742864031362
  },
  {
    "rank": 40,
    "id": "28000361",
    "name": "浅井",
    "url": "https://tabelog.com/hyogo/A2803/A280301/28000361/",
    "image": "https://tblg.k-img.com/restaurant/images/Rvw/347730/640x640_rect_48dbf38aa8627f8e6cbb0b509ea49a20.jpg",
    "address": "兵庫県西宮市南越木岩町8-13",
    "rating": 3.55,
    "ratingCount": 67,
    "lat": 34.74987010789411,
    "lng": 135.32818019808792
  },
  {
    "rank": 41,
    "id": "13003312",
    "name": "お好み焼き 福竹",
    "url": "https://tabelog.com/tokyo/A1317/A131714/13003312/",
    "image": "https://tblg.k-img.com/restaurant/images/Rvw/225530/640x640_rect_898fad0a40a0ffa7b6456445092640cd.jpg",
    "address": "東京都大田区東矢口1-17-11",
    "rating": 3.69,
    "ratingCount": 367,
    "lat": 35.56439319877132,
    "lng": 139.70706461324588
  },
  {
    "rank": 42,
    "id": "33000431",
    "name": "タマちゃん",
    "url": "https://tabelog.com/okayama/A3305/A330501/33000431/",
    "image": "https://tblg.k-img.com/restaurant/images/Rvw/335817/640x640_rect_cffebe81bcc71120aa6667d124b782d9.jpg",
    "address": "岡山県備前市日生町寒河1118",
    "rating": 3.62,
    "ratingCount": 854,
    "lat": 34.74730553676204,
    "lng": 134.2972558776229
  },
  {
    "rank": 43,
    "id": "34008394",
    "name": "のんのん",
    "url": "https://tabelog.com/hiroshima/A3401/A340123/34008394/",
    "image": "https://tblg.k-img.com/restaurant/images/Rvw/172084/640x640_rect_7925f2af7d2e37cc4ab878a3a9be05a9.jpg",
    "address": "広島県広島市南区段原南2-12-5",
    "rating": 3.65,
    "ratingCount": 192,
    "lat": 34.38400363641336,
    "lng": 132.47782187522859
  },
  {
    "rank": 44,
    "id": "38000268",
    "name": "日の出",
    "url": "https://tabelog.com/ehime/A3801/A380101/38000268/",
    "image": "https://tblg.k-img.com/restaurant/images/Rvw/259510/640x640_rect_26de5ebe40e78308baca0dbfad5d08b4.jpg",
    "address": "愛媛県松山市三杉町11-8",
    "rating": 3.54,
    "ratingCount": 301,
    "lat": 33.864989167625225,
    "lng": 132.71915260097865
  },
  {
    "rank": 45,
    "id": "27019304",
    "name": "花",
    "url": "https://tabelog.com/osaka/A2701/A270107/27019304/",
    "image": "https://tblg.k-img.com/restaurant/images/Rvw/154142/640x640_rect_154142122.jpg",
    "address": "大阪府大阪市都島区東野田町4-2-15",
    "rating": 3.58,
    "ratingCount": 526,
    "lat": 34.69790033718545,
    "lng": 135.528203276261
  },
  {
    "rank": 46,
    "id": "34003125",
    "name": "かんらん車",
    "url": "https://tabelog.com/hiroshima/A3401/A340119/34003125/",
    "image": "https://tblg.k-img.com/restaurant/images/Rvw/360825/640x640_rect_f7cdd295a6ace74f9d939741784908d6.jpg",
    "address": "広島県広島市中区猫屋町2-16",
    "rating": 3.68,
    "ratingCount": 281,
    "lat": 34.39559486720175,
    "lng": 132.44761050652858
  },
  {
    "rank": 47,
    "id": "1030080",
    "name": "あかつき",
    "url": "https://tabelog.com/hokkaido/A0110/A011003/1030080/",
    "image": "https://tblg.k-img.com/restaurant/images/Rvw/317980/640x640_rect_2eeede06c600a7d526d59b19e2dd9539.jpg",
    "address": "北海道北見市高栄西町1丁目7-22",
    "rating": 3.62,
    "ratingCount": 45,
    "lat": 43.808966034859566,
    "lng": 143.86619897360825
  },
  {
    "rank": 48,
    "id": "34000131",
    "name": "ロペズ",
    "url": "https://tabelog.com/hiroshima/A3401/A340103/34000131/",
    "image": "https://tblg.k-img.com/restaurant/images/Rvw/358496/640x640_rect_8dd662517329688be9358e41ee937e44.jpg",
    "address": "広島県広島市西区楠木町1-7-13",
    "rating": 3.69,
    "ratingCount": 370,
    "lat": 34.40961593638966,
    "lng": 132.45448107550362
  },
  {
    "rank": 49,
    "id": "1008098",
    "name": "はこだて ふさや 大門店",
    "url": "https://tabelog.com/hokkaido/A0105/A010501/1008098/",
    "image": "https://tblg.k-img.com/restaurant/images/Rvw/104559/320x320_rect_104559466.jpg",
    "address": "北海道函館市若松町18-22",
    "rating": 3.58,
    "ratingCount": 272,
    "lat": 41.77256848515408,
    "lng": 140.7297892652373
  },
  {
    "rank": 50,
    "id": "27000297",
    "name": "お好み焼 きじ 本店",
    "url": "https://tabelog.com/osaka/A2701/A270101/27000297/",
    "image": "https://tblg.k-img.com/restaurant/images/Rvw/316189/640x640_rect_1d00f92df54da8bb5eb9b6b9071e4d0e.jpg",
    "address": "大阪府大阪市北区角田町9-20 新梅田食道街 1F",
    "rating": 3.66,
    "ratingCount": 2097,
    "lat": 34.703497557977585,
    "lng": 135.4978129875006
  },
  {
    "rank": 51,
    "id": "41000467",
    "name": "山口お好み屋",
    "url": "https://tabelog.com/saga/A4102/A410201/41000467/",
    "image": "https://tblg.k-img.com/restaurant/images/Rvw/19133/640x640_rect_19133084.jpg",
    "address": "佐賀県唐津市厳木町岩屋1077",
    "rating": 3.61,
    "ratingCount": 73,
    "lat": 33.32193849711573,
    "lng": 130.03627345737397
  },
  {
    "rank": 52,
    "id": "34019405",
    "name": "お好み焼き 八昌",
    "url": "https://tabelog.com/hiroshima/A3401/A340108/34019405/",
    "image": "https://tblg.k-img.com/restaurant/images/Rvw/209417/640x640_rect_691031c9bdfdf09b8383ae51692de724.jpg",
    "address": "広島県広島市中区幟町14-17",
    "rating": 3.72,
    "ratingCount": 1217,
    "lat": 34.393808567208886,
    "lng": 132.46644627649732
  },
  {
    "rank": 53,
    "id": "12000547",
    "name": "ひろしまや",
    "url": "https://tabelog.com/chiba/A1203/A120305/12000547/",
    "image": "https://tblg.k-img.com/restaurant/images/Rvw/360599/640x640_rect_e6a3c2a9095c22f29be45b75219f08fe.jpg",
    "address": "千葉県-流山市鰭ヶ崎951-4",
    "rating": 3.63,
    "ratingCount": 125,
    "lat": 35.84274375865721,
    "lng": 139.9038772059195
  },
  {
    "rank": 54,
    "id": "34018117",
    "name": "あじと",
    "url": "https://tabelog.com/hiroshima/A3407/A340701/34018117/",
    "image": "https://tblg.k-img.com/restaurant/images/Rvw/348592/640x640_rect_4ed0263c197407fd5836ae0e1ccaac0d.jpg",
    "address": "広島県東広島市西条中央1-18-28 1F",
    "rating": 3.68,
    "ratingCount": 153,
    "lat": 34.42062807431021,
    "lng": 132.73606121805477
  },
  {
    "rank": 55,
    "id": "17008658",
    "name": "八尾家",
    "url": "https://tabelog.com/ishikawa/A1702/A170203/17008658/",
    "image": "https://tblg.k-img.com/restaurant/images/Rvw/30200/640x640_rect_30200941.jpg",
    "address": "石川県白山市鶴来水戸町ネ79-1",
    "rating": 3.67,
    "ratingCount": 35,
    "lat": 36.4432289372326,
    "lng": 136.62814509428114
  },
  {
    "rank": 56,
    "id": "28001006",
    "name": "ふじ",
    "url": "https://tabelog.com/hyogo/A2801/A280102/28001006/",
    "image": "https://tblg.k-img.com/restaurant/images/Rvw/214379/640x640_rect_1d063518cbbeaf240a32193fab181c73.jpg",
    "address": "兵庫県神戸市中央区多聞通4-4-4",
    "rating": 3.6,
    "ratingCount": 189,
    "lat": 34.6805033578894,
    "lng": 135.1750208674946
  },
  {
    "rank": 57,
    "id": "13061247",
    "name": "広島お好み焼き おこたろう",
    "url": "https://tabelog.com/tokyo/A1324/A132403/13061247/",
    "image": "https://tblg.k-img.com/restaurant/images/Rvw/218082/640x640_rect_a3931c4b3489ed2d8fa2dee7c1914f8d.jpg",
    "address": "東京都葛飾区亀有3-31-8",
    "rating": 3.6,
    "ratingCount": 308,
    "lat": 35.76535539868884,
    "lng": 139.8488466751764
  },
  {
    "rank": 58,
    "id": "26001618",
    "name": "お好み焼吉野",
    "url": "https://tabelog.com/kyoto/A2601/A260304/26001618/",
    "image": "https://tblg.k-img.com/restaurant/images/Rvw/220324/640x640_rect_84ad94e84d29ab3a780160f2567718de.jpg",
    "address": "京都府京都市東山区大和大路通り塩小路下ル上池田町546",
    "rating": 3.65,
    "ratingCount": 573,
    "lat": 34.9863661878851,
    "lng": 135.77154332016596
  },
  {
    "rank": 59,
    "id": "34000362",
    "name": "新天地 みっちゃん",
    "url": "https://tabelog.com/hiroshima/A3401/A340109/34000362/",
    "image": "https://tblg.k-img.com/restaurant/images/Rvw/122226/640x640_rect_122226479.jpg",
    "address": "広島県広島市中区新天地6-12",
    "rating": 3.7,
    "ratingCount": 1028,
    "lat": 34.39107233640413,
    "lng": 132.46290697531046
  },
  {
    "rank": 60,
    "id": "21001810",
    "name": "ぼてふく",
    "url": "https://tabelog.com/gifu/A2102/A210203/21001810/",
    "image": "https://tblg.k-img.com/restaurant/images/Rvw/366997/640x640_rect_8f67c802d4dba81c4f8a1c344c4edb4f.jpg",
    "address": "岐阜県可児市土田字渡2763-3",
    "rating": 3.72,
    "ratingCount": 190,
    "lat": 35.43084099799962,
    "lng": 137.01754800378217
  },
  {
    "rank": 61,
    "id": "34011565",
    "name": "一娯一笑",
    "url": "https://tabelog.com/hiroshima/A3401/A340109/34011565/",
    "image": "https://tblg.k-img.com/restaurant/images/Rvw/62960/640x640_rect_62960301.jpg",
    "address": "広島県広島市中区流川町7-18 古本ビル",
    "rating": 3.32,
    "ratingCount": 41,
    "lat": 34.38922225721068,
    "lng": 132.4629423064535
  },
  {
    "rank": 62,
    "id": "13013135",
    "name": "八昌",
    "url": "https://tabelog.com/tokyo/A1318/A131813/13013135/",
    "image": "https://tblg.k-img.com/restaurant/images/Rvw/356286/640x640_rect_63faa952963c0053fc52d16a90ff3b83.jpg",
    "address": "東京都世田谷区経堂1-21-18 ＨＡＲＡＤＡビル 2F",
    "rating": 3.61,
    "ratingCount": 555,
    "lat": 35.65052464869431,
    "lng": 139.63700922416498
  },
  {
    "rank": 63,
    "id": "27000560",
    "name": "お好み焼 オモニ 本店",
    "url": "https://tabelog.com/osaka/A2701/A270205/27000560/",
    "image": "https://tblg.k-img.com/restaurant/images/Rvw/149077/640x640_rect_9ae3dbfc85d8a9397e52e7ff0259632f.jpg",
    "address": "大阪府大阪市生野区桃谷3-3-2",
    "rating": 3.61,
    "ratingCount": 815,
    "lat": 34.661990098016105,
    "lng": 135.53597466705457
  },
  {
    "rank": 64,
    "id": "34000910",
    "name": "さち",
    "url": "https://tabelog.com/hiroshima/A3405/A340504/34000910/",
    "image": "https://tblg.k-img.com/restaurant/images/Rvw/356154/640x640_rect_91d2065c127daff3a021f13865b2e83c.jpg",
    "address": "広島県府中市府中町750",
    "rating": 3.63,
    "ratingCount": 157,
    "lat": 34.57501612733674,
    "lng": 133.22927414779303
  },
  {
    "rank": 65,
    "id": "27123588",
    "name": "お好み焼だん",
    "url": "https://tabelog.com/osaka/A2701/A270202/27123588/",
    "image": "https://tblg.k-img.com/restaurant/images/Rvw/175788/640x640_rect_01b4a06d27063dc2d30cf0615f8693ec.jpg",
    "address": "大阪府大阪市中央区心斎橋筋2-3-12 喜八ビル 3F",
    "rating": 3.47,
    "ratingCount": 216,
    "lat": 34.66962347800046,
    "lng": 135.50206244715548
  },
  {
    "rank": 66,
    "id": "40005632",
    "name": "づぼら亭",
    "url": "https://tabelog.com/fukuoka/A4004/A400401/40005632/",
    "image": "https://tblg.k-img.com/restaurant/images/Rvw/253937/640x640_rect_79b22a49edbbf72e2bc110024043f424.jpg",
    "address": "福岡県北九州市小倉北区紺屋町11-15",
    "rating": 3.57,
    "ratingCount": 95,
    "lat": 33.87951260703173,
    "lng": 130.88451525241138
  },
  {
    "rank": 67,
    "id": "34002597",
    "name": "平の家",
    "url": "https://tabelog.com/hiroshima/A3403/A340308/34002597/",
    "image": "https://tblg.k-img.com/restaurant/images/Rvw/4443/640x640_rect_4443508.jpg",
    "address": "広島県福山市引野町2-28-38",
    "rating": 3.73,
    "ratingCount": 195,
    "lat": 34.498214217443895,
    "lng": 133.41258801688872
  },
  {
    "rank": 68,
    "id": "45003947",
    "name": "広島風お好み焼き かっちゃん",
    "url": "https://tabelog.com/miyazaki/A4501/A450102/45003947/",
    "image": "https://tblg.k-img.com/restaurant/images/Rvw/358900/640x640_rect_ad83727e1c2b69b0e6adec8b7a3d9ff2.jpg",
    "address": "宮崎県宮崎市清武町木原61-7",
    "rating": 3.67,
    "ratingCount": 58,
    "lat": 31.85503340848179,
    "lng": 131.40033864160068
  },
  {
    "rank": 69,
    "id": "34018451",
    "name": "お好み焼き じゅにあ",
    "url": "https://tabelog.com/hiroshima/A3401/A340112/34018451/",
    "image": "https://tblg.k-img.com/restaurant/images/Rvw/341266/640x640_rect_fdfa72684761905ca79fcb79d269b1bb.jpg",
    "address": "広島県広島市中区立町3-21",
    "rating": 3.55,
    "ratingCount": 123,
    "lat": 34.39405513640125,
    "lng": 132.45979417534275
  },
  {
    "rank": 70,
    "id": "13038559",
    "name": "USHIO",
    "url": "https://tabelog.com/tokyo/A1307/A130701/13038559/",
    "image": "https://tblg.k-img.com/restaurant/images/Rvw/39846/320x320_square_39846167.jpg",
    "address": "東京都港区六本木3-10-9 かじかわ誠志堂ビル 2F",
    "rating": 3.66,
    "ratingCount": 500,
    "lat": 35.66342080297662,
    "lng": 139.73311314131908
  },
  {
    "rank": 71,
    "id": "27002280",
    "name": "双月",
    "url": "https://tabelog.com/osaka/A2701/A270103/27002280/",
    "image": "https://tblg.k-img.com/restaurant/images/Rvw/21464/640x640_rect_21464168.jpg",
    "address": "大阪府大阪市北区天神橋3-9-9",
    "rating": 3.55,
    "ratingCount": 641,
    "lat": 34.701996183046866,
    "lng": 135.5116346967044
  },
  {
    "rank": 72,
    "id": "16007479",
    "name": "ぼてやん多奈加",
    "url": "https://tabelog.com/toyama/A1601/A160101/16007479/",
    "image": "https://tblg.k-img.com/restaurant/images/Rvw/220202/640x640_rect_5cdf032f0140c8f5aeb80c43cb13b18e.jpg",
    "address": "富山県富山市新富町1-2-3 CiC B1F",
    "rating": 3.65,
    "ratingCount": 688,
    "lat": 36.69961749725592,
    "lng": 137.2126351564612
  },
  {
    "rank": 73,
    "id": "26001641",
    "name": "あらた",
    "url": "https://tabelog.com/kyoto/A2601/A260101/26001641/",
    "image": "https://tblg.k-img.com/restaurant/images/Rvw/186920/640x640_rect_a2b12c8b5fbde3fa867ea5eddf5a3529.jpg",
    "address": "京都府京都市南区西九条院町24-4",
    "rating": 3.65,
    "ratingCount": 605,
    "lat": 34.982061047882944,
    "lng": 135.75618116013325
  },
  {
    "rank": 74,
    "id": "34002148",
    "name": "お好み焼 村上",
    "url": "https://tabelog.com/hiroshima/A3406/A340302/34002148/",
    "image": "https://tblg.k-img.com/restaurant/images/Rvw/274870/640x640_rect_ed5297cab7d8053921f00bb65b9d0e81.jpg",
    "address": "広島県尾道市久保2-1-15",
    "rating": 3.66,
    "ratingCount": 398,
    "lat": 34.41161250049524,
    "lng": 133.20459883225888
  },
  {
    "rank": 75,
    "id": "34014638",
    "name": "じだん",
    "url": "https://tabelog.com/hiroshima/A3401/A340104/34014638/",
    "image": "https://tblg.k-img.com/restaurant/images/Rvw/322408/640x640_rect_b71926313d3da577977e18bc50158a27.jpg",
    "address": "広島県広島市東区馬木4-1716-3",
    "rating": 3.58,
    "ratingCount": 53,
    "lat": 34.44171218719959,
    "lng": 132.53279771693474
  },
  {
    "rank": 76,
    "id": "43001242",
    "name": "広島お好み焼き 廣",
    "url": "https://tabelog.com/kumamoto/A4301/A430101/43001242/",
    "image": "https://tblg.k-img.com/restaurant/images/Rvw/234755/640x640_rect_1e7c532926466481160b3cb75f7ecf9b.jpg",
    "address": "熊本県熊本市中央区本山2-7-12 野中ビル 1F",
    "rating": 3.51,
    "ratingCount": 160,
    "lat": 32.79018095766366,
    "lng": 130.69630347154006
  },
  {
    "rank": 77,
    "id": "34028213",
    "name": "鉄板焼とお好み焼 みしまや",
    "url": "https://tabelog.com/hiroshima/A3401/A340123/34028213/",
    "image": "https://tblg.k-img.com/restaurant/images/Rvw/335906/640x640_rect_a1ee53ab705a6c4d4638421ccedc5752.jpg",
    "address": "広島県広島市南区上東雲町8-8 ドマーニ上東雲 101",
    "rating": 3.57,
    "ratingCount": 55,
    "lat": 34.384799987220404,
    "lng": 132.48466013639361
  },
  {
    "rank": 78,
    "id": "34014181",
    "name": "OKOじゃ",
    "url": "https://tabelog.com/hiroshima/A3401/A340127/34014181/",
    "image": "https://tblg.k-img.com/restaurant/images/Rvw/356682/640x640_rect_8fbc0a4829f750f8ec825854f2fd7244.jpg",
    "address": "広島県広島市佐伯区湯来町伏谷160-10",
    "rating": 3.66,
    "ratingCount": 54,
    "lat": 34.437525987127884,
    "lng": 132.2992863870561
  },
  {
    "rank": 79,
    "id": "28000120",
    "name": "お好み焼き来たろう",
    "url": "https://tabelog.com/hyogo/A2803/A280301/28000120/",
    "image": "https://tblg.k-img.com/restaurant/images/Rvw/6859/640x640_rect_6859505.jpg",
    "address": "兵庫県西宮市宮西町7-4",
    "rating": 3.54,
    "ratingCount": 167,
    "lat": 34.73577488790408,
    "lng": 135.33137868794327
  },
  {
    "rank": 80,
    "id": "27001278",
    "name": "美津の",
    "url": "https://tabelog.com/osaka/A2701/A270202/27001278/",
    "image": "https://tblg.k-img.com/restaurant/images/Rvw/330419/640x640_rect_9a84cd963812a43b67592233abc131c7.jpg",
    "address": "大阪府大阪市中央区道頓堀1-4-15",
    "rating": 3.57,
    "ratingCount": 1680,
    "lat": 34.668363158001625,
    "lng": 135.50323194714193
  },
  {
    "rank": 81,
    "id": "34015747",
    "name": "お好み焼 三幸",
    "url": "https://tabelog.com/hiroshima/A3401/A340107/34015747/",
    "image": "https://tblg.k-img.com/restaurant/images/Rvw/365882/640x640_rect_b27e9c6d172dcba20e8cdce4e52bec4d.jpg",
    "address": "広島県広島市安佐南区西原1-23-12",
    "rating": 3.72,
    "ratingCount": 240,
    "lat": 34.43324486718258,
    "lng": 132.46248765689847
  },
  {
    "rank": 82,
    "id": "27002665",
    "name": "福太郎 本店",
    "url": "https://tabelog.com/osaka/A2701/A270202/27002665/",
    "image": "https://tblg.k-img.com/restaurant/images/Rvw/167149/640x640_rect_10ec836825d389b874c9145809ead4c1.jpg",
    "address": "大阪府大阪市中央区千日前2-3-17",
    "rating": 3.73,
    "ratingCount": 2625,
    "lat": 34.665600237198426,
    "lng": 135.50454687595132
  },
  {
    "rank": 83,
    "id": "33000348",
    "name": "お好み焼き もり",
    "url": "https://tabelog.com/okayama/A3301/A330101/33000348/",
    "image": "https://tblg.k-img.com/restaurant/images/Rvw/347136/640x640_rect_3a045b68b8c79f6cd927788500a52e26.jpg",
    "address": "岡山県岡山市北区奉還町1-6-9",
    "rating": 3.65,
    "ratingCount": 765,
    "lat": 34.66966533669054,
    "lng": 133.91788677710457
  },
  {
    "rank": 84,
    "id": "34017087",
    "name": "お好み焼 SETO",
    "url": "https://tabelog.com/hiroshima/A3407/A340403/34017087/",
    "image": "https://tblg.k-img.com/restaurant/images/Rvw/330239/640x640_rect_f4a633f7d7fc2e2ada6a4b9e2bbf985a.jpg",
    "address": "広島県東広島市西条町御薗宇5049-5",
    "rating": 3.53,
    "ratingCount": 140,
    "lat": 34.41128830728932,
    "lng": 132.75386986647246
  },
  {
    "rank": 85,
    "id": "39005032",
    "name": "廣末屋",
    "url": "https://tabelog.com/kochi/A3901/A390106/39005032/",
    "image": "https://tblg.k-img.com/restaurant/images/Rvw/366162/640x640_rect_6e22d949b757ca8a124bd22266326049.jpg",
    "address": "高知県香南市夜須町上夜須182-1",
    "rating": 3.57,
    "ratingCount": 120,
    "lat": 33.551182048160435,
    "lng": 133.77389831706955
  },
  {
    "rank": 86,
    "id": "27000981",
    "name": "ねぎ焼やまもと 本店",
    "url": "https://tabelog.com/osaka/A2701/A270302/27000981/",
    "image": "https://tblg.k-img.com/restaurant/images/Rvw/363104/640x640_rect_4c6ba9a66bd083a444986ce07516716b.jpg",
    "address": "大阪府大阪市淀川区十三本町1-8-4",
    "rating": 3.56,
    "ratingCount": 1571,
    "lat": 34.71921735796233,
    "lng": 135.481239667671
  },
  {
    "rank": 87,
    "id": "27009947",
    "name": "てらまえ",
    "url": "https://tabelog.com/osaka/A2707/A270703/27009947/",
    "image": "https://tblg.k-img.com/restaurant/images/Rvw/24679/640x640_rect_24679951.jpg",
    "address": "大阪府東大阪市小若江4丁目12-24",
    "rating": 3.54,
    "ratingCount": 264,
    "lat": 34.65170583723241,
    "lng": 135.5835270757556
  },
  {
    "rank": 88,
    "id": "27118081",
    "name": "お好み焼き しみづ",
    "url": "https://tabelog.com/osaka/A2701/A270102/27118081/",
    "image": "https://tblg.k-img.com/restaurant/images/Rvw/147019/640x640_rect_183b2116eb79b4c556be863d2e31c412.jpg",
    "address": "大阪府大阪市西区土佐堀1-5-20 医交社ビル 1F",
    "rating": 3.52,
    "ratingCount": 159,
    "lat": 34.688884077984866,
    "lng": 135.4915268873574
  },
  {
    "rank": 89,
    "id": "34000530",
    "name": "お好み焼き てっちゃん 本店",
    "url": "https://tabelog.com/hiroshima/A3404/A340303/34000530/",
    "image": "https://tblg.k-img.com/restaurant/images/Rvw/291596/640x640_rect_e55770f41fbc2efa3d20c847eef65b68.jpg",
    "address": "広島県三原市城町1-5-25",
    "rating": 3.71,
    "ratingCount": 576,
    "lat": 34.39881575740208,
    "lng": 133.08306668611567
  },
  {
    "rank": 90,
    "id": "34020336",
    "name": "お好み焼き 辰",
    "url": "https://tabelog.com/hiroshima/A3401/A340104/34020336/",
    "image": "https://tblg.k-img.com/restaurant/images/Rvw/232326/640x640_rect_4798fec83fcab83dd0c9aa284471a225.jpg",
    "address": "広島県広島市東区東蟹屋町7-33",
    "rating": 3.76,
    "ratingCount": 446,
    "lat": 34.395770407212176,
    "lng": 132.48068175650718
  },
  {
    "rank": 91,
    "id": "34000404",
    "name": "お好み焼 ひらの",
    "url": "https://tabelog.com/hiroshima/A3401/A340123/34000404/",
    "image": "https://tblg.k-img.com/restaurant/images/Rvw/171110/640x640_rect_1f44c8e43b45817f7700996beeb9ce0f.jpg",
    "address": "広島県広島市南区皆実町4-24-12",
    "rating": 3.67,
    "ratingCount": 283,
    "lat": 34.37399227722316,
    "lng": 132.47174250629348
  },
  {
    "rank": 92,
    "id": "34004408",
    "name": "ひろしま丸かじり 中ちゃん",
    "url": "https://tabelog.com/hiroshima/A3401/A340110/34004408/",
    "image": "https://tblg.k-img.com/restaurant/images/Rvw/363794/640x640_rect_40b325cdd41ccdd59a2141284fcfb0af.jpg",
    "address": "広島県広島市中区弥生町6-8",
    "rating": 3.65,
    "ratingCount": 936,
    "lat": 34.389882167211255,
    "lng": 132.46606507645794
  },
  {
    "rank": 93,
    "id": "27000322",
    "name": "お好み焼 きじ 梅田スカイビル店",
    "url": "https://tabelog.com/osaka/A2701/A270101/27000322/",
    "image": "https://tblg.k-img.com/restaurant/images/Rvw/97415/640x640_rect_97415734.jpg",
    "address": "大阪府大阪市北区大淀中1-1-90 梅田スカイビル B1F滝見小路",
    "rating": 3.68,
    "ratingCount": 1031,
    "lat": 34.70474001797451,
    "lng": 135.4906296275182
  },
  {
    "rank": 94,
    "id": "27096277",
    "name": "たぴおか食堂",
    "url": "https://tabelog.com/osaka/A2701/A270203/27096277/",
    "image": "https://tblg.k-img.com/restaurant/images/Rvw/234721/640x640_rect_3078c18da2d89eba3a29087e49a07132.jpg",
    "address": "大阪府大阪市天王寺区国分町9-14",
    "rating": 3.65,
    "ratingCount": 421,
    "lat": 34.65197871801838,
    "lng": 135.52316279696245
  },
  {
    "rank": 95,
    "id": "34014562",
    "name": "Masaru",
    "url": "https://tabelog.com/hiroshima/A3401/A340121/34014562/",
    "image": "https://tblg.k-img.com/restaurant/images/Rvw/28684/640x640_rect_28684873.jpg",
    "address": "広島県広島市東区光町2-14-24",
    "rating": 3.71,
    "ratingCount": 381,
    "lat": 34.39939283640538,
    "lng": 132.48345907538007
  },
  {
    "rank": 96,
    "id": "7001700",
    "name": "かっちゃん",
    "url": "https://tabelog.com/fukushima/A0701/A070101/7001700/",
    "image": "https://tblg.k-img.com/restaurant/images/Rvw/1536/640x640_rect_1536430.jpg",
    "address": "福島県福島市南中央1丁目76-1",
    "rating": 3.57,
    "ratingCount": 146,
    "lat": 37.76081965760997,
    "lng": 140.44072352491756
  },
  {
    "rank": 97,
    "id": "34000405",
    "name": "ふみちゃん 流川店",
    "url": "https://tabelog.com/hiroshima/A3401/A340109/34000405/",
    "image": "https://tblg.k-img.com/restaurant/images/Rvw/268001/640x640_rect_ea7889379e856a826bbbf5a4dce12b42.jpg",
    "address": "広島県広島市中区堀川町1-20",
    "rating": 3.66,
    "ratingCount": 1232,
    "lat": 34.39225073720928,
    "lng": 132.46457220648293
  },
  {
    "rank": 98,
    "id": "14076732",
    "name": "子ぐま",
    "url": "https://tabelog.com/kanagawa/A1401/A140201/14076732/",
    "image": "https://tblg.k-img.com/restaurant/images/Rvw/353257/640x640_rect_b418200734419b21a5e78edfd1cc2c0f.jpg",
    "address": "神奈川県横浜市青葉区美しが丘2-17-26",
    "rating": 3.71,
    "ratingCount": 371,
    "lat": 35.57966547871471,
    "lng": 139.5597520335034
  },
  {
    "rank": 99,
    "id": "13037445",
    "name": "なんばん亭 下北沢店",
    "url": "https://tabelog.com/tokyo/A1318/A131802/13037445/",
    "image": "https://tblg.k-img.com/restaurant/images/Rvw/95455/640x640_rect_95455702.jpg",
    "address": "東京都世田谷区北沢2-12-3 石川ビル 2F",
    "rating": 3.59,
    "ratingCount": 657,
    "lat": 35.66075793139249,
    "lng": 139.66790937511158
  },
  {
    "rank": 100,
    "id": "27139866",
    "name": "粉もん處 光圀 裏なんば店",
    "url": "https://tabelog.com/osaka/A2701/A270202/27139866/",
    "image": "https://tblg.k-img.com/restaurant/images/Rvw/232180/640x640_rect_4e179ace12647ec8555ec1fccaf5357d.jpg",
    "address": "大阪府大阪市中央区難波千日前3-18 中村ビル 2F",
    "rating": 3.46,
    "ratingCount": 372,
    "lat": 34.66528831318273,
    "lng": 135.50422116916434
  }
]