[
  {
    "rank": 1,
    "id": "7000795",
    "name": "むなかた屋",
    "url": "https://tabelog.com/fukushima/A0702/A070201/7000795/",
    "image": "https://tblg.k-img.com/restaurant/images/Rvw/29073/640x640_rect_29073811.jpg",
    "address": "福島県郡山市駅前1-9-5 NATURE倶楽部 1F",
    "rating": 3.6,
    "ratingCount": 259,
    "lat": 37.39642119097251,
    "lng": 140.38644023281535
  },
  {
    "rank": 2,
    "id": "15020003",
    "name": "練馬 鳥長 新潟",
    "url": "https://tabelog.com/niigata/A1501/A150101/15020003/",
    "image": "https://tblg.k-img.com/restaurant/images/Rvw/178324/640x640_rect_81ef1cbd039fe563ed0e64608e4e0294.jpg",
    "address": "新潟県新潟市中央区東大通2-1-7 松屋ビル 2F",
    "rating": 3.71,
    "ratingCount": 344,
    "lat": 37.914844236266795,
    "lng": 139.05916540628002
  },
  {
    "rank": 3,
    "id": "13059154",
    "name": "白金 酉玉 神楽坂店",
    "url": "https://tabelog.com/tokyo/A1309/A130905/13059154/",
    "image": "https://tblg.k-img.com/restaurant/images/Rvw/221364/640x640_rect_4177637d6530b431ce979e4fb907c777.jpg",
    "address": "東京都新宿区神楽坂5-7 山桝ハウス B1F",
    "rating": 3.65,
    "ratingCount": 922,
    "lat": 35.70227386483545,
    "lng": 139.73888868020325
  },
  {
    "rank": 4,
    "id": "13293712",
    "name": "炭焼 TORI8",
    "url": "https://tabelog.com/tokyo/A1302/A130202/13293712/",
    "image": "https://tblg.k-img.com/restaurant/images/Rvw/236963/640x640_rect_4dace7dbc32407d93e4eecec3cb740fd.jpg",
    "address": "東京都中央区日本橋2-10-11 Ordin日本橋ビル 8F",
    "rating": 4.08,
    "ratingCount": 329,
    "lat": 35.681003152353355,
    "lng": 139.77458391728257
  },
  {
    "rank": 5,
    "id": "13222625",
    "name": "鳥さわ22",
    "url": "https://tabelog.com/tokyo/A1307/A130703/13222625/",
    "image": "https://tblg.k-img.com/restaurant/images/Rvw/121183/640x640_rect_121183052.jpg",
    "address": "東京都港区西麻布4-18-17",
    "rating": 3.83,
    "ratingCount": 458,
    "lat": 35.658171838715475,
    "lng": 139.71873065418495
  },
  {
    "rank": 6,
    "id": "13277790",
    "name": "焼鳥 高はし",
    "url": "https://tabelog.com/tokyo/A1302/A130202/13277790/",
    "image": "https://tblg.k-img.com/restaurant/images/Rvw/227280/640x640_rect_e51985205f8140e2e5a01768e1731e75.jpg",
    "address": "東京都中央区日本橋2-10-11 Ordin日本橋ビル 2F",
    "rating": 3.7,
    "ratingCount": 235,
    "lat": 35.68099037630599,
    "lng": 139.77460474947404
  },
  {
    "rank": 7,
    "id": "13116757",
    "name": "焼鳥どろまみれ 四谷本店",
    "url": "https://tabelog.com/tokyo/A1309/A130903/13116757/",
    "image": "https://tblg.k-img.com/restaurant/images/Rvw/296051/640x640_rect_6ee0f4c3ee1873915ccd9f051dcc4ab3.jpg",
    "address": "東京都新宿区荒木町20 ヤカタビル ２Ｆ",
    "rating": 3.69,
    "ratingCount": 739,
    "lat": 35.69073083789064,
    "lng": 139.72254008334937
  },
  {
    "rank": 8,
    "id": "1070763",
    "name": "焼鳥 ひげぼうず",
    "url": "https://tabelog.com/hokkaido/A0101/A010103/1070763/",
    "image": "https://tblg.k-img.com/restaurant/images/Rvw/282122/640x640_rect_0f0ca4e10ac16f508a2fe501cc931bc1.jpg",
    "address": "北海道札幌市中央区南五条西6-4 多田ビル 1F",
    "rating": 4.11,
    "ratingCount": 143,
    "lat": 43.05371713373254,
    "lng": 141.34997265658157
  },
  {
    "rank": 9,
    "id": "13193012",
    "name": "やきとりshira",
    "url": "https://tabelog.com/tokyo/A1318/A131812/13193012/",
    "image": "https://tblg.k-img.com/restaurant/images/Rvw/313537/640x640_rect_c318b1d5b7b703ae089994b9f9b10130.jpg",
    "address": "東京都世田谷区梅丘1-22-1 y'sステート B1F",
    "rating": 3.91,
    "ratingCount": 447,
    "lat": 35.65520801869651,
    "lng": 139.65327405420092
  },
  {
    "rank": 10,
    "id": "22000713",
    "name": "矮鶏",
    "url": "https://tabelog.com/shizuoka/A2201/A220101/22000713/",
    "image": "https://tblg.k-img.com/restaurant/images/Rvw/85055/640x640_rect_85055480.jpg",
    "address": "静岡県静岡市葵区昭和町1-1 治作ビル 3F",
    "rating": 3.65,
    "ratingCount": 66,
    "lat": 34.972209637920834,
    "lng": 138.38440287702966
  },
  {
    "rank": 11,
    "id": "13026017",
    "name": "とり喜",
    "url": "https://tabelog.com/tokyo/A1312/A131201/13026017/",
    "image": "https://tblg.k-img.com/restaurant/images/Rvw/314002/640x640_rect_907017547790645186ed63009edd38c6.jpg",
    "address": "東京都墨田区錦糸1-8-13 小坂ビル1階",
    "rating": 3.73,
    "ratingCount": 1052,
    "lat": 35.698114637914216,
    "lng": 139.8113144833617
  },
  {
    "rank": 12,
    "id": "23077448",
    "name": "焼き鳥 茂 東桜",
    "url": "https://tabelog.com/aichi/A2301/A230103/23077448/",
    "image": "https://tblg.k-img.com/restaurant/images/Rvw/152721/640x640_rect_152721871.jpg",
    "address": "愛知県名古屋市東区東桜1-10-7",
    "rating": 3.73,
    "ratingCount": 320,
    "lat": 35.17274033732381,
    "lng": 136.90964938008895
  },
  {
    "rank": 13,
    "id": "6004772",
    "name": "そね田やきとりや",
    "url": "https://tabelog.com/yamagata/A0601/A060101/6004772/",
    "image": "https://tblg.k-img.com/restaurant/images/Rvw/332603/640x640_rect_f42ec0f8dfc79512e65a506e318bfae0.jpg",
    "address": "山形県山形市香澄町1-18-8",
    "rating": 3.65,
    "ratingCount": 189,
    "lat": 38.25098155726323,
    "lng": 140.32947273994662
  },
  {
    "rank": 14,
    "id": "13128870",
    "name": "鳥恵 上野広小路店",
    "url": "https://tabelog.com/tokyo/A1311/A131101/13128870/",
    "image": "https://tblg.k-img.com/restaurant/images/Rvw/226230/640x640_rect_9315569329a55920eaffe77332aef8eb.jpg",
    "address": "東京都文京区湯島3-40-8 栗田ビル 1F",
    "rating": 3.69,
    "ratingCount": 724,
    "lat": 35.70786433789563,
    "lng": 139.77234538348753
  },
  {
    "rank": 15,
    "id": "13247688",
    "name": "やきとり 陽火",
    "url": "https://tabelog.com/tokyo/A1316/A131602/13247688/",
    "image": "https://tblg.k-img.com/restaurant/images/Rvw/152692/640x640_rect_152692559.jpg",
    "address": "東京都港区白金5-8-13 白金ハイツ 1F",
    "rating": 3.75,
    "ratingCount": 304,
    "lat": 35.644484537921244,
    "lng": 139.72640248287954
  },
  {
    "rank": 16,
    "id": "13004097",
    "name": "銀座バードランド",
    "url": "https://tabelog.com/tokyo/A1301/A130101/13004097/",
    "image": "https://tblg.k-img.com/restaurant/images/Rvw/93201/640x640_rect_93201290.jpg",
    "address": "東京都中央区銀座4-2-15 塚本素山ビル　Ｂ１Ｆ",
    "rating": 3.65,
    "ratingCount": 508,
    "lat": 35.672793637915206,
    "lng": 139.76390188313923
  },
  {
    "rank": 17,
    "id": "21012245",
    "name": "焼鳥 みずき",
    "url": "https://tabelog.com/gifu/A2101/A210101/21012245/",
    "image": "https://tblg.k-img.com/restaurant/images/Rvw/175889/640x640_rect_7e52e56824a39aef6d355124aeaf96ad.jpg",
    "address": "岐阜県岐阜市神田町3-9 岐阜屋ビル 2F",
    "rating": 3.97,
    "ratingCount": 449,
    "lat": 35.419227327925135,
    "lng": 136.76050400384503
  },
  {
    "rank": 18,
    "id": "13188236",
    "name": "喜鈴",
    "url": "https://tabelog.com/tokyo/A1303/A130302/13188236/",
    "image": "https://tblg.k-img.com/restaurant/images/Rvw/284096/640x640_rect_a6447e3302de746846a51119ad65258a.jpg",
    "address": "東京都渋谷区恵比寿西1-8-10 EBISU高橋ビルB1F",
    "rating": 3.67,
    "ratingCount": 966,
    "lat": 35.64730163791374,
    "lng": 139.70850778292055
  },
  {
    "rank": 19,
    "id": "13187433",
    "name": "焼鳥 山もと",
    "url": "https://tabelog.com/tokyo/A1320/A132002/13187433/",
    "image": "https://tblg.k-img.com/restaurant/images/Rvw/48424/640x640_rect_48424319.jpg",
    "address": "東京都武蔵野市中町1-19-8 シティハイツ武蔵野 B1F",
    "rating": 3.78,
    "ratingCount": 388,
    "lat": 35.70500803783066,
    "lng": 139.56268098360565
  },
  {
    "rank": 20,
    "id": "13304051",
    "name": "酒亭湯澤",
    "url": "https://tabelog.com/tokyo/A1302/A130204/13304051/",
    "image": "https://tblg.k-img.com/restaurant/images/Rvw/356519/640x640_rect_51b396165e0805238503830a54423d93.jpg",
    "address": "東京都中央区東日本橋3-5-9 増田屋ビル 1F",
    "rating": 4,
    "ratingCount": 285,
    "lat": 35.69114725871516,
    "lng": 139.78350624447262
  },
  {
    "rank": 21,
    "id": "13008082",
    "name": "やき鳥 宮川",
    "url": "https://tabelog.com/tokyo/A1302/A130203/13008082/",
    "image": "https://tblg.k-img.com/restaurant/images/Rvw/213197/640x640_rect_fc5c30acdcc7f620688861d7796bcd53.jpg",
    "address": "東京都中央区日本橋茅場町3-5-1",
    "rating": 3.69,
    "ratingCount": 1961,
    "lat": 35.67829702872167,
    "lng": 139.77831939434648
  },
  {
    "rank": 22,
    "id": "13259508",
    "name": "YAKITORI 燃 es",
    "url": "https://tabelog.com/tokyo/A1307/A130701/13259508/",
    "image": "https://tblg.k-img.com/restaurant/images/Rvw/278016/640x640_rect_8ab6923af38b47ca0bdf4fb4730e8cee.jpg",
    "address": "東京都港区六本木7-13-10 宮下ビル 1F",
    "rating": 4.27,
    "ratingCount": 803,
    "lat": 35.66373543791026,
    "lng": 139.73029518307123
  },
  {
    "rank": 23,
    "id": "13245585",
    "name": "焼鳥 山香",
    "url": "https://tabelog.com/tokyo/A1309/A130905/13245585/",
    "image": "https://tblg.k-img.com/restaurant/images/Rvw/227420/640x640_rect_7451cd14599c4f65aed17b7258d51c2e.jpg",
    "address": "東京都新宿区矢来町64-4 DEAR神楽坂 2F",
    "rating": 3.68,
    "ratingCount": 286,
    "lat": 35.7034887378858,
    "lng": 139.73280958347104
  },
  {
    "rank": 24,
    "id": "14074964",
    "name": "地葉はなれ",
    "url": "https://tabelog.com/kanagawa/A1401/A140101/14074964/",
    "image": "https://tblg.k-img.com/restaurant/images/Rvw/135594/640x640_rect_135594170.jpg",
    "address": "神奈川県横浜市神奈川区鶴屋町1-7-1 デリス横浜ビル 4F",
    "rating": 3.75,
    "ratingCount": 515,
    "lat": 35.46922234465968,
    "lng": 139.62421337853706
  },
  {
    "rank": 25,
    "id": "22040511",
    "name": "焼き鳥 幸羽",
    "url": "https://tabelog.com/shizuoka/A2202/A220201/22040511/",
    "image": "https://tblg.k-img.com/restaurant/images/Rvw/278028/640x640_rect_cba21af9e50dd466b4f8e2d805852cb7.jpg",
    "address": "静岡県浜松市中央区千歳町6 コートクビル 1F",
    "rating": 4.14,
    "ratingCount": 171,
    "lat": 34.70319183868843,
    "lng": 137.7293098759333
  },
  {
    "rank": 27,
    "id": "13197391",
    "name": "やきとり阿部",
    "url": "https://tabelog.com/tokyo/A1316/A131601/13197391/",
    "image": "https://tblg.k-img.com/restaurant/images/Rvw/278747/640x640_rect_147dfcf13876b55de1515fa25625a63d.jpg",
    "address": "東京都品川区上大崎3-3-4 MIYUKI HOUSE 1F",
    "rating": 3.68,
    "ratingCount": 429,
    "lat": 35.63396323792528,
    "lng": 139.71810808277908
  },
  {
    "rank": 28,
    "id": "14000552",
    "name": "伸喜",
    "url": "https://tabelog.com/kanagawa/A1401/A140102/14000552/",
    "image": "https://tblg.k-img.com/restaurant/images/Rvw/195409/640x640_rect_2dbaa6368a45abb3b7d6c5c1ae771077.jpg",
    "address": "神奈川県横浜市中区野毛町2-80",
    "rating": 3.68,
    "ratingCount": 596,
    "lat": 35.44805040882049,
    "lng": 139.62942579212512
  },
  {
    "rank": 29,
    "id": "13298796",
    "name": "とり卓忠",
    "url": "https://tabelog.com/tokyo/A1309/A130905/13298796/",
    "image": "https://tblg.k-img.com/restaurant/images/Rvw/256871/640x640_rect_e021dd78f020688bdf6ffaca1784092f.jpg",
    "address": "東京都新宿区山吹町6-3 ZA KAGURAZAKA B1F",
    "rating": 3.68,
    "ratingCount": 225,
    "lat": 35.70659061347027,
    "lng": 139.7312271123989
  },
  {
    "rank": 30,
    "id": "13058892",
    "name": "鳥長",
    "url": "https://tabelog.com/tokyo/A1321/A132102/13058892/",
    "image": "https://tblg.k-img.com/restaurant/images/Rvw/78186/320x320_rect_78186033.jpg",
    "address": "東京都練馬区豊玉北4-31-8",
    "rating": 3.74,
    "ratingCount": 720,
    "lat": 35.734598537841855,
    "lng": 139.65683578383852
  },
  {
    "rank": 31,
    "id": "13000055",
    "name": "焼鳥 はちまん",
    "url": "https://tabelog.com/tokyo/A1305/A130504/13000055/",
    "image": "https://tblg.k-img.com/restaurant/images/Rvw/136953/640x640_rect_136953752.jpg",
    "address": "東京都新宿区西早稲田3-1-1 八幡鮨　Ｂ１Ｆ",
    "rating": 3.68,
    "ratingCount": 528,
    "lat": 35.70959601868206,
    "lng": 139.71636535470603
  },
  {
    "rank": 32,
    "id": "23072041",
    "name": "ひきざんたしざん",
    "url": "https://tabelog.com/aichi/A2301/A230106/23072041/",
    "image": "https://tblg.k-img.com/restaurant/images/Rvw/153505/640x640_rect_153505417.jpg",
    "address": "愛知県名古屋市千種区春岡1-5-13 コンフォール池下 1F",
    "rating": 3.78,
    "ratingCount": 156,
    "lat": 35.16671953733914,
    "lng": 136.9457861800028
  },
  {
    "rank": 33,
    "id": "13251802",
    "name": "伊勢廣 京橋本店",
    "url": "https://tabelog.com/tokyo/A1302/A130202/13251802/",
    "image": "https://tblg.k-img.com/restaurant/images/Rvw/22078/320x320_rect_22078037.jpg",
    "address": "東京都中央区京橋1-4-9",
    "rating": 3.69,
    "ratingCount": 1186,
    "lat": 35.67849693791363,
    "lng": 139.7703504831923
  },
  {
    "rank": 34,
    "id": "13285811",
    "name": "酒亭 田中",
    "url": "https://tabelog.com/tokyo/A1312/A131203/13285811/",
    "image": "https://tblg.k-img.com/restaurant/images/Rvw/282891/640x640_rect_896a38c6cbca59cfa66707d6b2c58499.jpg",
    "address": "東京都墨田区墨田3-25-7",
    "rating": 4.26,
    "ratingCount": 363,
    "lat": 35.730710518701514,
    "lng": 139.81955874484697
  },
  {
    "rank": 35,
    "id": "13200559",
    "name": "南青山 七鳥目",
    "url": "https://tabelog.com/tokyo/A1307/A130703/13200559/",
    "image": "https://tblg.k-img.com/restaurant/images/Rvw/124054/640x640_rect_124054479.jpg",
    "address": "東京都港区南青山7-13-13 フォレストビル B1F",
    "rating": 4.19,
    "ratingCount": 489,
    "lat": 35.65715005871594,
    "lng": 139.71816006417504
  },
  {
    "rank": 36,
    "id": "10014200",
    "name": "焼鳥 コの字",
    "url": "https://tabelog.com/gunma/A1001/A100102/10014200/",
    "image": "https://tblg.k-img.com/restaurant/images/Rvw/363502/640x640_rect_c78609779c1934031e49226b447070c3.jpg",
    "address": "群馬県高崎市田町106-5",
    "rating": 3.75,
    "ratingCount": 170,
    "lat": 36.3281244480633,
    "lng": 139.006980741451
  },
  {
    "rank": 37,
    "id": "13225479",
    "name": "焼き鳥 峠",
    "url": "https://tabelog.com/tokyo/A1309/A130905/13225479/",
    "image": "https://tblg.k-img.com/restaurant/images/Rvw/100258/640x640_rect_100258802.jpg",
    "address": "東京都新宿区細工町3-5 荘 1F",
    "rating": 3.75,
    "ratingCount": 260,
    "lat": 35.699021118693985,
    "lng": 139.73271823458776
  },
  {
    "rank": 38,
    "id": "13114433",
    "name": "床島",
    "url": "https://tabelog.com/tokyo/A1317/A131706/13114433/",
    "image": "https://tblg.k-img.com/restaurant/images/Rvw/123965/640x640_rect_123965581.jpg",
    "address": "東京都世田谷区三軒茶屋2-8-10 ルナパーク三軒茶屋１０５",
    "rating": 3.73,
    "ratingCount": 370,
    "lat": 35.64259863790369,
    "lng": 139.66753068290174
  },
  {
    "rank": 39,
    "id": "13266251",
    "name": "かさ原",
    "url": "https://tabelog.com/tokyo/A1309/A130905/13266251/",
    "image": "https://tblg.k-img.com/restaurant/images/Rvw/231443/640x640_rect_5a29d107a4487ee972011b1d5b5f408b.jpg",
    "address": "東京都新宿区東五軒町5-5 2F",
    "rating": 4.53,
    "ratingCount": 506,
    "lat": 35.70639353788619,
    "lng": 139.7398162834955
  },
  {
    "rank": 40,
    "id": "13240980",
    "name": "オオクサ",
    "url": "https://tabelog.com/tokyo/A1309/A130903/13240980/",
    "image": "https://tblg.k-img.com/restaurant/images/Rvw/167045/640x640_rect_fe7a1d07442d81e6b620312a47155ffc.jpg",
    "address": "東京都新宿区荒木町7-13 森戸ビル 1Ｆ",
    "rating": 4.35,
    "ratingCount": 466,
    "lat": 35.689113888696944,
    "lng": 139.72227376449501
  },
  {
    "rank": 41,
    "id": "13270116",
    "name": "焼鳥 せきね",
    "url": "https://tabelog.com/tokyo/A1323/A132301/13270116/",
    "image": "https://tblg.k-img.com/restaurant/images/Rvw/296263/640x640_rect_6f60ed71ac97c42b746772cf6c8644d5.jpg",
    "address": "東京都豊島区駒込1-29-2",
    "rating": 3.72,
    "ratingCount": 254,
    "lat": 35.73708563786965,
    "lng": 139.74903528379903
  },
  {
    "rank": 42,
    "id": "4027171",
    "name": "sou",
    "url": "https://tabelog.com/miyagi/A0401/A040101/4027171/",
    "image": "https://tblg.k-img.com/restaurant/images/Rvw/286233/640x640_rect_2d1c9d11bf2b0787fb5e5502efda5252.jpg",
    "address": "宮城県仙台市青葉区一番町1-1-8 青葉パークビル B1F",
    "rating": 3.81,
    "ratingCount": 81,
    "lat": 38.25791746642191,
    "lng": 140.8757621404687
  },
  {
    "rank": 43,
    "id": "13143142",
    "name": "焼鳥 本田",
    "url": "https://tabelog.com/tokyo/A1313/A131301/13143142/",
    "image": "https://tblg.k-img.com/restaurant/images/Rvw/299599/640x640_rect_a31226de6f7884128924e7e8ab4d7656.jpg",
    "address": "東京都中央区湊3-5-1 エス・ユービル 1F",
    "rating": 3.82,
    "ratingCount": 131,
    "lat": 35.669835268727006,
    "lng": 139.7782057642611
  },
  {
    "rank": 44,
    "id": "13294983",
    "name": "とり吾",
    "url": "https://tabelog.com/tokyo/A1317/A131701/13294983/",
    "image": "https://tblg.k-img.com/restaurant/images/Rvw/309343/640x640_rect_3134290b2173edff21ed76de630b0ebb.jpg",
    "address": "東京都目黒区上目黒3-16-4",
    "rating": 3.71,
    "ratingCount": 236,
    "lat": 35.645804434397924,
    "lng": 139.6960531709772
  },
  {
    "rank": 45,
    "id": "23001704",
    "name": "千亀",
    "url": "https://tabelog.com/aichi/A2301/A230103/23001704/",
    "image": "https://tblg.k-img.com/restaurant/images/Rvw/194238/640x640_rect_a080ed19c2e0330743eeb455666220af.jpg",
    "address": "愛知県名古屋市中区栄3-1-19 ソフランビル 2F",
    "rating": 3.67,
    "ratingCount": 861,
    "lat": 35.16770848813034,
    "lng": 136.9032445012044
  },
  {
    "rank": 46,
    "id": "13130757",
    "name": "焼鳥 うの",
    "url": "https://tabelog.com/tokyo/A1317/A131711/13130757/",
    "image": "https://tblg.k-img.com/restaurant/images/Rvw/298689/640x640_rect_24718c1339ea1b431e244d1360cc9079.jpg",
    "address": "東京都世田谷区奥沢3-30-11",
    "rating": 3.79,
    "ratingCount": 421,
    "lat": 35.60246381873593,
    "lng": 139.6718690836551
  },
  {
    "rank": 47,
    "id": "12052353",
    "name": "花見川 大富",
    "url": "https://tabelog.com/chiba/A1201/A120102/12052353/",
    "image": "https://tblg.k-img.com/restaurant/images/Rvw/153146/640x640_rect_153146738.jpg",
    "address": "千葉県千葉市花見川区幕張本郷1-10-8 サントルビレッジ 1A",
    "rating": 3.74,
    "ratingCount": 270,
    "lat": 35.672390738002996,
    "lng": 140.03876648294246
  },
  {
    "rank": 48,
    "id": "13254666",
    "name": "焼鳥 篠原",
    "url": "https://tabelog.com/tokyo/A1307/A130701/13254666/",
    "image": "https://tblg.k-img.com/restaurant/images/Rvw/279014/640x640_rect_c312f344b6500cb93a7a7f768b66ae84.jpg",
    "address": "東京都港区西麻布1-4-40 SHINOビル 1F",
    "rating": 3.93,
    "ratingCount": 619,
    "lat": 35.66208623790969,
    "lng": 139.72521758305817
  },
  {
    "rank": 49,
    "id": "13092061",
    "name": "蒼天 南口店",
    "url": "https://tabelog.com/tokyo/A1323/A132302/13092061/",
    "image": "https://tblg.k-img.com/restaurant/images/Rvw/139452/640x640_rect_139452529.jpg",
    "address": "東京都豊島区南大塚3-39-13 嵯峨・加藤ビル 1F",
    "rating": 3.66,
    "ratingCount": 833,
    "lat": 35.72957623786752,
    "lng": 139.72742328373832
  },
  {
    "rank": 50,
    "id": "23074332",
    "name": "地葉 栄",
    "url": "https://tabelog.com/aichi/A2301/A230103/23074332/",
    "image": "https://tblg.k-img.com/restaurant/images/Rvw/135565/640x640_rect_135565521.jpg",
    "address": "愛知県名古屋市中区栄3-19-20 GL栄ビル 2F",
    "rating": 3.75,
    "ratingCount": 427,
    "lat": 35.16525503732682,
    "lng": 136.90414438001721
  },
  {
    "rank": 51,
    "id": "13280797",
    "name": "とりアロマ",
    "url": "https://tabelog.com/tokyo/A1310/A131003/13280797/",
    "image": "https://tblg.k-img.com/restaurant/images/Rvw/218831/640x640_rect_fab8840744586ec8fc9e11c67c922f87.jpg",
    "address": "東京都千代田区神田神保町2-12-3",
    "rating": 3.95,
    "ratingCount": 422,
    "lat": 35.696525378703214,
    "lng": 139.75670036454574
  },
  {
    "rank": 52,
    "id": "13248473",
    "name": "とり澤",
    "url": "https://tabelog.com/tokyo/A1317/A131701/13248473/",
    "image": "https://tblg.k-img.com/restaurant/images/Rvw/148591/640x640_rect_148591407.jpg",
    "address": "東京都目黒区上目黒1-5-13 メゾン中目黒 1F",
    "rating": 3.77,
    "ratingCount": 476,
    "lat": 35.644833337912694,
    "lng": 139.70023068290143
  },
  {
    "rank": 53,
    "id": "13293212",
    "name": "鳥おか",
    "url": "https://tabelog.com/tokyo/A1307/A130701/13293212/",
    "image": "https://tblg.k-img.com/restaurant/images/Rvw/238064/640x640_rect_b7a0ee0a294504701ee2e71056927c60.jpg",
    "address": "東京都港区麻布台1-2-4 麻布台ヒルズ ガーデンプラザC B1F",
    "rating": 3.75,
    "ratingCount": 184,
    "lat": 35.662167098720175,
    "lng": 139.74146440420938
  },
  {
    "rank": 54,
    "id": "13003200",
    "name": "鳥よし 中目黒本店",
    "url": "https://tabelog.com/tokyo/A1317/A131701/13003200/",
    "image": "https://tblg.k-img.com/restaurant/images/Rvw/260946/640x640_rect_c215756b573dc8e42be86341def6dbe6.jpg",
    "address": "東京都目黒区上目黒2-8-6 谷島ビル　１Ｆ",
    "rating": 3.75,
    "ratingCount": 809,
    "lat": 35.64237862871925,
    "lng": 139.6990934740392
  },
  {
    "rank": 55,
    "id": "14073371",
    "name": "焼き鳥 さいとう",
    "url": "https://tabelog.com/kanagawa/A1401/A140104/14073371/",
    "image": "https://tblg.k-img.com/restaurant/images/Rvw/124245/640x640_rect_124245655.jpg",
    "address": "神奈川県横浜市中区太田町2-31-3",
    "rating": 3.66,
    "ratingCount": 225,
    "lat": 35.446818738824184,
    "lng": 139.63858640210628
  },
  {
    "rank": 56,
    "id": "14064998",
    "name": "焼鳥 美鶏",
    "url": "https://tabelog.com/kanagawa/A1401/A140104/14064998/",
    "image": "https://tblg.k-img.com/restaurant/images/Rvw/292188/640x640_rect_e688272f7b8320a972744154ce90ac72.jpg",
    "address": "神奈川県横浜市中区太田町2-30 田中ビル 2F",
    "rating": 3.7,
    "ratingCount": 566,
    "lat": 35.44671342782183,
    "lng": 139.63875467471385
  },
  {
    "rank": 57,
    "id": "13135959",
    "name": "鳥さわ",
    "url": "https://tabelog.com/tokyo/A1312/A131202/13135959/",
    "image": "https://tblg.k-img.com/restaurant/images/Rvw/78332/320x320_rect_78332674.jpg",
    "address": "東京都江東区亀戸2-24-13",
    "rating": 3.74,
    "ratingCount": 698,
    "lat": 35.6983560987234,
    "lng": 139.82374916451727
  },
  {
    "rank": 58,
    "id": "13193773",
    "name": "焼鳥 嘉とう",
    "url": "https://tabelog.com/tokyo/A1314/A131402/13193773/",
    "image": "https://tblg.k-img.com/restaurant/images/Rvw/68198/640x640_rect_68198903.jpg",
    "address": "東京都港区三田3-3-2 豊田ビル 2F",
    "rating": 3.65,
    "ratingCount": 231,
    "lat": 35.64731163792493,
    "lng": 139.74362888289602
  },
  {
    "rank": 59,
    "id": "13158357",
    "name": "焼鳥 おがわ",
    "url": "https://tabelog.com/tokyo/A1309/A130903/13158357/",
    "image": "https://tblg.k-img.com/restaurant/images/Rvw/167974/640x640_rect_4607a2992ab5cc14f08c96b6b4299466.jpg",
    "address": "東京都新宿区荒木町9-1 ウインド荒木町 1F",
    "rating": 3.65,
    "ratingCount": 375,
    "lat": 35.6896306586966,
    "lng": 139.7222033045003
  },
  {
    "rank": 60,
    "id": "19013380",
    "name": "焼鳥 58",
    "url": "https://tabelog.com/yamanashi/A1901/A190101/19013380/",
    "image": "https://tblg.k-img.com/restaurant/images/Rvw/314838/640x640_rect_8457afb29f58643d01d05ca5098d1308.jpg",
    "address": "山梨県甲府市中央1-6-11 芳野ビル 1F",
    "rating": 3.67,
    "ratingCount": 139,
    "lat": 35.660914428347745,
    "lng": 138.56950895501822
  },
  {
    "rank": 61,
    "id": "13101685",
    "name": "道しるべ",
    "url": "https://tabelog.com/tokyo/A1304/A130401/13101685/",
    "image": "https://tblg.k-img.com/restaurant/images/Rvw/138644/640x640_rect_138644556.jpg",
    "address": "東京都新宿区歌舞伎町1-3-7",
    "rating": 3.71,
    "ratingCount": 629,
    "lat": 35.694768138687444,
    "lng": 139.70370193456512
  },
  {
    "rank": 62,
    "id": "13025995",
    "name": "焼鳥今井",
    "url": "https://tabelog.com/tokyo/A1306/A130603/13025995/",
    "image": "https://tblg.k-img.com/restaurant/images/Rvw/88170/640x640_rect_88170297.jpg",
    "address": "東京都渋谷区神宮前3-42-11 ローザビアンカ 1F",
    "rating": 3.72,
    "ratingCount": 693,
    "lat": 35.671830037899895,
    "lng": 139.7139442831645
  },
  {
    "rank": 63,
    "id": "13230923",
    "name": "鍈輝",
    "url": "https://tabelog.com/tokyo/A1303/A130302/13230923/",
    "image": "https://tblg.k-img.com/restaurant/images/Rvw/168055/640x640_rect_514b253c0f6eb99f2d7e430f98dab08b.jpg",
    "address": "東京都渋谷区恵比寿2-10-5 ROZIS 1F",
    "rating": 4.25,
    "ratingCount": 414,
    "lat": 35.645696637917425,
    "lng": 139.71685048289845
  },
  {
    "rank": 64,
    "id": "23077415",
    "name": "焼鳥 泉松",
    "url": "https://tabelog.com/aichi/A2301/A230103/23077415/",
    "image": "https://tblg.k-img.com/restaurant/images/Rvw/152620/320x320_rect_152620002.jpg",
    "address": "愛知県名古屋市東区泉1-22-9",
    "rating": 3.67,
    "ratingCount": 181,
    "lat": 35.17485813732292,
    "lng": 136.91108748010933
  },
  {
    "rank": 65,
    "id": "13016582",
    "name": "鳥よし 銀座店",
    "url": "https://tabelog.com/tokyo/A1301/A130101/13016582/",
    "image": "https://tblg.k-img.com/restaurant/images/Rvw/336112/640x640_rect_7c2bbb8ae73a6df753bb5f90731866db.jpg",
    "address": "東京都中央区銀座7-2 銀座コリドー 街 1F",
    "rating": 3.65,
    "ratingCount": 705,
    "lat": 35.67056606038866,
    "lng": 139.75977447809018
  },
  {
    "rank": 66,
    "id": "13304401",
    "name": "酉囃子",
    "url": "https://tabelog.com/tokyo/A1307/A130702/13304401/",
    "image": "https://tblg.k-img.com/restaurant/images/Rvw/354903/640x640_rect_ee9a162b31c4b108f46747433dff3191.jpg",
    "address": "東京都港区麻布十番1-6-9 ARUGA22  4F",
    "rating": 4.11,
    "ratingCount": 198,
    "lat": 35.65675100872131,
    "lng": 139.73421492415974
  },
  {
    "rank": 67,
    "id": "13267696",
    "name": "焼鳥 ひら野",
    "url": "https://tabelog.com/tokyo/A1301/A130103/13267696/",
    "image": "https://tblg.k-img.com/restaurant/images/Rvw/276133/640x640_rect_1e37e2ecfb3f0e4b40a9b5bf5d808e1e.jpg",
    "address": "東京都中央区銀座8-12-15 全国燃料会館 1F",
    "rating": 3.72,
    "ratingCount": 657,
    "lat": 35.667561237918285,
    "lng": 139.76314198308688
  },
  {
    "rank": 68,
    "id": "13277047",
    "name": "とり澤 六本木",
    "url": "https://tabelog.com/tokyo/A1307/A130701/13277047/",
    "image": "https://tblg.k-img.com/restaurant/images/Rvw/191936/640x640_rect_54664b09d36e2143caf7b65e956aba49.jpg",
    "address": "東京都港区六本木4-1-19 ARUGA19ビル 1F",
    "rating": 3.73,
    "ratingCount": 200,
    "lat": 35.66441863791103,
    "lng": 139.7341103830755
  },
  {
    "rank": 69,
    "id": "13255846",
    "name": "おみ乃 神谷町",
    "url": "https://tabelog.com/tokyo/A1307/A130704/13255846/",
    "image": "https://tblg.k-img.com/restaurant/images/Rvw/303289/640x640_rect_c02743d2d076f7158a6d1c146da73720.jpg",
    "address": "東京都港区虎ノ門3-17-1 TOKYU REIT虎ノ門ﾋﾞﾙ 104",
    "rating": 3.83,
    "ratingCount": 549,
    "lat": 35.66422916784224,
    "lng": 139.74675548375703
  },
  {
    "rank": 70,
    "id": "13001520",
    "name": "三政",
    "url": "https://tabelog.com/tokyo/A1301/A130103/13001520/",
    "image": "https://tblg.k-img.com/restaurant/images/Rvw/147266/640x640_rect_147266465.jpg",
    "address": "東京都港区新橋3-19-6 新陽ビルディング 1F",
    "rating": 3.67,
    "ratingCount": 759,
    "lat": 35.66483703791816,
    "lng": 139.75735568306342
  },
  {
    "rank": 71,
    "id": "13262306",
    "name": "焼鳥 ひなた",
    "url": "https://tabelog.com/tokyo/A1307/A130702/13262306/",
    "image": "https://tblg.k-img.com/restaurant/images/Rvw/158996/640x640_rect_158996393.jpg",
    "address": "東京都港区元麻布3-12-4 SP元麻布 2F",
    "rating": 3.7,
    "ratingCount": 77,
    "lat": 35.656102337915826,
    "lng": 139.7325658829926
  },
  {
    "rank": 72,
    "id": "14093258",
    "name": "焼鳥一二三",
    "url": "https://tabelog.com/kanagawa/A1401/A140104/14093258/",
    "image": "https://tblg.k-img.com/restaurant/images/Rvw/231332/640x640_rect_d8e9a0d2a6433d7922914f991a798272.jpg",
    "address": "神奈川県横浜市中区相生町2-52 金子ビル 5F",
    "rating": 3.74,
    "ratingCount": 87,
    "lat": 35.446648858824155,
    "lng": 139.63814718210486
  },
  {
    "rank": 73,
    "id": "13299397",
    "name": "焼鳥なかむら",
    "url": "https://tabelog.com/tokyo/A1308/A130802/13299397/",
    "image": "https://tblg.k-img.com/restaurant/images/Rvw/266885/640x640_rect_f8c48210db5db8d94e58397c6a6cc5dd.jpg",
    "address": "東京都港区西新橋2-15-6 FACE虎ノ門 1F",
    "rating": 3.66,
    "ratingCount": 131,
    "lat": 35.66692703872027,
    "lng": 139.7512526842506
  },
  {
    "rank": 74,
    "id": "13271040",
    "name": "鳥匠いし井ひな",
    "url": "https://tabelog.com/tokyo/A1307/A130702/13271040/",
    "image": "https://tblg.k-img.com/restaurant/images/Rvw/280009/640x640_rect_7212100c543da8276e2aff0f48282917.jpg",
    "address": "東京都港区南麻布1-27-7 クリフサイドビル 1F",
    "rating": 4.09,
    "ratingCount": 615,
    "lat": 35.650033988846374,
    "lng": 139.73334102744818
  },
  {
    "rank": 75,
    "id": "14083143",
    "name": "1000",
    "url": "https://tabelog.com/kanagawa/A1401/A140104/14083143/",
    "image": "https://tblg.k-img.com/restaurant/images/Rvw/281031/640x640_rect_6971d463dc391684bbfa0685560befe1.jpg",
    "address": "神奈川県横浜市中区相生町2-52 金子ビル 3F",
    "rating": 4.26,
    "ratingCount": 493,
    "lat": 35.44663079882417,
    "lng": 139.63814850210466
  },
  {
    "rank": 76,
    "id": "13232545",
    "name": "焼鶏 ひらこ",
    "url": "https://tabelog.com/tokyo/A1307/A130701/13232545/",
    "image": "https://tblg.k-img.com/restaurant/images/Rvw/159409/640x640_rect_159409820.jpg",
    "address": "東京都港区西麻布1-5-23 東ビル 1F",
    "rating": 3.72,
    "ratingCount": 403,
    "lat": 35.661850918598205,
    "lng": 139.7257791761451
  },
  {
    "rank": 77,
    "id": "13206654",
    "name": "焼鳥 おみ乃",
    "url": "https://tabelog.com/tokyo/A1312/A131203/13206654/",
    "image": "https://tblg.k-img.com/restaurant/images/Rvw/366339/640x640_rect_cda7d538fcfc93387abafb55226ffcda.jpg",
    "address": "東京都墨田区押上1-38-4 清流ビル１Ｆ",
    "rating": 4.03,
    "ratingCount": 1561,
    "lat": 35.70987333790821,
    "lng": 139.8158997834773
  },
  {
    "rank": 78,
    "id": "13213940",
    "name": "虎ノ門 焼鳥國よし",
    "url": "https://tabelog.com/tokyo/A1308/A130802/13213940/",
    "image": "https://tblg.k-img.com/restaurant/images/Rvw/144095/320x320_rect_144095068.jpg",
    "address": "東京都港区西新橋2-15-2 親和ビル B1",
    "rating": 3.68,
    "ratingCount": 464,
    "lat": 35.66704053872005,
    "lng": 139.75078018425205
  },
  {
    "rank": 79,
    "id": "23061531",
    "name": "焼鳥  吉祥",
    "url": "https://tabelog.com/aichi/A2301/A230104/23061531/",
    "image": "https://tblg.k-img.com/restaurant/images/Rvw/128148/640x640_rect_128148739.jpg",
    "address": "愛知県名古屋市東区東桜2-17-46",
    "rating": 3.65,
    "ratingCount": 461,
    "lat": 35.172098337327064,
    "lng": 136.9185697800762
  },
  {
    "rank": 80,
    "id": "13290286",
    "name": "おみ乃 椿",
    "url": "https://tabelog.com/tokyo/A1302/A130202/13290286/",
    "image": "https://tblg.k-img.com/restaurant/images/Rvw/362506/640x640_rect_33312f46cda1fd277106b24455cf9080.jpg",
    "address": "東京都中央区京橋2-5-17 京橋SKビル B1F",
    "rating": 4,
    "ratingCount": 205,
    "lat": 35.676129198720545,
    "lng": 139.77046934433005
  },
  {
    "rank": 81,
    "id": "23086097",
    "name": "地葉 いずみ",
    "url": "https://tabelog.com/aichi/A2301/A230104/23086097/",
    "image": "https://tblg.k-img.com/restaurant/images/Rvw/218928/640x640_rect_794794ef21e0655c8437a79a89f32997.jpg",
    "address": "愛知県名古屋市東区東桜2-11-20 YgK.Higashisakura 9F",
    "rating": 3.78,
    "ratingCount": 127,
    "lat": 35.17196847964819,
    "lng": 136.91480263648484
  },
  {
    "rank": 82,
    "id": "13296718",
    "name": "新まき",
    "url": "https://tabelog.com/tokyo/A1314/A131401/13296718/",
    "image": "https://tblg.k-img.com/restaurant/images/Rvw/256899/640x640_rect_f38cf45f9c8fbfef7154414f976c7bc4.jpg",
    "address": "東京都港区東麻布1-24-6 麻布ハイツ 103",
    "rating": 3.74,
    "ratingCount": 162,
    "lat": 35.655692073444776,
    "lng": 139.7443370141105
  },
  {
    "rank": 83,
    "id": "5007853",
    "name": "鳥好",
    "url": "https://tabelog.com/akita/A0501/A050101/5007853/",
    "image": "https://tblg.k-img.com/restaurant/images/Rvw/321656/640x640_rect_4d1e895319548622d1ae63ce4385af02.jpg",
    "address": "秋田県秋田市中通4-11-5 栄ビル 1F",
    "rating": 3.72,
    "ratingCount": 100,
    "lat": 39.71549273546305,
    "lng": 140.1264237237201
  },
  {
    "rank": 84,
    "id": "13045529",
    "name": "鳥焼 笹や",
    "url": "https://tabelog.com/tokyo/A1316/A131601/13045529/",
    "image": "https://tblg.k-img.com/restaurant/images/Rvw/222150/640x640_rect_ca7a2cd1bf1b01062f7002e52019ce15.jpg",
    "address": "東京都目黒区目黒1-24-6 室井ビル 1F",
    "rating": 3.65,
    "ratingCount": 633,
    "lat": 35.6353006379219,
    "lng": 139.71015088279816
  },
  {
    "rank": 85,
    "id": "13182104",
    "name": "根津 焼鳥 照隅",
    "url": "https://tabelog.com/tokyo/A1311/A131106/13182104/",
    "image": "https://tblg.k-img.com/restaurant/images/Rvw/200684/640x640_rect_a14619546476384f808c45a3f4a78ed5.jpg",
    "address": "東京都文京区根津1-1-21",
    "rating": 3.79,
    "ratingCount": 423,
    "lat": 35.71695003788781,
    "lng": 139.76596368358378
  },
  {
    "rank": 86,
    "id": "13291292",
    "name": "薪鳥新神戸",
    "url": "https://tabelog.com/tokyo/A1308/A130801/13291292/",
    "image": "https://tblg.k-img.com/restaurant/images/Rvw/277776/640x640_rect_93485f8ac747d4fe174acd2ade15b8e4.jpg",
    "address": "東京都港区赤坂3-9-2 No.R赤坂見附 1F",
    "rating": 4.43,
    "ratingCount": 722,
    "lat": 35.67728121337785,
    "lng": 139.73620310950287
  },
  {
    "rank": 87,
    "id": "23032616",
    "name": "炭焼 ちきんかばぶ",
    "url": "https://tabelog.com/aichi/A2301/A230103/23032616/",
    "image": "https://tblg.k-img.com/restaurant/images/Rvw/310225/640x640_rect_516f2d2ebf63baafe1ed7ffb0c20a1d2.jpg",
    "address": "愛知県名古屋市中区栄4丁目16-8 栄メンバーズオフィスビル　B1",
    "rating": 3.67,
    "ratingCount": 255,
    "lat": 35.16655733732797,
    "lng": 136.910372380026
  },
  {
    "rank": 88,
    "id": "4023532",
    "name": "hou",
    "url": "https://tabelog.com/miyagi/A0401/A040101/4023532/",
    "image": "https://tblg.k-img.com/restaurant/images/Rvw/286231/640x640_rect_884a553fba77a490038c76ac53218a3b.jpg",
    "address": "宮城県仙台市青葉区一番町2-3-3 J-BOXビル 3F",
    "rating": 3.94,
    "ratingCount": 294,
    "lat": 38.25914563662602,
    "lng": 140.87380370848575
  },
  {
    "rank": 89,
    "id": "7000904",
    "name": "鶏けん",
    "url": "https://tabelog.com/fukushima/A0701/A070101/7000904/",
    "image": "https://tblg.k-img.com/restaurant/images/Rvw/288946/640x640_rect_cfe21fe99ea4238ab24ca4bfc601898e.jpg",
    "address": "福島県福島市栄町12-1 第1寿ビル1F",
    "rating": 3.66,
    "ratingCount": 252,
    "lat": 37.75446703681565,
    "lng": 140.46278050367616
  },
  {
    "rank": 90,
    "id": "13246437",
    "name": "BLESS",
    "url": "https://tabelog.com/tokyo/A1312/A131201/13246437/",
    "image": "https://tblg.k-img.com/restaurant/images/Rvw/167271/640x640_rect_88177095bb166461a8adf2c1792a9636.jpg",
    "address": "東京都江東区森下2-20-13",
    "rating": 3.73,
    "ratingCount": 865,
    "lat": 35.68827843791671,
    "lng": 139.79950978327068
  },
  {
    "rank": 91,
    "id": "14001650",
    "name": "里葉亭",
    "url": "https://tabelog.com/kanagawa/A1401/A140102/14001650/",
    "image": "https://tblg.k-img.com/restaurant/images/Rvw/149941/640x640_rect_149941006.jpg",
    "address": "神奈川県横浜市中区福富町仲通3-2",
    "rating": 3.93,
    "ratingCount": 1042,
    "lat": 35.44564052882266,
    "lng": 139.63144319209937
  },
  {
    "rank": 92,
    "id": "13063782",
    "name": "おが和",
    "url": "https://tabelog.com/tokyo/A1302/A130204/13063782/",
    "image": "https://tblg.k-img.com/restaurant/images/Rvw/348897/640x640_rect_6852db4faadb4d75b20d678f84678771.jpg",
    "address": "東京都中央区日本橋人形町3-11-2",
    "rating": 3.69,
    "ratingCount": 1395,
    "lat": 35.68747281871707,
    "lng": 139.78218615443643
  },
  {
    "rank": 93,
    "id": "13256125",
    "name": "鳥さみ",
    "url": "https://tabelog.com/tokyo/A1324/A132403/13256125/",
    "image": "https://tblg.k-img.com/restaurant/images/Rvw/229267/640x640_rect_8b755eff3dfaf5bde8d5d19bee7836cb.jpg",
    "address": "東京都葛飾区亀有3-27-15 エルブランコ 1F",
    "rating": 3.67,
    "ratingCount": 178,
    "lat": 35.766194788688686,
    "lng": 139.85004528518402
  },
  {
    "rank": 94,
    "id": "22039162",
    "name": "備長炭焼鳥 鳥しげ",
    "url": "https://tabelog.com/shizuoka/A2203/A220301/22039162/",
    "image": "https://tblg.k-img.com/restaurant/images/Rvw/277880/640x640_rect_091b0a572ac5389c4a250412f000a20b.jpg",
    "address": "静岡県藤枝市小石川町1-3-7",
    "rating": 4.13,
    "ratingCount": 100,
    "lat": 34.852783437955615,
    "lng": 138.25545547591372
  },
  {
    "rank": 95,
    "id": "13157208",
    "name": "とり茶太郎",
    "url": "https://tabelog.com/tokyo/A1303/A130301/13157208/",
    "image": "https://tblg.k-img.com/restaurant/images/Rvw/277903/640x640_rect_aac4e3f9fff74fac78de29b09a08d564.jpg",
    "address": "東京都渋谷区鶯谷町7-12 TAKビル 1F",
    "rating": 4.4,
    "ratingCount": 746,
    "lat": 35.654112088712765,
    "lng": 139.70214974415555
  },
  {
    "rank": 96,
    "id": "5010335",
    "name": "比内地鶏串 Sot l'y laisse",
    "url": "https://tabelog.com/akita/A0501/A050101/5010335/",
    "image": "https://tblg.k-img.com/restaurant/images/Rvw/229570/640x640_rect_5421a120f982b1ebdf391ad6be102ecb.jpg",
    "address": "秋田県秋田市南通亀の町3-44 川原田ビル 1F",
    "rating": 3.77,
    "ratingCount": 132,
    "lat": 39.71122233546262,
    "lng": 140.1166032236838
  },
  {
    "rank": 97,
    "id": "13041029",
    "name": "鳥しき",
    "url": "https://tabelog.com/tokyo/A1316/A131601/13041029/",
    "image": "https://tblg.k-img.com/restaurant/images/Rvw/69191/320x320_rect_69191749.jpg",
    "address": "東京都品川区上大崎2-14-12",
    "rating": 4.41,
    "ratingCount": 1359,
    "lat": 35.63428698873006,
    "lng": 139.71689778394497
  },
  {
    "rank": 98,
    "id": "13253473",
    "name": "やきとり 右羽。",
    "url": "https://tabelog.com/tokyo/A1317/A131702/13253473/",
    "image": "https://tblg.k-img.com/restaurant/images/Rvw/309463/640x640_rect_63aed5cd1f508aa9de6cbece0a6c0e9d.jpg",
    "address": "東京都目黒区鷹番2-20-19 W.学芸大学 1F",
    "rating": 3.73,
    "ratingCount": 340,
    "lat": 35.629680734567,
    "lng": 139.68647657690906
  },
  {
    "rank": 99,
    "id": "13005504",
    "name": "白金 酉玉 本館",
    "url": "https://tabelog.com/tokyo/A1316/A131602/13005504/",
    "image": "https://tblg.k-img.com/restaurant/images/Rvw/109128/640x640_rect_109128840.jpg",
    "address": "東京都港区白金6-22-19",
    "rating": 3.59,
    "ratingCount": 775,
    "lat": 35.644492437919794,
    "lng": 139.72190848288275
  },
  {
    "rank": 100,
    "id": "13005034",
    "name": "瀬尾",
    "url": "https://tabelog.com/tokyo/A1307/A130702/13005034/",
    "image": "https://tblg.k-img.com/restaurant/images/Rvw/114202/640x640_rect_114202474.jpg",
    "address": "東京都港区麻布十番1-4-2 カーサツルオカ　B1F",
    "rating": 3.73,
    "ratingCount": 305,
    "lat": 35.65719173872143,
    "lng": 139.7354838941633
  }
]