[
  {
    "rank": 80,
    "id": "5006041",
    "name": "鮨駒",
    "url": "https://tabelog.com/akita/A0506/A050601/5006041/",
    "image": "https://tblg.k-img.com/restaurant/images/Rvw/194094/640x640_rect_4228bf35dd3b8be0be50e36d249ffbd2.jpg",
    "address": "秋田県由利本荘市桶屋町120",
    "rating": 4.47,
    "ratingCount": 215,
    "lat": 39.3927228364483,
    "lng": 140.0475617116769,
    "genre": "寿司"
  },
  {
    "rank": 33,
    "id": "5000664",
    "name": "日本料理 たかむら",
    "url": "https://tabelog.com/akita/A0501/A050101/5000664/",
    "image": "https://tblg.k-img.com/restaurant/images/Rvw/86356/320x320_rect_86356799.jpg",
    "address": "秋田県秋田市大町1-7-31",
    "rating": 4.42,
    "ratingCount": 379,
    "lat": 39.72069698626075,
    "lng": 140.11270652494403,
    "genre": "日本料理"
  },
  {
    "rank": 92,
    "id": "5009499",
    "name": "f",
    "url": "https://tabelog.com/akita/A0501/A050101/5009499/",
    "image": "https://tblg.k-img.com/restaurant/images/Rvw/177755/640x640_rect_1d1242708137a6ec448902023f19ae0f.jpg",
    "address": "秋田県秋田市中通5-5-31 KMビル 3F",
    "rating": 4.3,
    "ratingCount": 140,
    "lat": 39.712095335462976,
    "lng": 140.1194171236907,
    "genre": "イタリアン"
  },
  {
    "rank": 82,
    "id": "5009110",
    "name": "炭火焼肉 久",
    "url": "https://tabelog.com/akita/A0501/A050101/5009110/",
    "image": "https://tblg.k-img.com/restaurant/images/Rvw/175706/640x640_rect_3dab3035421c5bda9b072026a892fc28.jpg",
    "address": "秋田県秋田市中通4-17-15 1Ｆ",
    "rating": 4.21,
    "ratingCount": 604,
    "lat": 39.714484446269616,
    "lng": 140.12817350487043,
    "genre": "焼肉"
  },
  {
    "rank": 97,
    "id": "5006765",
    "name": "ジュエーメ",
    "url": "https://tabelog.com/akita/A0504/A050402/5006765/",
    "image": "https://tblg.k-img.com/restaurant/images/Rvw/107796/640x640_rect_107796161.jpg",
    "address": "秋田県大仙市戸蒔字谷地添100-1",
    "rating": 4.18,
    "ratingCount": 233,
    "lat": 39.45097583575075,
    "lng": 140.50230452078475,
    "genre": "イタリアン"
  },
  {
    "rank": 79,
    "id": "5007142",
    "name": "秋田 てんぷら みかわ",
    "url": "https://tabelog.com/akita/A0501/A050101/5007142/",
    "image": "https://tblg.k-img.com/restaurant/images/Rvw/86666/320x320_rect_86666845.jpg",
    "address": "秋田県秋田市大町4-4-4",
    "rating": 4.17,
    "ratingCount": 247,
    "lat": 39.716657396263756,
    "lng": 140.11409972490225,
    "genre": "天ぷら"
  },
  {
    "rank": 39,
    "id": "5007025",
    "name": "すし匠",
    "url": "https://tabelog.com/akita/A0501/A050101/5007025/",
    "image": "https://tblg.k-img.com/restaurant/images/Rvw/175709/640x640_rect_7fe3686d66fef72dc393badf4e60cabd.jpg",
    "address": "秋田県秋田市大町3-2-36 赤れんが郷土館前",
    "rating": 4.15,
    "ratingCount": 161,
    "lat": 39.716493836264526,
    "lng": 140.11619504489917,
    "genre": "寿司"
  },
  {
    "rank": 11,
    "id": "5000004",
    "name": "酒盃",
    "url": "https://tabelog.com/akita/A0501/A050101/5000004/",
    "image": "https://tblg.k-img.com/restaurant/images/Rvw/80509/320x320_rect_80509527.jpg",
    "address": "秋田県秋田市山王1-6-9",
    "rating": 4.11,
    "ratingCount": 437,
    "lat": 39.72219709625632,
    "lng": 140.10183049496683,
    "genre": "居酒屋"
  },
  {
    "rank": 25,
    "id": "5004621",
    "name": "宝寿司分店",
    "url": "https://tabelog.com/akita/A0501/A050101/5004621/",
    "image": "https://tblg.k-img.com/restaurant/images/Rvw/208482/640x640_rect_c26a23cdcc48725980ff14720825660e.jpg",
    "address": "秋田県秋田市寺内蛭根3丁目5-7",
    "rating": 4.09,
    "ratingCount": 70,
    "lat": 39.731241186244766,
    "lng": 140.08355605507097,
    "genre": "寿司"
  },
  {
    "rank": 49,
    "id": "5008365",
    "name": "affetto akita",
    "url": "https://tabelog.com/akita/A0506/A050601/5008365/",
    "image": "https://tblg.k-img.com/restaurant/images/Rvw/277123/640x640_rect_2d502d3f916700201a6d62745f0b76c6.jpg",
    "address": "秋田県由利本荘市本荘64 AIBAビル 1F",
    "rating": 4.06,
    "ratingCount": 105,
    "lat": 39.391924835643394,
    "lng": 140.04743412050715,
    "genre": "イタリアン"
  },
  {
    "rank": 55,
    "id": "5009178",
    "name": "スシュ",
    "url": "https://tabelog.com/akita/A0501/A050101/5009178/",
    "image": "https://tblg.k-img.com/restaurant/images/Rvw/177757/640x640_rect_6ecb9f1ca77b2cdd92d3a9d71de0018e.jpg",
    "address": "秋田県秋田市大町1-2-40",
    "rating": 4.04,
    "ratingCount": 86,
    "lat": 39.719117346263346,
    "lng": 140.11772489492458,
    "genre": "フレンチ"
  },
  {
    "rank": 10,
    "id": "5003742",
    "name": "BAR ル・ヴェール",
    "url": "https://tabelog.com/akita/A0501/A050101/5003742/",
    "image": "https://tblg.k-img.com/restaurant/images/Rvw/281128/640x640_rect_d5bcd5133218d538e15e3a36052054fe.jpg",
    "address": "秋田県秋田市大町4-1-5",
    "rating": 3.99,
    "ratingCount": 211,
    "lat": 39.715942976265175,
    "lng": 140.11713177489295,
    "genre": "バー"
  },
  {
    "rank": 75,
    "id": "5008507",
    "name": "Remede nikaho",
    "url": "https://tabelog.com/akita/A0506/A050602/5008507/",
    "image": "https://tblg.k-img.com/restaurant/images/Rvw/297280/640x640_rect_ad49920852276dff4ffceda80aecc986.jpg",
    "address": "秋田県にかほ市平沢字家ノ後49-1",
    "rating": 3.97,
    "ratingCount": 72,
    "lat": 39.29238393568094,
    "lng": 139.9668059195582,
    "genre": "フレンチ"
  },
  {
    "rank": 77,
    "id": "5008667",
    "name": "天ぷら 正心庵",
    "url": "https://tabelog.com/akita/A0505/A050502/5008667/",
    "image": "https://tblg.k-img.com/restaurant/images/Rvw/337707/640x640_rect_51dc9d56ca00c4dc94e1f76dfa67069c.jpg",
    "address": "秋田県湯沢市稲庭町字稲庭81",
    "rating": 3.91,
    "ratingCount": 111,
    "lat": 39.10702603680026,
    "lng": 140.58293058841576,
    "genre": "天ぷら"
  },
  {
    "rank": 89,
    "id": "5006735",
    "name": "エッサンス",
    "url": "https://tabelog.com/akita/A0501/A050101/5006735/",
    "image": "https://tblg.k-img.com/restaurant/images/Rvw/355567/640x640_rect_6adffb10561ffd3530b1ffba7604d453.jpg",
    "address": "秋田県秋田市手形西谷地704-1 センティースマンション 105",
    "rating": 3.85,
    "ratingCount": 51,
    "lat": 39.71736987626976,
    "lng": 140.13433795489527,
    "genre": "フレンチ"
  },
  {
    "rank": 32,
    "id": "5008651",
    "name": "FRUTTO",
    "url": "https://tabelog.com/akita/A0501/A050101/5008651/",
    "image": "https://tblg.k-img.com/restaurant/images/Rvw/119107/640x640_rect_119107263.jpg",
    "address": "秋田県秋田市中通4-17-30",
    "rating": 3.85,
    "ratingCount": 76,
    "lat": 39.71472013546395,
    "lng": 140.12771022371138,
    "genre": "イタリアン"
  },
  {
    "rank": 95,
    "id": "5007373",
    "name": "心粋厨房 獬",
    "url": "https://tabelog.com/akita/A0501/A050101/5007373/",
    "image": "https://tblg.k-img.com/restaurant/images/Rvw/280994/640x640_rect_d00ad9788ad71b9f117c1c512c169fd8.jpg",
    "address": "秋田県秋田市南通亀の町11-6",
    "rating": 3.81,
    "ratingCount": 56,
    "lat": 39.71172795626921,
    "lng": 140.12137611484738,
    "genre": "居酒屋"
  },
  {
    "rank": 96,
    "id": "5003686",
    "name": "ん。",
    "url": "https://tabelog.com/akita/A0501/A050101/5003686/",
    "image": "https://tblg.k-img.com/restaurant/images/Rvw/281025/640x640_rect_5d5906a25f331fe9c3f06bbce2cfa606.jpg",
    "address": "秋田県秋田市中通5-5-39",
    "rating": 3.81,
    "ratingCount": 145,
    "lat": 39.71225035626818,
    "lng": 140.1191887048542,
    "genre": "居酒屋"
  },
  {
    "rank": 69,
    "id": "5000689",
    "name": "和食すがわら",
    "url": "https://tabelog.com/akita/A0501/A050101/5000689/",
    "image": "https://tblg.k-img.com/restaurant/images/Rvw/318215/640x640_rect_3df36eec747fc7e99373f80bfb8d17e1.jpg",
    "address": "秋田県秋田市大町1-2-7 サンパティオ大町",
    "rating": 3.8,
    "ratingCount": 123,
    "lat": 39.719551956263054,
    "lng": 140.11766855492903,
    "genre": "日本料理"
  },
  {
    "rank": 73,
    "id": "5000861",
    "name": "鮨　あら田",
    "url": "https://tabelog.com/akita/A0501/A050101/5000861/",
    "image": "https://tblg.k-img.com/restaurant/images/Rvw/274484/640x640_rect_8fd42bf6122a26c3f8b9bc1a833853f7.jpg",
    "address": "秋田県秋田市新屋扇町5-2",
    "rating": 3.79,
    "ratingCount": 130,
    "lat": 39.681883136276944,
    "lng": 140.0861787145706,
    "genre": "寿司"
  },
  {
    "rank": 80,
    "id": "5000620",
    "name": "酒庵 田なか",
    "url": "https://tabelog.com/akita/A0501/A050101/5000620/",
    "image": "https://tblg.k-img.com/restaurant/images/Rvw/280873/640x640_rect_0f00de932ad096ffb2c96b55a1eca7bc.jpg",
    "address": "秋田県秋田市泉中央2-6-14",
    "rating": 3.78,
    "ratingCount": 201,
    "lat": 39.73402159624943,
    "lng": 140.10372379508493,
    "genre": "居酒屋"
  },
  {
    "rank": 5,
    "id": "5010619",
    "name": "鮨 小じま",
    "url": "https://tabelog.com/akita/A0501/A050101/5010619/",
    "image": "https://tblg.k-img.com/restaurant/images/Rvw/222560/640x640_rect_c86cbdaaba9f1262480de0667c95fa06.jpg",
    "address": "秋田県秋田市山王1-8-13",
    "rating": 3.77,
    "ratingCount": 37,
    "lat": 39.72241631625643,
    "lng": 140.1025788749685,
    "genre": "寿司"
  },
  {
    "rank": 96,
    "id": "5010335",
    "name": "比内地鶏串 Sot l'y laisse",
    "url": "https://tabelog.com/akita/A0501/A050101/5010335/",
    "image": "https://tblg.k-img.com/restaurant/images/Rvw/229570/640x640_rect_5421a120f982b1ebdf391ad6be102ecb.jpg",
    "address": "秋田県秋田市南通亀の町3-44 川原田ビル 1F",
    "rating": 3.77,
    "ratingCount": 132,
    "lat": 39.71122233546262,
    "lng": 140.1166032236838,
    "genre": "焼き鳥"
  },
  {
    "rank": 77,
    "id": "5006548",
    "name": "すし兆",
    "url": "https://tabelog.com/akita/A0501/A050101/5006548/",
    "image": "https://tblg.k-img.com/restaurant/images/Rvw/314560/640x640_rect_352555245ec3e92c6dd18d1db0b27cd1.jpg",
    "address": "秋田県秋田市中通4-14-6",
    "rating": 3.76,
    "ratingCount": 87,
    "lat": 39.71515477626898,
    "lng": 140.1274870848777,
    "genre": "寿司"
  },
  {
    "rank": 8,
    "id": "5008588",
    "name": "さけ富",
    "url": "https://tabelog.com/akita/A0501/A050101/5008588/",
    "image": "https://tblg.k-img.com/restaurant/images/Rvw/89470/640x640_rect_89470826.jpg",
    "address": "秋田県秋田市大町5-1-27 なかや大町ビル 1F",
    "rating": 3.74,
    "ratingCount": 563,
    "lat": 39.712850735461465,
    "lng": 140.1161959237006,
    "genre": "居酒屋"
  },
  {
    "rank": 3,
    "id": "5000051",
    "name": "Lady",
    "url": "https://tabelog.com/akita/A0501/A050101/5000051/",
    "image": "https://tblg.k-img.com/restaurant/images/Rvw/302805/640x640_rect_b66cbc50c50d02dd863e4cd8d26d27a3.jpg",
    "address": "秋田県秋田市大町3-1-11",
    "rating": 3.73,
    "ratingCount": 161,
    "lat": 39.71672468626476,
    "lng": 140.11738489490065,
    "genre": "バー"
  },
  {
    "rank": 49,
    "id": "5007367",
    "name": "いな穂",
    "url": "https://tabelog.com/akita/A0502/A050202/5007367/",
    "image": "https://tblg.k-img.com/restaurant/images/Rvw/146021/640x640_rect_146021891.jpg",
    "address": "秋田県北秋田市材木町6-41",
    "rating": 3.73,
    "ratingCount": 193,
    "lat": 40.23111318601892,
    "lng": 140.37130508991848,
    "genre": "そば"
  },
  {
    "rank": 70,
    "id": "5007255",
    "name": "手打蕎麦かとう",
    "url": "https://tabelog.com/akita/A0501/A050101/5007255/",
    "image": "https://tblg.k-img.com/restaurant/images/Rvw/274484/640x640_rect_e6b8a06c056359fd57acc0ac817e905c.jpg",
    "address": "秋田県秋田市中通3-4-60",
    "rating": 3.73,
    "ratingCount": 213,
    "lat": 39.7161545762662,
    "lng": 140.1207678648925,
    "genre": "そば"
  },
  {
    "rank": 83,
    "id": "5007853",
    "name": "鳥好",
    "url": "https://tabelog.com/akita/A0501/A050101/5007853/",
    "image": "https://tblg.k-img.com/restaurant/images/Rvw/321656/640x640_rect_4d1e895319548622d1ae63ce4385af02.jpg",
    "address": "秋田県秋田市中通4-11-5 栄ビル 1F",
    "rating": 3.72,
    "ratingCount": 100,
    "lat": 39.71549273546305,
    "lng": 140.1264237237201,
    "genre": "焼き鳥"
  },
  {
    "rank": 21,
    "id": "5010673",
    "name": "永楽食堂",
    "url": "https://tabelog.com/akita/A0501/A050101/5010673/",
    "image": "https://tblg.k-img.com/restaurant/images/Rvw/298875/640x640_rect_badae4d642acecc105372529a7776fdd.jpg",
    "address": "秋田県秋田市中通4-14-33",
    "rating": 3.71,
    "ratingCount": 472,
    "lat": 39.71491683626894,
    "lng": 140.1269004548757,
    "genre": "居酒屋"
  },
  {
    "rank": 45,
    "id": "5010358",
    "name": "とんかつ いし川",
    "url": "https://tabelog.com/akita/A0501/A050101/5010358/",
    "image": "https://tblg.k-img.com/restaurant/images/Rvw/236091/640x640_rect_35c7278762c8181d89b399cf1d760d4c.jpg",
    "address": "秋田県秋田市中通3-4-6 2F",
    "rating": 3.69,
    "ratingCount": 144,
    "lat": 39.71606074626646,
    "lng": 140.12137198489114,
    "genre": "とんかつ"
  },
  {
    "rank": 71,
    "id": "5002632",
    "name": "ザ・バー１９８０",
    "url": "https://tabelog.com/akita/A0501/A050101/5002632/",
    "image": "https://tblg.k-img.com/restaurant/images/Rvw/302805/640x640_rect_2660c696bafa75e91c76a2a2f961dbeb.jpg",
    "address": "秋田県秋田市大町4-2-5",
    "rating": 3.68,
    "ratingCount": 96,
    "lat": 39.716173536264805,
    "lng": 140.11643549489574,
    "genre": "バー"
  },
  {
    "rank": 72,
    "id": "5003692",
    "name": "ムーンシャイン",
    "url": "https://tabelog.com/akita/A0501/A050101/5003692/",
    "image": "https://tblg.k-img.com/restaurant/images/Rvw/302805/640x640_rect_6c5e66742697c5b6832e217d027f9774.jpg",
    "address": "秋田県秋田市大町4丁目2-2-1F",
    "rating": 3.68,
    "ratingCount": 101,
    "lat": 39.716295926264635,
    "lng": 140.11614983489716,
    "genre": "バー"
  },
  {
    "rank": 57,
    "id": "5004381",
    "name": "ほるもん猿",
    "url": "https://tabelog.com/akita/A0501/A050101/5004381/",
    "image": "https://tblg.k-img.com/restaurant/images/Rvw/281266/640x640_rect_cfe18664fd620132dcbb2c87cf0c2d50.jpg",
    "address": "秋田県秋田市中通り6-12-13",
    "rating": 3.68,
    "ratingCount": 248,
    "lat": 39.71344065626979,
    "lng": 140.12664130486098,
    "genre": "焼肉"
  },
  {
    "rank": 89,
    "id": "5000442",
    "name": "塩ホルモン 炭楽",
    "url": "https://tabelog.com/akita/A0504/A050402/5000442/",
    "image": "https://tblg.k-img.com/restaurant/images/Rvw/69293/640x640_rect_69293934.jpg",
    "address": "秋田県大仙市大曲通町3-17",
    "rating": 3.68,
    "ratingCount": 189,
    "lat": 39.46474244654009,
    "lng": 140.4794094921016,
    "genre": "焼肉"
  },
  {
    "rank": 19,
    "id": "5004372",
    "name": "秋田牛玄亭 駅前本店",
    "url": "https://tabelog.com/akita/A0501/A050101/5004372/",
    "image": "https://tblg.k-img.com/restaurant/images/Rvw/4906/640x640_rect_4906075.jpg",
    "address": "秋田県秋田市中通2-6-44 2F",
    "rating": 3.66,
    "ratingCount": 532,
    "lat": 39.71669073626756,
    "lng": 140.1261232648942,
    "genre": "焼肉"
  },
  {
    "rank": 71,
    "id": "5006901",
    "name": "スープホリック",
    "url": "https://tabelog.com/akita/A0501/A050101/5006901/",
    "image": "https://tblg.k-img.com/restaurant/images/Rvw/292161/640x640_rect_ee87ffb174a20cdbdb512c9100597ee5.jpg",
    "address": "秋田県秋田市中通6-9-10",
    "rating": 3.66,
    "ratingCount": 300,
    "lat": 39.71406531626911,
    "lng": 140.12573625486792,
    "genre": "洋食"
  },
  {
    "rank": 83,
    "id": "5003703",
    "name": "ポケット",
    "url": "https://tabelog.com/akita/A0505/A050502/5003703/",
    "image": "https://tblg.k-img.com/restaurant/images/Rvw/205480/640x640_rect_948147d09cb597ab8370e73592b7fc7e.jpg",
    "address": "秋田県湯沢市表町2-1-23",
    "rating": 3.65,
    "ratingCount": 39,
    "lat": 39.16343314300742,
    "lng": 140.4886934398003,
    "genre": "バー"
  },
  {
    "rank": 40,
    "id": "5006730",
    "name": "とぶ",
    "url": "https://tabelog.com/akita/A0505/A050501/5006730/",
    "image": "https://tblg.k-img.com/restaurant/images/Rvw/167970/640x640_rect_f164462bc179be74650f25e9c8d10ea1.jpg",
    "address": "秋田県横手市大町5-33 桧山ビル 1F",
    "rating": 3.64,
    "ratingCount": 33,
    "lat": 39.31461863585829,
    "lng": 140.56803251936134,
    "genre": "鳥料理"
  },
  {
    "rank": 94,
    "id": "5006266",
    "name": "秋田牛玄亭 山王別館",
    "url": "https://tabelog.com/akita/A0501/A050101/5006266/",
    "image": "https://tblg.k-img.com/restaurant/images/Rvw/206853/640x640_rect_9c08fe1acd2fc2d36263dfc892b694a3.jpg",
    "address": "秋田県秋田市山王3-1-33",
    "rating": 3.64,
    "ratingCount": 99,
    "lat": 39.7171114862613,
    "lng": 140.1073056449116,
    "genre": "焼肉"
  },
  {
    "rank": 43,
    "id": "5000952",
    "name": "一元",
    "url": "https://tabelog.com/akita/A0501/A050101/5000952/",
    "image": "https://tblg.k-img.com/restaurant/images/Rvw/269594/640x640_rect_0bd309cb1f27bc48c7d46a1b3b3192a4.jpg",
    "address": "秋田県秋田市大町4-2-6",
    "rating": 3.63,
    "ratingCount": 57,
    "lat": 39.71620092626483,
    "lng": 140.11658804489593,
    "genre": "中国料理"
  },
  {
    "rank": 63,
    "id": "5007785",
    "name": "とっぴんぱらりのぷ",
    "url": "https://tabelog.com/akita/A0501/A050101/5007785/",
    "image": "https://tblg.k-img.com/restaurant/images/Rvw/65934/320x320_rect_65934722.jpg",
    "address": "秋田県秋田市千秋久保田町4-5 秋田駅前ビル 5F",
    "rating": 3.62,
    "ratingCount": 594,
    "lat": 39.717700935462176,
    "lng": 140.12805942374126,
    "genre": "居酒屋"
  },
  {
    "rank": 61,
    "id": "5001305",
    "name": "タカラヤ",
    "url": "https://tabelog.com/akita/A0501/A050101/5001305/",
    "image": "https://tblg.k-img.com/restaurant/images/Rvw/23274/320x320_rect_23274856.jpg",
    "address": "秋田県秋田市山王1-6-7",
    "rating": 3.62,
    "ratingCount": 66,
    "lat": 39.72222963545087,
    "lng": 140.1016289238055,
    "genre": "焼肉"
  },
  {
    "rank": 42,
    "id": "5000274",
    "name": "ドン・キホーテ",
    "url": "https://tabelog.com/akita/A0506/A050601/5000274/",
    "image": "https://tblg.k-img.com/restaurant/images/Rvw/166530/640x640_rect_87a27a60f17e2974d4b6bcf2fc93d155.jpg",
    "address": "秋田県由利本荘市東町3-7",
    "rating": 3.59,
    "ratingCount": 81,
    "lat": 39.38929535645222,
    "lng": 140.05302474163844,
    "genre": "スペイン料理"
  },
  {
    "rank": 14,
    "id": "5000030",
    "name": "秋田比内や 大館本店",
    "url": "https://tabelog.com/akita/A0502/A050201/5000030/",
    "image": "https://tblg.k-img.com/restaurant/images/Rvw/357426/640x640_rect_593bf4de1f6241cd8215df772568c1d6.jpg",
    "address": "秋田県大館市字大町21",
    "rating": 3.58,
    "ratingCount": 530,
    "lat": 40.27072179605365,
    "lng": 140.55934242018674,
    "genre": "鳥料理"
  },
  {
    "rank": 59,
    "id": "5009470",
    "name": "炭火焼肉生ホルモン処 しょうちゃん",
    "url": "https://tabelog.com/akita/A0501/A050101/5009470/",
    "image": "https://tblg.k-img.com/restaurant/images/Rvw/134450/640x640_rect_134450034.jpg",
    "address": "秋田県秋田市大町5-2-7 1F",
    "rating": 3.57,
    "ratingCount": 53,
    "lat": 39.71481675626559,
    "lng": 140.11618908488222,
    "genre": "焼肉"
  },
  {
    "rank": 19,
    "id": "5008033",
    "name": "あきたくらす",
    "url": "https://tabelog.com/akita/A0501/A050101/5008033/",
    "image": "https://tblg.k-img.com/restaurant/images/Rvw/362189/640x640_rect_a304cd8535fef4c3430eccb4164a7ff3.jpg",
    "address": "秋田県秋田市中通7-1-2 秋田駅ビル トピコ 2F",
    "rating": 3.49,
    "ratingCount": 348,
    "lat": 39.7168252262685,
    "lng": 140.1293270648933,
    "genre": "立ち飲み"
  }
]