[
  {
    "rank": 82,
    "id": "12038574",
    "name": "プレゼンテ スギ",
    "url": "https://tabelog.com/chiba/A1204/A120402/12038574/",
    "image": "https://tblg.k-img.com/restaurant/images/Rvw/164334/640x640_rect_92a0030fac7d8bc87f7dd514c9727306.jpg",
    "address": "千葉県佐倉市白銀2-3-6",
    "rating": 4.47,
    "ratingCount": 570,
    "lat": 35.71271233804218,
    "lng": 140.24221408320713,
    "genre": "イタリアン"
  },
  {
    "rank": 12,
    "id": "12000598",
    "name": "ウシマル",
    "url": "https://tabelog.com/chiba/A1205/A120502/12000598/",
    "image": "https://tblg.k-img.com/restaurant/images/Rvw/84374/320x320_rect_84374115.jpg",
    "address": "千葉県山武市松尾町木刀1307-2",
    "rating": 4.37,
    "ratingCount": 642,
    "lat": 35.61876294898138,
    "lng": 140.4751113932567,
    "genre": "イタリアン"
  },
  {
    "rank": 41,
    "id": "12052833",
    "name": "寿司栄",
    "url": "https://tabelog.com/chiba/A1201/A120101/12052833/",
    "image": "https://tblg.k-img.com/restaurant/images/Rvw/208378/640x640_rect_778d7db5bd15740c8c2ffb57314fd443.jpg",
    "address": "千葉県千葉市中央区春日2-9-15 クレールマロニエ 101",
    "rating": 4.31,
    "ratingCount": 255,
    "lat": 35.62133026886077,
    "lng": 140.1014843735445,
    "genre": "寿司"
  },
  {
    "rank": 18,
    "id": "12037698",
    "name": "天白",
    "url": "https://tabelog.com/chiba/A1201/A120101/12037698/",
    "image": "https://tblg.k-img.com/restaurant/images/Rvw/194094/640x640_rect_c40614f5ee619981345b1d91c88b4c4a.jpg",
    "address": "千葉県千葉市中央区本町2-1-21 石井ビル 1F",
    "rating": 4.27,
    "ratingCount": 220,
    "lat": 35.60925603807062,
    "lng": 140.12526018224412,
    "genre": "天ぷら"
  },
  {
    "rank": 4,
    "id": "12000422",
    "name": "中華蕎麦 とみ田",
    "url": "https://tabelog.com/chiba/A1203/A120302/12000422/",
    "image": "https://tblg.k-img.com/restaurant/images/Rvw/122388/640x640_rect_122388455.jpg",
    "address": "千葉県松戸市松戸1339 高橋ビル 1F",
    "rating": 4.06,
    "ratingCount": 2858,
    "lat": 35.78180863788961,
    "lng": 139.90097208414429,
    "genre": "ラーメン"
  },
  {
    "rank": 74,
    "id": "12020350",
    "name": "中国四川酒家 蔓山",
    "url": "https://tabelog.com/chiba/A1201/A120102/12020350/",
    "image": "https://tblg.k-img.com/restaurant/images/Rvw/175699/640x640_rect_c748d1c98babb3e2ecc83662294033f2.jpg",
    "address": "千葉県千葉市花見川区幕張本郷6-25-4 マリオット本郷 1F",
    "rating": 3.98,
    "ratingCount": 436,
    "lat": 35.67404973800361,
    "lng": 140.04402168295553,
    "genre": "中国料理"
  },
  {
    "rank": 75,
    "id": "12050758",
    "name": "とんかつ ばんぶー",
    "url": "https://tabelog.com/chiba/A1202/A120202/12050758/",
    "image": "https://tblg.k-img.com/restaurant/images/Rvw/281025/640x640_rect_5f2678ab390f6f0da090f898e0bc5b90.jpg",
    "address": "千葉県市川市南八幡4-14-13",
    "rating": 3.96,
    "ratingCount": 1012,
    "lat": 35.71882524874268,
    "lng": 139.9251262046529,
    "genre": "とんかつ"
  },
  {
    "rank": 22,
    "id": "12037867",
    "name": "青 AO",
    "url": "https://tabelog.com/chiba/A1205/A120504/12037867/",
    "image": "https://tblg.k-img.com/restaurant/images/Rvw/327320/640x640_rect_91b72c7d9802796a8c7987273ac7ae1a.jpg",
    "address": "千葉県長生郡一宮町東浪見2606-1",
    "rating": 3.87,
    "ratingCount": 87,
    "lat": 35.351876909119106,
    "lng": 140.37531375063085,
    "genre": "イタリアン"
  },
  {
    "rank": 20,
    "id": "12035648",
    "name": "支那ソバ 小むろ",
    "url": "https://tabelog.com/chiba/A1202/A120202/12035648/",
    "image": "https://tblg.k-img.com/restaurant/images/Rvw/366316/640x640_rect_5232c59b7e0ffd424e022447ca4b2167.jpg",
    "address": "千葉県市川市末広1-18-13 SATOMI-4番館",
    "rating": 3.85,
    "ratingCount": 1475,
    "lat": 35.68381798876267,
    "lng": 139.9180783043043,
    "genre": "ラーメン"
  },
  {
    "rank": 31,
    "id": "12050938",
    "name": "ラーメン濱野家",
    "url": "https://tabelog.com/chiba/A1206/A120601/12050938/",
    "image": "https://tblg.k-img.com/restaurant/images/Rvw/367204/640x640_rect_7921e44a317a3607c079fe8c6eb89c10.jpg",
    "address": "千葉県市原市五井2442-1",
    "rating": 3.85,
    "ratingCount": 786,
    "lat": 35.5174184381162,
    "lng": 140.08518978134455,
    "genre": "ラーメン"
  },
  {
    "rank": 37,
    "id": "12059148",
    "name": "古民家ヌードゥル 黒揚羽森住",
    "url": "https://tabelog.com/chiba/A1205/A120503/12059148/",
    "image": "https://tblg.k-img.com/restaurant/images/Rvw/364932/640x640_rect_9c70467880cb16666e80eaf5f6fd095a.jpg",
    "address": "千葉県大網白里市北横川175-1",
    "rating": 3.84,
    "ratingCount": 582,
    "lat": 35.51439603900473,
    "lng": 140.340260882297,
    "genre": "ラーメン"
  },
  {
    "rank": 77,
    "id": "12000514",
    "name": "バックシュトゥーベ ツオップ",
    "url": "https://tabelog.com/chiba/A1203/A120302/12000514/",
    "image": "https://tblg.k-img.com/restaurant/images/Rvw/130232/640x640_rect_130232371.jpg",
    "address": "千葉県松戸市小金原2-14-3 1Ｆ",
    "rating": 3.83,
    "ratingCount": 1676,
    "lat": 35.824430318682865,
    "lng": 139.94789686570365,
    "genre": "パン"
  },
  {
    "rank": 72,
    "id": "12056433",
    "name": "中華蕎麦 柳",
    "url": "https://tabelog.com/chiba/A1203/A120302/12056433/",
    "image": "https://tblg.k-img.com/restaurant/images/Rvw/251950/640x640_rect_6717dde9d68b1da18d952529f6375db3.jpg",
    "address": "千葉県松戸市殿平賀82",
    "rating": 3.81,
    "ratingCount": 689,
    "lat": 35.83550967867019,
    "lng": 139.930198605828,
    "genre": "ラーメン"
  },
  {
    "rank": 28,
    "id": "12025333",
    "name": "ラーメン 杉田家 千葉祐光店",
    "url": "https://tabelog.com/chiba/A1201/A120101/12025333/",
    "image": "https://tblg.k-img.com/restaurant/images/Rvw/39236/640x640_rect_39236011.jpg",
    "address": "千葉県千葉市中央区祐光4-17-7",
    "rating": 3.8,
    "ratingCount": 2319,
    "lat": 35.61896906887182,
    "lng": 140.13148715349965,
    "genre": "ラーメン"
  },
  {
    "rank": 38,
    "id": "12054858",
    "name": "麺処 にし尾",
    "url": "https://tabelog.com/chiba/A1203/A120301/12054858/",
    "image": "https://tblg.k-img.com/restaurant/images/Rvw/365017/640x640_rect_5efac7a7107b759deff4c9e2c0e1337a.jpg",
    "address": "千葉県柏市東1-2-45 石戸第3ビル 1F",
    "rating": 3.8,
    "ratingCount": 1008,
    "lat": 35.857896838670776,
    "lng": 139.97669158602153,
    "genre": "ラーメン"
  },
  {
    "rank": 93,
    "id": "12000292",
    "name": "小暮や",
    "url": "https://tabelog.com/chiba/A1203/A120304/12000292/",
    "image": "https://tblg.k-img.com/restaurant/images/Rvw/294223/640x640_rect_cb207875d0b4c3e863b65925d4c98980.jpg",
    "address": "千葉県我孫子市天王台4-2-22 マンション　１Ｆ",
    "rating": 3.8,
    "ratingCount": 652,
    "lat": 35.87243030868095,
    "lng": 140.03761836612566,
    "genre": "うなぎ"
  },
  {
    "rank": 100,
    "id": "12030737",
    "name": "フランス料理 ル・クール",
    "url": "https://tabelog.com/chiba/A1201/A120101/12030737/",
    "image": "https://tblg.k-img.com/restaurant/images/Rvw/356636/640x640_rect_d390b35ba1f2026f43b8ac86a2f3b105.jpg",
    "address": "千葉県千葉市中央区新田町23-17",
    "rating": 3.79,
    "ratingCount": 213,
    "lat": 35.608894348871424,
    "lng": 140.11014097341283,
    "genre": "フレンチ"
  },
  {
    "rank": 36,
    "id": "12001198",
    "name": "兎に角 松戸本店",
    "url": "https://tabelog.com/chiba/A1203/A120302/12001198/",
    "image": "https://tblg.k-img.com/restaurant/images/Rvw/2579/320x320_rect_04dc9767a1a04391be3deb166c1bab20.jpg",
    "address": "千葉県松戸市根本462 比嘉ビル　1F",
    "rating": 3.77,
    "ratingCount": 2668,
    "lat": 35.785846848692685,
    "lng": 139.90177409534627,
    "genre": "ラーメン"
  },
  {
    "rank": 43,
    "id": "12026940",
    "name": "とら食堂 松戸分店",
    "url": "https://tabelog.com/chiba/A1203/A120302/12026940/",
    "image": "https://tblg.k-img.com/restaurant/images/Rvw/84280/640x640_rect_84280964.jpg",
    "address": "千葉県松戸市紙敷1-8-6",
    "rating": 3.77,
    "ratingCount": 1306,
    "lat": 35.77598835871679,
    "lng": 139.95783538520737,
    "genre": "ラーメン"
  },
  {
    "rank": 99,
    "id": "12055768",
    "name": "つけソバ いしい",
    "url": "https://tabelog.com/chiba/A1202/A120202/12055768/",
    "image": "https://tblg.k-img.com/restaurant/images/Rvw/360467/640x640_rect_882796535d4de2249c1c79b1a0cc7cd0.jpg",
    "address": "千葉県市川市市川3‐27‐20 ライオンズステーションプラザ市川・国府台 1F",
    "rating": 3.77,
    "ratingCount": 575,
    "lat": 35.737464437918405,
    "lng": 139.902933783695,
    "genre": "ラーメン"
  },
  {
    "rank": 1,
    "id": "12040080",
    "name": "中華ソバ 篤々",
    "url": "https://tabelog.com/chiba/A1202/A120204/12040080/",
    "image": "https://tblg.k-img.com/restaurant/images/Rvw/363934/640x640_rect_8e3898898fa16f80864885134ddef598.jpg",
    "address": "千葉県八千代市勝田台1-5-27",
    "rating": 3.76,
    "ratingCount": 809,
    "lat": 35.71471593209416,
    "lng": 140.12425999118955,
    "genre": "ラーメン"
  },
  {
    "rank": 11,
    "id": "12049054",
    "name": "とものもと",
    "url": "https://tabelog.com/chiba/A1202/A120201/12049054/",
    "image": "https://tblg.k-img.com/restaurant/images/Rvw/364131/640x640_rect_8d33d0ddba5fec7465c81a980c851903.jpg",
    "address": "千葉県船橋市本町7-23-14 文平ビル 1F",
    "rating": 3.76,
    "ratingCount": 1130,
    "lat": 35.70670176876843,
    "lng": 139.98182133449072,
    "genre": "ラーメン"
  },
  {
    "rank": 63,
    "id": "12047768",
    "name": "豚骨醤油ラーメン 王道家 柏店",
    "url": "https://tabelog.com/chiba/A1203/A120301/12047768/",
    "image": "https://tblg.k-img.com/restaurant/images/Rvw/150205/640x640_rect_150205426.jpg",
    "address": "千葉県柏市明原1-7-26",
    "rating": 3.76,
    "ratingCount": 1947,
    "lat": 35.86299910866458,
    "lng": 139.96741438607958,
    "genre": "ラーメン"
  },
  {
    "rank": 31,
    "id": "12000067",
    "name": "竹やぶ 柏本店",
    "url": "https://tabelog.com/chiba/A1203/A120301/12000067/",
    "image": "https://tblg.k-img.com/restaurant/images/Rvw/79609/640x640_rect_79609984.jpg",
    "address": "千葉県柏市柏1144-2",
    "rating": 3.76,
    "ratingCount": 670,
    "lat": 35.86585067866929,
    "lng": 139.98786089609405,
    "genre": "そば"
  },
  {
    "rank": 65,
    "id": "12000228",
    "name": "中華そば まるき",
    "url": "https://tabelog.com/chiba/A1203/A120302/12000228/",
    "image": "https://tblg.k-img.com/restaurant/images/Rvw/366583/640x640_rect_99fc8839de9bf9130544f45cb0a66ce4.jpg",
    "address": "千葉県松戸市小根本51-2 １Ｆ",
    "rating": 3.75,
    "ratingCount": 883,
    "lat": 35.78752443869253,
    "lng": 139.9046490453612,
    "genre": "ラーメン"
  },
  {
    "rank": 76,
    "id": "12000080",
    "name": "味処 むさし野",
    "url": "https://tabelog.com/chiba/A1203/A120302/12000080/",
    "image": "https://tblg.k-img.com/restaurant/images/Rvw/9421/640x640_rect_9421347.jpg",
    "address": "千葉県松戸市松戸新田133-4",
    "rating": 3.75,
    "ratingCount": 656,
    "lat": 35.782670037894505,
    "lng": 139.918084484141,
    "genre": "ラーメン"
  },
  {
    "rank": 86,
    "id": "12042171",
    "name": "松戸中華そば 富田食堂",
    "url": "https://tabelog.com/chiba/A1203/A120302/12042171/",
    "image": "https://tblg.k-img.com/restaurant/images/Rvw/367091/640x640_rect_72af54a8985844d98c49f6efd98afcfb.jpg",
    "address": "千葉県松戸市松戸1239-1 関根ビル 1F",
    "rating": 3.75,
    "ratingCount": 1971,
    "lat": 35.78322906869425,
    "lng": 139.90147420532003,
    "genre": "ラーメン"
  },
  {
    "rank": 46,
    "id": "12059567",
    "name": "食堂オーツカ",
    "url": "https://tabelog.com/chiba/A1202/A120202/12059567/",
    "image": "https://tblg.k-img.com/restaurant/images/Rvw/367047/640x640_rect_47e4460e0e42cc16123fc77c3961cc8b.jpg",
    "address": "千葉県市川市福栄1-3-21",
    "rating": 3.75,
    "ratingCount": 152,
    "lat": 35.67836189876334,
    "lng": 139.9093215842553,
    "genre": "食堂"
  },
  {
    "rank": 56,
    "id": "12003116",
    "name": "流山 すず季",
    "url": "https://tabelog.com/chiba/A1203/A120305/12003116/",
    "image": "https://tblg.k-img.com/restaurant/images/Rvw/108238/640x640_rect_108238610.jpg",
    "address": "千葉県流山市西初石3-1-17",
    "rating": 3.75,
    "ratingCount": 523,
    "lat": 35.88412483782809,
    "lng": 139.91180358517016,
    "genre": "そば"
  },
  {
    "rank": 11,
    "id": "12000226",
    "name": "サンク・オ・ピエ",
    "url": "https://tabelog.com/chiba/A1201/A120102/12000226/",
    "image": "https://tblg.k-img.com/restaurant/images/Rvw/346560/640x640_rect_f9018ecd620977f59113bf255c2f3a27.jpg",
    "address": "千葉県千葉市花見川区幕張本郷7-5-14 ファーストビル　２Ｆ",
    "rating": 3.74,
    "ratingCount": 112,
    "lat": 35.675167408809045,
    "lng": 140.0464405141269,
    "genre": "フレンチ"
  },
  {
    "rank": 44,
    "id": "12004272",
    "name": "麺や 福一",
    "url": "https://tabelog.com/chiba/A1204/A120401/12004272/",
    "image": "https://tblg.k-img.com/restaurant/images/Rvw/83120/640x640_rect_83120489.jpg",
    "address": "千葉県成田市花崎町846-15",
    "rating": 3.74,
    "ratingCount": 808,
    "lat": 35.779254638023026,
    "lng": 140.3148008838284,
    "genre": "ラーメン"
  },
  {
    "rank": 62,
    "id": "12040892",
    "name": "The Noodles & Saloon Kiriya",
    "url": "https://tabelog.com/chiba/A1203/A120305/12040892/",
    "image": "https://tblg.k-img.com/restaurant/images/Rvw/366818/640x640_rect_b2d76a7eb5e72bc2bb921fe94d451cfc.jpg",
    "address": "千葉県流山市西初石4-475-1",
    "rating": 3.74,
    "ratingCount": 714,
    "lat": 35.88185913783102,
    "lng": 139.91646768514397,
    "genre": "ラーメン"
  },
  {
    "rank": 93,
    "id": "12045569",
    "name": "長男、もんたいちお",
    "url": "https://tabelog.com/chiba/A1202/A120202/12045569/",
    "image": "https://tblg.k-img.com/restaurant/images/Rvw/97961/640x640_rect_97961374.jpg",
    "address": "千葉県市川市八幡4-4-9 山ビル 1F",
    "rating": 3.74,
    "ratingCount": 966,
    "lat": 35.724062058740614,
    "lng": 139.92908149470304,
    "genre": "ラーメン"
  },
  {
    "rank": 38,
    "id": "12020932",
    "name": "手造りそば 打墨庵 加瀬",
    "url": "https://tabelog.com/chiba/A1207/A120703/12020932/",
    "image": "https://tblg.k-img.com/restaurant/images/Rvw/343136/640x640_rect_a91d326defb9fbc85a7f3f081049ee4a.jpg",
    "address": "千葉県鴨川市打墨2329-1",
    "rating": 3.74,
    "ratingCount": 444,
    "lat": 35.14803943834628,
    "lng": 140.0709959776234,
    "genre": "そば"
  },
  {
    "rank": 47,
    "id": "12052353",
    "name": "花見川 大富",
    "url": "https://tabelog.com/chiba/A1201/A120102/12052353/",
    "image": "https://tblg.k-img.com/restaurant/images/Rvw/153146/640x640_rect_153146738.jpg",
    "address": "千葉県千葉市花見川区幕張本郷1-10-8 サントルビレッジ 1A",
    "rating": 3.74,
    "ratingCount": 270,
    "lat": 35.672390738002996,
    "lng": 140.03876648294246,
    "genre": "焼き鳥"
  },
  {
    "rank": 96,
    "id": "12001097",
    "name": "エピセ",
    "url": "https://tabelog.com/chiba/A1201/A120101/12001097/",
    "image": "https://tblg.k-img.com/restaurant/images/Rvw/85913/640x640_rect_85913212.jpg",
    "address": "千葉県千葉市中央区新田町3-13 久和ビル 1F",
    "rating": 3.73,
    "ratingCount": 255,
    "lat": 35.60914633806722,
    "lng": 140.1142976822507,
    "genre": "フレンチ"
  },
  {
    "rank": 60,
    "id": "12006175",
    "name": "R-S",
    "url": "https://tabelog.com/chiba/A1203/A120302/12006175/",
    "image": "https://tblg.k-img.com/restaurant/images/Rvw/295182/640x640_rect_104e6b42cc9558e588f871c2ee05b1be.jpg",
    "address": "千葉県松戸市小金原6-2-6",
    "rating": 3.73,
    "ratingCount": 1107,
    "lat": 35.81964709868518,
    "lng": 139.94562141565694,
    "genre": "ハンバーガー"
  },
  {
    "rank": 97,
    "id": "12042493",
    "name": "ピッツェリア カント デッラ テッラ",
    "url": "https://tabelog.com/chiba/A1202/A120202/12042493/",
    "image": "https://tblg.k-img.com/restaurant/images/Rvw/361882/640x640_rect_236946501d51babf120852171732787b.jpg",
    "address": "千葉県市川市南八幡3-7-10",
    "rating": 3.73,
    "ratingCount": 265,
    "lat": 35.71904135874342,
    "lng": 139.9278647246532,
    "genre": "ピザ"
  },
  {
    "rank": 7,
    "id": "12056827",
    "name": "中華そば榮田",
    "url": "https://tabelog.com/chiba/A1203/A120301/12056827/",
    "image": "https://tblg.k-img.com/restaurant/images/Rvw/362204/640x640_rect_e5a28e447c2355ebc4bf16fddfb0c6c7.jpg",
    "address": "千葉県柏市千代田2-2-6",
    "rating": 3.73,
    "ratingCount": 377,
    "lat": 35.8550551186717,
    "lng": 139.97393177599474,
    "genre": "ラーメン"
  },
  {
    "rank": 19,
    "id": "12033982",
    "name": "濃麺 海月",
    "url": "https://tabelog.com/chiba/A1201/A120101/12033982/",
    "image": "https://tblg.k-img.com/restaurant/images/Rvw/366271/640x640_rect_0db76c0d2b55d3c5bb171cb8ba9735fe.jpg",
    "address": "千葉県千葉市中央区要町1-4",
    "rating": 3.73,
    "ratingCount": 690,
    "lat": 35.61575473806523,
    "lng": 140.12121488231261,
    "genre": "ラーメン"
  },
  {
    "rank": 49,
    "id": "12000911",
    "name": "ラーメン二郎 京成大久保店",
    "url": "https://tabelog.com/chiba/A1202/A120204/12000911/",
    "image": "https://tblg.k-img.com/restaurant/images/Rvw/366135/640x640_rect_e51a1c3019d2ec35bc16ebc1cc3d1ddf.jpg",
    "address": "千葉県船橋市三山2-1-11",
    "rating": 3.73,
    "ratingCount": 699,
    "lat": 35.69155593799428,
    "lng": 140.04962358312844,
    "genre": "ラーメン"
  },
  {
    "rank": 44,
    "id": "12029065",
    "name": "うなぎ お㚙川 我孫子店",
    "url": "https://tabelog.com/chiba/A1203/A120304/12029065/",
    "image": "https://tblg.k-img.com/restaurant/images/Rvw/44939/640x640_rect_44939650.jpg",
    "address": "千葉県我孫子市本町1-1-11 青木ビル 1F",
    "rating": 3.73,
    "ratingCount": 392,
    "lat": 35.87195483786707,
    "lng": 140.00996058497844,
    "genre": "うなぎ"
  },
  {
    "rank": 86,
    "id": "12000128",
    "name": "サールナート",
    "url": "https://tabelog.com/chiba/A1202/A120201/12000128/",
    "image": "https://tblg.k-img.com/restaurant/images/Rvw/145357/640x640_rect_145357948.jpg",
    "address": "千葉県船橋市宮本5-1-8",
    "rating": 3.72,
    "ratingCount": 516,
    "lat": 35.69582057877869,
    "lng": 139.99230799437348,
    "genre": "アジア・エスニック"
  },
  {
    "rank": 26,
    "id": "12000108",
    "name": "赤坂味一",
    "url": "https://tabelog.com/chiba/A1202/A120201/12000108/",
    "image": "https://tblg.k-img.com/restaurant/images/Rvw/45510/640x640_rect_45510730.jpg",
    "address": "千葉県船橋市湊町2-2-19",
    "rating": 3.72,
    "ratingCount": 1328,
    "lat": 35.69584254877599,
    "lng": 139.98389850437957,
    "genre": "ラーメン"
  },
  {
    "rank": 94,
    "id": "12004444",
    "name": "裏武蔵家 西千葉本店",
    "url": "https://tabelog.com/chiba/A1201/A120101/12004444/",
    "image": "https://tblg.k-img.com/restaurant/images/Rvw/363838/640x640_rect_3ed5002d72363d0a01018e76b3eb95e7.jpg",
    "address": "千葉県千葉市中央区春日2-19-9",
    "rating": 3.72,
    "ratingCount": 1019,
    "lat": 35.62238153805502,
    "lng": 140.1024448823927,
    "genre": "ラーメン"
  },
  {
    "rank": 65,
    "id": "12001718",
    "name": "もつ煮 太郎",
    "url": "https://tabelog.com/chiba/A1203/A120301/12001718/",
    "image": "https://tblg.k-img.com/restaurant/images/Rvw/216105/640x640_rect_b446ffe9b92c06c7cdc6f62c1bd55091.jpg",
    "address": "千葉県柏市大青田706-5",
    "rating": 3.72,
    "ratingCount": 815,
    "lat": 35.90872628862662,
    "lng": 139.9393848065611,
    "genre": "食堂"
  },
  {
    "rank": 52,
    "id": "12000255",
    "name": "ル・パティシエ ヨコヤマ 谷津店",
    "url": "https://tabelog.com/chiba/A1202/A120204/12000255/",
    "image": "https://tblg.k-img.com/restaurant/images/Rvw/256592/640x640_rect_ff546a18bfa4550bc6e49abb65bf7981.jpg",
    "address": "千葉県習志野市谷津4-8-45",
    "rating": 3.72,
    "ratingCount": 678,
    "lat": 35.68637523878853,
    "lng": 140.0043677642696,
    "genre": "スイーツ"
  },
  {
    "rank": 78,
    "id": "12049275",
    "name": "ラーメン二郎 千葉店",
    "url": "https://tabelog.com/chiba/A1201/A120101/12049275/",
    "image": "https://tblg.k-img.com/restaurant/images/Rvw/363725/640x640_rect_d435b100d4bc0e2536b8b118eb1c900f.jpg",
    "address": "千葉県千葉市中央区中央1-7-8",
    "rating": 3.71,
    "ratingCount": 713,
    "lat": 35.61050253806932,
    "lng": 140.12361248225784,
    "genre": "ラーメン"
  },
  {
    "rank": 61,
    "id": "12051667",
    "name": "とんかつ とみた",
    "url": "https://tabelog.com/chiba/A1203/A120302/12051667/",
    "image": "https://tblg.k-img.com/restaurant/images/Rvw/313715/640x640_rect_476e22ca1553b4a5265f384937913cc9.jpg",
    "address": "千葉県松戸市松戸1177 マチビル 2F",
    "rating": 3.71,
    "ratingCount": 699,
    "lat": 35.784176278693764,
    "lng": 139.90185072532935,
    "genre": "とんかつ"
  },
  {
    "rank": 2,
    "id": "12006496",
    "name": "駿河屋",
    "url": "https://tabelog.com/chiba/A1204/A120401/12006496/",
    "image": "https://tblg.k-img.com/restaurant/images/Rvw/34029/640x640_rect_34029966.jpg",
    "address": "千葉県成田市仲町359",
    "rating": 3.71,
    "ratingCount": 2057,
    "lat": 35.78463454882578,
    "lng": 140.31729318504276,
    "genre": "うなぎ"
  },
  {
    "rank": 90,
    "id": "12001192",
    "name": "うなせん",
    "url": "https://tabelog.com/chiba/A1204/A120404/12001192/",
    "image": "https://tblg.k-img.com/restaurant/images/Rvw/305255/640x640_rect_688afd0abf20d4d53fe561b12fa394bc.jpg",
    "address": "千葉県香取市小見川5628",
    "rating": 3.71,
    "ratingCount": 146,
    "lat": 35.860400498869545,
    "lng": 140.6058332156058,
    "genre": "うなぎ"
  },
  {
    "rank": 27,
    "id": "12000109",
    "name": "印度料理シタール",
    "url": "https://tabelog.com/chiba/A1201/A120104/12000109/",
    "image": "https://tblg.k-img.com/restaurant/images/Rvw/175698/640x640_rect_457c0519f8d5884d667c754a05e42228.jpg",
    "address": "千葉県千葉市花見川区検見川町1-106-16",
    "rating": 3.7,
    "ratingCount": 1851,
    "lat": 35.651967548829816,
    "lng": 140.06538929387926,
    "genre": "アジア・エスニック"
  },
  {
    "rank": 37,
    "id": "12043752",
    "name": "ベンガルタイガー",
    "url": "https://tabelog.com/chiba/A1201/A120101/12043752/",
    "image": "https://tblg.k-img.com/restaurant/images/Rvw/106399/320x320_rect_106399797.jpg",
    "address": "千葉県千葉市中央区松波1-14-11",
    "rating": 3.7,
    "ratingCount": 370,
    "lat": 35.61756173806061,
    "lng": 140.11037818233845,
    "genre": "アジア・エスニック"
  },
  {
    "rank": 48,
    "id": "12043752",
    "name": "ベンガルタイガー",
    "url": "https://tabelog.com/chiba/A1201/A120101/12043752/",
    "image": "https://tblg.k-img.com/restaurant/images/Rvw/106399/320x320_rect_106399797.jpg",
    "address": "千葉県千葉市中央区松波1-14-11",
    "rating": 3.7,
    "ratingCount": 370,
    "lat": 35.61756173806061,
    "lng": 140.11037818233845,
    "genre": "創作料理・イノベーティブ"
  },
  {
    "rank": 83,
    "id": "12026182",
    "name": "カレーの店 ボンベイ 本店",
    "url": "https://tabelog.com/chiba/A1203/A120301/12026182/",
    "image": "https://tblg.k-img.com/restaurant/images/Rvw/296203/640x640_rect_b0ab7900e4c16c54f47e0d33c8085d11.jpg",
    "address": "千葉県柏市柏3-6-16 磯野ビル 1F",
    "rating": 3.7,
    "ratingCount": 1400,
    "lat": 35.86019933866853,
    "lng": 139.97423700604654,
    "genre": "カレー"
  },
  {
    "rank": 11,
    "id": "12020222",
    "name": "パントリー コヨーテ",
    "url": "https://tabelog.com/chiba/A1201/A120101/12020222/",
    "image": "https://tblg.k-img.com/restaurant/images/Rvw/245606/640x640_rect_c32ccd80ea397f9abdb5568f199541c7.jpg",
    "address": "千葉県千葉市中央区中央3-11-11 ニュー豊田ビル 1F",
    "rating": 3.7,
    "ratingCount": 921,
    "lat": 35.60795258887665,
    "lng": 140.12467546339312,
    "genre": "ハンバーガー"
  },
  {
    "rank": 72,
    "id": "12045538",
    "name": "Bosco",
    "url": "https://tabelog.com/chiba/A1204/A120402/12045538/",
    "image": "https://tblg.k-img.com/restaurant/images/Rvw/220860/640x640_rect_6995d84b567b8b0dfa2104f0c8ca6e7c.jpg",
    "address": "千葉県四街道市物井1777",
    "rating": 3.69,
    "ratingCount": 159,
    "lat": 35.68771373884427,
    "lng": 140.18208341415857,
    "genre": "ピザ"
  },
  {
    "rank": 82,
    "id": "12025528",
    "name": "ピッツェリア　ポジターノ",
    "url": "https://tabelog.com/chiba/A1204/A120401/12025528/",
    "image": "https://tblg.k-img.com/restaurant/images/Rvw/305344/640x640_rect_3b6702c0c88f2682726026c4bb1ce3ad.jpg",
    "address": "千葉県成田市花崎町533",
    "rating": 3.69,
    "ratingCount": 270,
    "lat": 35.778454308829254,
    "lng": 140.3158767549813,
    "genre": "ピザ"
  },
  {
    "rank": 75,
    "id": "12046938",
    "name": "レタンプリュス 本店",
    "url": "https://tabelog.com/chiba/A1203/A120305/12046938/",
    "image": "https://tblg.k-img.com/restaurant/images/Rvw/176381/640x640_rect_5c92e66d1dcc54541b5845c02b704d88.jpg",
    "address": "千葉県流山市市野谷543-1",
    "rating": 3.69,
    "ratingCount": 445,
    "lat": 35.86354881864899,
    "lng": 139.9195256061187,
    "genre": "スイーツ"
  },
  {
    "rank": 33,
    "id": "12021059",
    "name": "Boulangerie Queue",
    "url": "https://tabelog.com/chiba/A1202/A120201/12021059/",
    "image": "https://tblg.k-img.com/restaurant/images/Rvw/5024/320x320_rect_ff2e3954f9507a8ce740fb5596a7b014.jpg",
    "address": "千葉県船橋市坪井町1380-4 （2010年より区画整理後、坪井東2－14－27となります）",
    "rating": 3.68,
    "ratingCount": 514,
    "lat": 35.73027130877852,
    "lng": 140.06048567467366,
    "genre": "パン"
  },
  {
    "rank": 45,
    "id": "12000978",
    "name": "オープンオーブン",
    "url": "https://tabelog.com/chiba/A1202/A120202/12000978/",
    "image": "https://tblg.k-img.com/restaurant/images/Rvw/48992/640x640_rect_48992478.jpg",
    "address": "千葉県市川市市川2-30-25",
    "rating": 3.68,
    "ratingCount": 541,
    "lat": 35.73263547872815,
    "lng": 139.90702607480512,
    "genre": "パン"
  },
  {
    "rank": 74,
    "id": "12030751",
    "name": "ベーカリーフェーブ",
    "url": "https://tabelog.com/chiba/A1203/A120301/12030751/",
    "image": "https://tblg.k-img.com/restaurant/images/Rvw/363764/640x640_rect_326bc583334324b44b94a7a81bf928b7.jpg",
    "address": "千葉県柏市泉町2-7 オークライク泉 １Ｆ",
    "rating": 3.68,
    "ratingCount": 350,
    "lat": 35.858900337862345,
    "lng": 139.96907388487526,
    "genre": "パン"
  },
  {
    "rank": 72,
    "id": "12034462",
    "name": "Curry House MUMBAI 松戸店",
    "url": "https://tabelog.com/chiba/A1203/A120302/12034462/",
    "image": "https://tblg.k-img.com/restaurant/images/Rvw/57061/640x640_rect_57061397.jpg",
    "address": "千葉県松戸市松戸1150 ニューハイム松戸ビル 2F",
    "rating": 3.68,
    "ratingCount": 625,
    "lat": 35.78482193788832,
    "lng": 139.90290478417336,
    "genre": "カレー"
  },
  {
    "rank": 28,
    "id": "12004138",
    "name": "66",
    "url": "https://tabelog.com/chiba/A1203/A120301/12004138/",
    "image": "https://tblg.k-img.com/restaurant/images/Rvw/6548/640x640_rect_6548621.jpg",
    "address": "千葉県柏市中央町4-25",
    "rating": 3.68,
    "ratingCount": 768,
    "lat": 35.85871757453001,
    "lng": 139.9709863682277,
    "genre": "ハンバーガー"
  },
  {
    "rank": 39,
    "id": "12000870",
    "name": "zoe's",
    "url": "https://tabelog.com/chiba/A1203/A120301/12000870/",
    "image": "https://tblg.k-img.com/restaurant/images/Rvw/315071/640x640_rect_855b0eff4002e3e0f354d82915a1d605.jpg",
    "address": "千葉県柏市柏4-6-23 ＡＫビル 1F",
    "rating": 3.68,
    "ratingCount": 367,
    "lat": 35.86385893786084,
    "lng": 139.9742495849217,
    "genre": "イタリアン"
  },
  {
    "rank": 21,
    "id": "12014064",
    "name": "さすけ食堂",
    "url": "https://tabelog.com/chiba/A1206/A120603/12014064/",
    "image": "https://tblg.k-img.com/restaurant/images/Rvw/190773/640x640_rect_588b31934545cf738ee1efbcb92f0356.jpg",
    "address": "千葉県富津市金谷2193-5",
    "rating": 3.68,
    "ratingCount": 1207,
    "lat": 35.16735603905983,
    "lng": 139.8212010891554,
    "genre": "食堂"
  },
  {
    "rank": 14,
    "id": "12000513",
    "name": "ル・パティシエ ヨコヤマ 京成大久保店",
    "url": "https://tabelog.com/chiba/A1202/A120204/12000513/",
    "image": "https://tblg.k-img.com/restaurant/images/Rvw/256592/640x640_rect_a35f8cf05980194b221959f70d0ccb28.jpg",
    "address": "千葉県習志野市大久保1-1-34",
    "rating": 3.68,
    "ratingCount": 543,
    "lat": 35.68665973880089,
    "lng": 140.04376423424483,
    "genre": "スイーツ"
  },
  {
    "rank": 66,
    "id": "12048555",
    "name": "もつ焼き独歩 本町店",
    "url": "https://tabelog.com/chiba/A1202/A120201/12048555/",
    "image": "https://tblg.k-img.com/restaurant/images/Rvw/136014/640x640_rect_136014492.jpg",
    "address": "千葉県船橋市本町4-42-5",
    "rating": 3.68,
    "ratingCount": 502,
    "lat": 35.69937673796925,
    "lng": 139.98660808325164,
    "genre": "立ち飲み"
  },
  {
    "rank": 55,
    "id": "12033520",
    "name": "アーユーボーワン",
    "url": "https://tabelog.com/chiba/A1203/A120301/12033520/",
    "image": "https://tblg.k-img.com/restaurant/images/Rvw/224822/640x640_rect_cda837ac9a50f778e9aec812b12f1f77.jpg",
    "address": "千葉県柏市東上町2-24 1F",
    "rating": 3.67,
    "ratingCount": 454,
    "lat": 35.85926433786431,
    "lng": 139.97599478487408,
    "genre": "アジア・エスニック"
  },
  {
    "rank": 35,
    "id": "12009777",
    "name": "中華 大島",
    "url": "https://tabelog.com/chiba/A1203/A120301/12009777/",
    "image": "https://tblg.k-img.com/restaurant/images/Rvw/363744/640x640_rect_a4eb7883742351d01c90bf92ff1702c2.jpg",
    "address": "千葉県柏市中央1-6-4",
    "rating": 3.67,
    "ratingCount": 495,
    "lat": 35.857781938669056,
    "lng": 139.97105986602432,
    "genre": "カレー"
  },
  {
    "rank": 82,
    "id": "12005224",
    "name": "ピネキ",
    "url": "https://tabelog.com/chiba/A1207/A120704/12005224/",
    "image": "https://tblg.k-img.com/restaurant/images/Rvw/281867/640x640_rect_d835e9473dbb8bb2175c4ac31c171a8d.jpg",
    "address": "千葉県館山市下真倉236-3",
    "rating": 3.67,
    "ratingCount": 1191,
    "lat": 34.97896363838937,
    "lng": 139.86908027605716,
    "genre": "アイス・ジェラート"
  },
  {
    "rank": 91,
    "id": "12026385",
    "name": "Vv.lab",
    "url": "https://tabelog.com/chiba/A1201/A120102/12026385/",
    "image": "https://tblg.k-img.com/restaurant/images/Rvw/66798/320x320_rect_66798300.jpg",
    "address": "千葉県千葉市花見川区幕張町5-417-18",
    "rating": 3.67,
    "ratingCount": 136,
    "lat": 35.65387631882424,
    "lng": 140.0516651339082,
    "genre": "イタリアン"
  },
  {
    "rank": 48,
    "id": "12045774",
    "name": "タイ料理レストラン きんめだい",
    "url": "https://tabelog.com/chiba/A1202/A120201/12045774/",
    "image": "https://tblg.k-img.com/restaurant/images/Rvw/99781/640x640_rect_99781168.jpg",
    "address": "千葉県船橋市山野町68-5 パストラル弐番館 1F",
    "rating": 3.66,
    "ratingCount": 326,
    "lat": 35.706074337956856,
    "lng": 139.96107208333717,
    "genre": "アジア・エスニック"
  },
  {
    "rank": 48,
    "id": "12000017",
    "name": "カレーレストラン シバ",
    "url": "https://tabelog.com/chiba/A1201/A120104/12000017/",
    "image": "https://tblg.k-img.com/restaurant/images/Rvw/241817/640x640_rect_4c33dbdd902bcd0c3b2ca1ad50bd5629.jpg",
    "address": "千葉県千葉市稲毛区稲毛東3-19-15 ｍｆビル　１Ｆ",
    "rating": 3.66,
    "ratingCount": 661,
    "lat": 35.63640863804302,
    "lng": 140.0926968825412,
    "genre": "カレー"
  },
  {
    "rank": 17,
    "id": "12030015",
    "name": "ピッツェリア・エ・バール・レガーメ",
    "url": "https://tabelog.com/chiba/A1204/A120401/12030015/",
    "image": "https://tblg.k-img.com/restaurant/images/Rvw/232452/640x640_rect_72a445727d92e81848663b302a6806a3.jpg",
    "address": "千葉県成田市公津の杜4-12 CO-Z東館Ｄ号 1F",
    "rating": 3.66,
    "ratingCount": 146,
    "lat": 35.76007383883345,
    "lng": 140.29238656481215,
    "genre": "ピザ"
  },
  {
    "rank": 62,
    "id": "12001153",
    "name": "村のピザ屋 カンパーニャ",
    "url": "https://tabelog.com/chiba/A1206/A120603/12001153/",
    "image": "https://tblg.k-img.com/restaurant/images/Rvw/488/320x320_rect_488036.jpg",
    "address": "千葉県君津市大戸見296",
    "rating": 3.66,
    "ratingCount": 350,
    "lat": 35.2464390390826,
    "lng": 140.05040913979357,
    "genre": "ピザ"
  },
  {
    "rank": 14,
    "id": "12006767",
    "name": "食事処 池田",
    "url": "https://tabelog.com/chiba/A1207/A120703/12006767/",
    "image": "https://tblg.k-img.com/restaurant/images/Rvw/125877/640x640_rect_125877741.jpg",
    "address": "千葉県鴨川市八色518-8",
    "rating": 3.66,
    "ratingCount": 576,
    "lat": 35.11823094917636,
    "lng": 140.08909371847145,
    "genre": "食堂"
  },
  {
    "rank": 30,
    "id": "12005210",
    "name": "パティスリー サツキ",
    "url": "https://tabelog.com/chiba/A1201/A120102/12005210/",
    "image": "https://tblg.k-img.com/restaurant/images/Rvw/302474/640x640_rect_57afecc165220025769e2b1c1af7be7d.jpg",
    "address": "千葉県千葉市美浜区ひび野2-120-3 ホテルニューオータニ幕張 1F",
    "rating": 3.66,
    "ratingCount": 398,
    "lat": 35.645536258825295,
    "lng": 140.03837763383328,
    "genre": "スイーツ"
  },
  {
    "rank": 18,
    "id": "12038382",
    "name": "とんかつ瓢",
    "url": "https://tabelog.com/chiba/A1203/A120301/12038382/",
    "image": "https://tblg.k-img.com/restaurant/images/Rvw/275362/640x640_rect_35e6882463c5abb2b4583a85dc10a2ba.jpg",
    "address": "千葉県柏市旭町2-2-2 第一松崎ビル 1F",
    "rating": 3.66,
    "ratingCount": 952,
    "lat": 35.86018847338152,
    "lng": 139.96784156168067,
    "genre": "とんかつ"
  },
  {
    "rank": 48,
    "id": "12000489",
    "name": "うなぎ割烹山田",
    "url": "https://tabelog.com/chiba/A1204/A120404/12000489/",
    "image": "https://tblg.k-img.com/restaurant/images/Rvw/161408/640x640_rect_161408799.jpg",
    "address": "千葉県香取市佐原イ457",
    "rating": 3.66,
    "ratingCount": 756,
    "lat": 35.892367508814715,
    "lng": 140.4974194260047,
    "genre": "うなぎ"
  },
  {
    "rank": 35,
    "id": "12004381",
    "name": "文菜華",
    "url": "https://tabelog.com/chiba/A1203/A120301/12004381/",
    "image": "https://tblg.k-img.com/restaurant/images/Rvw/257818/640x640_rect_ee8425a2a143caac55843ed6c4a119dd.jpg",
    "address": "千葉県柏市東上町2-2",
    "rating": 3.65,
    "ratingCount": 223,
    "lat": 35.858617637864626,
    "lng": 139.97566248486774,
    "genre": "中国料理"
  },
  {
    "rank": 6,
    "id": "12034570",
    "name": "トラットリア イル レガーロ",
    "url": "https://tabelog.com/chiba/A1203/A120302/12034570/",
    "image": "https://tblg.k-img.com/restaurant/images/Rvw/123209/640x640_rect_123209073.jpg",
    "address": "千葉県松戸市本町14-14 1F～3F",
    "rating": 3.65,
    "ratingCount": 549,
    "lat": 35.7858778378862,
    "lng": 139.8983615841872,
    "genre": "イタリアン"
  },
  {
    "rank": 85,
    "id": "12035117",
    "name": "はまべ",
    "url": "https://tabelog.com/chiba/A1206/A120603/12035117/",
    "image": "https://tblg.k-img.com/restaurant/images/Rvw/32898/640x640_rect_32898520.jpg",
    "address": "千葉県富津市金谷3971",
    "rating": 3.65,
    "ratingCount": 429,
    "lat": 35.16433073825691,
    "lng": 139.82285737796192,
    "genre": "食堂"
  },
  {
    "rank": 30,
    "id": "12054733",
    "name": "南印度料理 巡るインド",
    "url": "https://tabelog.com/chiba/A1207/A120702/12054733/",
    "image": "https://tblg.k-img.com/restaurant/images/Rvw/361494/640x640_rect_4f4a7e8e045c8a7a350315d39da2eddc.jpg",
    "address": "千葉県いすみ市岬町井沢300-1",
    "rating": 3.64,
    "ratingCount": 47,
    "lat": 35.29560141915636,
    "lng": 140.38006064005907,
    "genre": "アジア・エスニック"
  },
  {
    "rank": 33,
    "id": "12060379",
    "name": "ばーがー時々洋食亭",
    "url": "https://tabelog.com/chiba/A1203/A120302/12060379/",
    "image": "https://tblg.k-img.com/restaurant/images/Rvw/351782/640x640_rect_d318f0d07ee4f06f947d9280d0f69738.jpg",
    "address": "千葉県松戸市金ケ作43-48",
    "rating": 3.64,
    "ratingCount": 101,
    "lat": 35.79316604855498,
    "lng": 139.93797153123174,
    "genre": "ハンバーガー"
  },
  {
    "rank": 35,
    "id": "12000917",
    "name": "ふなっ子",
    "url": "https://tabelog.com/chiba/A1202/A120201/12000917/",
    "image": "https://tblg.k-img.com/restaurant/images/Rvw/363704/640x640_rect_9e18ca529fc619cea7e5d33a6129da23.jpg",
    "address": "千葉県船橋市東船橋1-37-12",
    "rating": 3.64,
    "ratingCount": 272,
    "lat": 35.69914476878025,
    "lng": 140.00384691439896,
    "genre": "居酒屋"
  },
  {
    "rank": 81,
    "id": "12005007",
    "name": "見波亭 金谷本店",
    "url": "https://tabelog.com/chiba/A1206/A120603/12005007/",
    "image": "https://tblg.k-img.com/restaurant/images/Rvw/172185/640x640_rect_f45bce1114977df1379b96cd5dc2b83a.jpg",
    "address": "千葉県富津市金谷2288 ザ・フィッシュ内",
    "rating": 3.64,
    "ratingCount": 444,
    "lat": 35.168059989058435,
    "lng": 139.81819432916464,
    "genre": "スイーツ"
  },
  {
    "rank": 99,
    "id": "12045786",
    "name": "とんかつ 大倉",
    "url": "https://tabelog.com/chiba/A1201/A120103/12045786/",
    "image": "https://tblg.k-img.com/restaurant/images/Rvw/217487/640x640_rect_0b73fa389c8b3c3d44dd056883bbd1dd.jpg",
    "address": "千葉県千葉市美浜区幸町1-15-3",
    "rating": 3.64,
    "ratingCount": 657,
    "lat": 35.61551625886361,
    "lng": 140.09881281348765,
    "genre": "とんかつ"
  },
  {
    "rank": 26,
    "id": "12028342",
    "name": "菊園",
    "url": "https://tabelog.com/chiba/A1201/A120105/12028342/",
    "image": "https://tblg.k-img.com/restaurant/images/Rvw/22157/320x320_rect_22157508.jpg",
    "address": "千葉県千葉市若葉区若松町360-24",
    "rating": 3.64,
    "ratingCount": 289,
    "lat": 35.64093132886921,
    "lng": 140.1670768436965,
    "genre": "和菓子・甘味処"
  },
  {
    "rank": 56,
    "id": "12003565",
    "name": "さのや 今川焼店",
    "url": "https://tabelog.com/chiba/A1205/A120501/12003565/",
    "image": "https://tblg.k-img.com/restaurant/images/Rvw/178071/640x640_rect_6916c20d5338232b0ed197192035f063.jpg",
    "address": "千葉県銚子市飯沼町6-7",
    "rating": 3.64,
    "ratingCount": 619,
    "lat": 35.73237577902569,
    "lng": 140.84078716414794,
    "genre": "和菓子・甘味処"
  },
  {
    "rank": 60,
    "id": "12000183",
    "name": "甘味処 楓",
    "url": "https://tabelog.com/chiba/A1201/A120104/12000183/",
    "image": "https://tblg.k-img.com/restaurant/images/Rvw/215901/640x640_rect_0a4eca1dc3c32d99a95582990c2715b9.jpg",
    "address": "千葉県千葉市稲毛区緑町1-20-7",
    "rating": 3.64,
    "ratingCount": 253,
    "lat": 35.623890918859026,
    "lng": 140.10111198357063,
    "genre": "和菓子・甘味処"
  },
  {
    "rank": 97,
    "id": "12000897",
    "name": "金時の甘太郎焼",
    "url": "https://tabelog.com/chiba/A1204/A120401/12000897/",
    "image": "https://tblg.k-img.com/restaurant/images/Rvw/216415/640x640_rect_bd83a85a126529b62049298958cf698f.jpg",
    "address": "千葉県成田市花崎町525",
    "rating": 3.64,
    "ratingCount": 626,
    "lat": 35.779746478828606,
    "lng": 140.316428034994,
    "genre": "和菓子・甘味処"
  },
  {
    "rank": 13,
    "id": "12009950",
    "name": "房州園",
    "url": "https://tabelog.com/chiba/A1201/A120101/12009950/",
    "image": "https://tblg.k-img.com/restaurant/images/Rvw/367353/640x640_rect_6712cab67e19fb0b589a5b2700490fe0.jpg",
    "address": "千葉県千葉市中央区都町2-26-2",
    "rating": 3.64,
    "ratingCount": 138,
    "lat": 35.61208170887928,
    "lng": 140.1411524334233,
    "genre": "焼肉"
  },
  {
    "rank": 50,
    "id": "12006170",
    "name": "今久 本店",
    "url": "https://tabelog.com/chiba/A1205/A120502/12006170/",
    "image": "https://tblg.k-img.com/restaurant/images/Rvw/131856/640x640_rect_131856530.jpg",
    "address": "千葉県旭市川口3435-7",
    "rating": 3.64,
    "ratingCount": 250,
    "lat": 35.71632787895453,
    "lng": 140.5853602241649,
    "genre": "焼肉"
  },
  {
    "rank": 31,
    "id": "12037473",
    "name": "フライング ピッグ 松戸本店",
    "url": "https://tabelog.com/chiba/A1203/A120302/12037473/",
    "image": "https://tblg.k-img.com/restaurant/images/Rvw/51647/640x640_rect_51647226.jpg",
    "address": "千葉県松戸市小根本2-9 吉ビル 1F",
    "rating": 3.64,
    "ratingCount": 788,
    "lat": 35.786749737887014,
    "lng": 139.902639384193,
    "genre": "洋食"
  },
  {
    "rank": 66,
    "id": "12003209",
    "name": "冨ノ家 本八幡本店",
    "url": "https://tabelog.com/chiba/A1202/A120202/12003209/",
    "image": "https://tblg.k-img.com/restaurant/images/Rvw/43888/640x640_rect_43888745.jpg",
    "address": "千葉県市川市八幡1-11-13 シャトー森井　１Ｆ",
    "rating": 3.63,
    "ratingCount": 241,
    "lat": 35.71964153066967,
    "lng": 139.9342466561005,
    "genre": "アジア・エスニック"
  },
  {
    "rank": 7,
    "id": "12049674",
    "name": "中華料理 おぎわら",
    "url": "https://tabelog.com/chiba/A1203/A120301/12049674/",
    "image": "https://tblg.k-img.com/restaurant/images/Rvw/259732/320x320_rect_a71539545eea2ed175fa8f7db722b14f.jpg",
    "address": "千葉県柏市柏3-3-18 2F",
    "rating": 3.63,
    "ratingCount": 64,
    "lat": 35.85915503786401,
    "lng": 139.97481748487377,
    "genre": "中国料理"
  },
  {
    "rank": 31,
    "id": "12000220",
    "name": "中国料理 「王朝」 ヒルトン東京ベイ",
    "url": "https://tabelog.com/chiba/A1202/A120203/12000220/",
    "image": "https://tblg.k-img.com/restaurant/images/Rvw/363755/640x640_rect_abcc41d1bd5836ecc2feb9e648d38643.jpg",
    "address": "千葉県浦安市舞浜1-8 ヒルトン東京ベイ",
    "rating": 3.63,
    "ratingCount": 238,
    "lat": 35.62734183797893,
    "lng": 139.87337298260337,
    "genre": "中国料理"
  },
  {
    "rank": 81,
    "id": "12050553",
    "name": "マンドリン ハンバーガーキッチン",
    "url": "https://tabelog.com/chiba/A1202/A120204/12050553/",
    "image": "https://tblg.k-img.com/restaurant/images/Rvw/230255/640x640_rect_5585fd125efb2ae8ff9dda0540a15548.jpg",
    "address": "千葉県習志野市大久保3-13-12",
    "rating": 3.63,
    "ratingCount": 154,
    "lat": 35.69129498880048,
    "lng": 140.0516999442861,
    "genre": "ハンバーガー"
  },
  {
    "rank": 51,
    "id": "12024353",
    "name": "La Bonta",
    "url": "https://tabelog.com/chiba/A1202/A120201/12024353/",
    "image": "https://tblg.k-img.com/restaurant/images/Rvw/366922/640x640_rect_04ea8cbc5f6393572cbe8ccf9d84a47b.jpg",
    "address": "千葉県船橋市本町1-23-20 立山ビル　１Ｆ",
    "rating": 3.63,
    "ratingCount": 283,
    "lat": 35.70040823796694,
    "lng": 139.9813915832657,
    "genre": "イタリアン"
  },
  {
    "rank": 53,
    "id": "12000547",
    "name": "ひろしまや",
    "url": "https://tabelog.com/chiba/A1203/A120305/12000547/",
    "image": "https://tblg.k-img.com/restaurant/images/Rvw/360599/640x640_rect_e6a3c2a9095c22f29be45b75219f08fe.jpg",
    "address": "千葉県-流山市鰭ヶ崎951-4",
    "rating": 3.63,
    "ratingCount": 125,
    "lat": 35.84274375865721,
    "lng": 139.9038772059195,
    "genre": "お好み焼き"
  },
  {
    "rank": 20,
    "id": "12000396",
    "name": "照月苑",
    "url": "https://tabelog.com/chiba/A1202/A120201/12000396/",
    "image": "https://tblg.k-img.com/restaurant/images/Rvw/329530/640x640_rect_13e919d7e0535935b1bc14976b5212e0.jpg",
    "address": "千葉県船橋市西船4-16-1",
    "rating": 3.63,
    "ratingCount": 195,
    "lat": 35.71053896875874,
    "lng": 139.95904570454545,
    "genre": "焼肉"
  },
  {
    "rank": 17,
    "id": "12000203",
    "name": "アユタヤ",
    "url": "https://tabelog.com/chiba/A1202/A120201/12000203/",
    "image": "https://tblg.k-img.com/restaurant/images/Rvw/44296/320x320_rect_44296738.jpg",
    "address": "千葉県船橋市本町3-36-34 石井ビル 3F",
    "rating": 3.62,
    "ratingCount": 528,
    "lat": 35.69713103797041,
    "lng": 139.98576828322953,
    "genre": "アジア・エスニック"
  },
  {
    "rank": 23,
    "id": "12001352",
    "name": "人舟",
    "url": "https://tabelog.com/chiba/A1205/A120504/12001352/",
    "image": "https://tblg.k-img.com/restaurant/images/Rvw/55418/640x640_rect_2448ccb66754f09206c51e6f45ae266a.jpg",
    "address": "千葉県長生郡長生村入山津803-2",
    "rating": 3.62,
    "ratingCount": 198,
    "lat": 35.41830148013919,
    "lng": 140.3920000139813,
    "genre": "パン"
  },
  {
    "rank": 15,
    "id": "12003459",
    "name": "台湾小吃店 慶龍",
    "url": "https://tabelog.com/chiba/A1202/A120201/12003459/",
    "image": "https://tblg.k-img.com/restaurant/images/Rvw/352659/640x640_rect_aadec696f7dff2bb3fcdd8366ba0e967.jpg",
    "address": "千葉県船橋市湊町3-6-24",
    "rating": 3.62,
    "ratingCount": 296,
    "lat": 35.692427088777535,
    "lng": 139.98193993434646,
    "genre": "中国料理"
  },
  {
    "rank": 52,
    "id": "12002798",
    "name": "シルクロードガーデン",
    "url": "https://tabelog.com/chiba/A1202/A120203/12002798/",
    "image": "https://tblg.k-img.com/restaurant/images/Rvw/209672/640x640_rect_c4eb6b14991a956d6497a5dce334f3f9.jpg",
    "address": "千葉県浦安市舞浜1-13 東京ディズニー・シーホテルミラコスタ",
    "rating": 3.62,
    "ratingCount": 334,
    "lat": 35.627119337983565,
    "lng": 139.88747558259124,
    "genre": "中国料理"
  },
  {
    "rank": 54,
    "id": "12000092",
    "name": "菓匠 白妙 習志野台本店",
    "url": "https://tabelog.com/chiba/A1202/A120201/12000092/",
    "image": "https://tblg.k-img.com/restaurant/images/Rvw/215901/640x640_rect_fffb7308c4c6c7cbbded72b74793c40c.jpg",
    "address": "千葉県船橋市習志野台2-72-14",
    "rating": 3.62,
    "ratingCount": 160,
    "lat": 35.72390603877888,
    "lng": 140.04891970461748,
    "genre": "和菓子・甘味処"
  },
  {
    "rank": 99,
    "id": "12012667",
    "name": "南インド料理 葉菜",
    "url": "https://tabelog.com/chiba/A1202/A120204/12012667/",
    "image": "https://tblg.k-img.com/restaurant/images/Rvw/1643/640x640_rect_1643151.jpg",
    "address": "千葉県八千代市勝田台1-13-32 MTビル １F",
    "rating": 3.61,
    "ratingCount": 382,
    "lat": 35.71458660881,
    "lng": 140.12806557446785,
    "genre": "アジア・エスニック"
  },
  {
    "rank": 76,
    "id": "12001248",
    "name": "佐久間あいすくりーむ工房",
    "url": "https://tabelog.com/chiba/A1202/A120201/12001248/",
    "image": "https://tblg.k-img.com/restaurant/images/Rvw/240440/640x640_rect_f0635e8ae1a51d1e1ba2860a0eb8b7ea.jpg",
    "address": "千葉県船橋市三咲町433",
    "rating": 3.61,
    "ratingCount": 341,
    "lat": 35.737220388763774,
    "lng": 140.0280360847666,
    "genre": "アイス・ジェラート"
  },
  {
    "rank": 7,
    "id": "12007514",
    "name": "三好家",
    "url": "https://tabelog.com/chiba/A1206/A120602/12007514/",
    "image": "https://tblg.k-img.com/restaurant/images/Rvw/214759/640x640_rect_545e171b2962cfaa45b2b86fa73e9d4a.jpg",
    "address": "千葉県木更津市朝日1丁目1-48",
    "rating": 3.61,
    "ratingCount": 290,
    "lat": 35.384054268955815,
    "lng": 139.9267584012703,
    "genre": "和菓子・甘味処"
  },
  {
    "rank": 89,
    "id": "12001158",
    "name": "御菓子司 角八本店",
    "url": "https://tabelog.com/chiba/A1205/A120504/12001158/",
    "image": "https://tblg.k-img.com/restaurant/images/Rvw/167715/640x640_rect_c8f2ddce2802b77a05d09768ff721a67.jpg",
    "address": "千葉県長生郡一宮町一宮3012",
    "rating": 3.61,
    "ratingCount": 414,
    "lat": 35.37579515909969,
    "lng": 140.36202442088174,
    "genre": "和菓子・甘味処"
  },
  {
    "rank": 17,
    "id": "12009936",
    "name": "清香園",
    "url": "https://tabelog.com/chiba/A1201/A120101/12009936/",
    "image": "https://tblg.k-img.com/restaurant/images/Rvw/149502/640x640_rect_149502073.jpg",
    "address": "千葉県千葉市中央区院内1-11-2",
    "rating": 3.61,
    "ratingCount": 289,
    "lat": 35.61278863806748,
    "lng": 140.1224148822818,
    "genre": "焼肉"
  },
  {
    "rank": 17,
    "id": "12006202",
    "name": "じゃがいも",
    "url": "https://tabelog.com/chiba/A1202/A120202/12006202/",
    "image": "https://tblg.k-img.com/restaurant/images/Rvw/44224/640x640_rect_44224243.jpg",
    "address": "千葉県市川市八幡2-16-19 かぶら木ビル1F",
    "rating": 3.61,
    "ratingCount": 134,
    "lat": 35.72209307683445,
    "lng": 139.92645719014521,
    "genre": "洋食"
  },
  {
    "rank": 36,
    "id": "12046523",
    "name": "ハラール ドーサ ビリヤニ",
    "url": "https://tabelog.com/chiba/A1204/A120401/12046523/",
    "image": "https://tblg.k-img.com/restaurant/images/Rvw/106406/640x640_rect_106406167.jpg",
    "address": "千葉県成田市ウィング土屋24 イオンモール成田 2F",
    "rating": 3.6,
    "ratingCount": 326,
    "lat": 35.795639225994414,
    "lng": 140.31743157043238,
    "genre": "アジア・エスニック"
  },
  {
    "rank": 45,
    "id": "12058942",
    "name": "丸い月 望月店",
    "url": "https://tabelog.com/chiba/A1202/A120201/12058942/",
    "image": "https://tblg.k-img.com/restaurant/images/Rvw/367130/640x640_rect_63383ed9c48509702780af19bdb84e0c.jpg",
    "address": "千葉県船橋市本町4-39-5 2F",
    "rating": 3.6,
    "ratingCount": 200,
    "lat": 35.698690198775246,
    "lng": 139.98721182440602,
    "genre": "アジア・エスニック"
  },
  {
    "rank": 35,
    "id": "12000061",
    "name": "塩梅",
    "url": "https://tabelog.com/chiba/A1203/A120301/12000061/",
    "image": "https://tblg.k-img.com/restaurant/images/Rvw/132737/640x640_rect_132737938.jpg",
    "address": "千葉県柏市明原1-2-3 柏田中ビル　Ｂ１Ｆ",
    "rating": 3.6,
    "ratingCount": 1196,
    "lat": 35.864203698663566,
    "lng": 139.9666040460923,
    "genre": "とんかつ"
  },
  {
    "rank": 19,
    "id": "12029078",
    "name": "茶寮 煉",
    "url": "https://tabelog.com/chiba/A1202/A120202/12029078/",
    "image": "https://tblg.k-img.com/restaurant/images/Rvw/195012/640x640_rect_49a97c9ebcbc3c79e5a372da6dd7827d.jpg",
    "address": "千葉県市川市八幡2-5-6 糸信ビル 1F",
    "rating": 3.6,
    "ratingCount": 283,
    "lat": 35.72204863793588,
    "lng": 139.92705838352234,
    "genre": "和菓子・甘味処"
  },
  {
    "rank": 57,
    "id": "12057883",
    "name": "MOTINDI",
    "url": "https://tabelog.com/chiba/A1203/A120301/12057883/",
    "image": "https://tblg.k-img.com/restaurant/images/Rvw/211903/640x640_rect_aecbedd12c553e496bf246a411c6dc9d.jpg",
    "address": "千葉県柏市旭町1-3-7 1F",
    "rating": 3.59,
    "ratingCount": 26,
    "lat": 35.86241739645782,
    "lng": 139.96754481703493,
    "genre": "アジア・エスニック"
  },
  {
    "rank": 88,
    "id": "12000082",
    "name": "久六",
    "url": "https://tabelog.com/chiba/A1205/A120501/12000082/",
    "image": "https://tblg.k-img.com/restaurant/images/Rvw/8329/640x640_rect_8329790.jpg",
    "address": "千葉県銚子市新生町1-36-49",
    "rating": 3.59,
    "ratingCount": 307,
    "lat": 35.733780019023996,
    "lng": 140.8382961641639,
    "genre": "食堂"
  },
  {
    "rank": 13,
    "id": "12043760",
    "name": "ムムターズレストラン",
    "url": "https://tabelog.com/chiba/A1203/A120303/12043760/",
    "image": "https://tblg.k-img.com/restaurant/images/Rvw/104461/640x640_rect_104461450.jpg",
    "address": "千葉県白井市河原子228-11",
    "rating": 3.58,
    "ratingCount": 158,
    "lat": 35.81526349002426,
    "lng": 140.05945991010336,
    "genre": "アジア・エスニック"
  },
  {
    "rank": 35,
    "id": "12026828",
    "name": "Handi レストラン",
    "url": "https://tabelog.com/chiba/A1203/A120305/12026828/",
    "image": "https://tblg.k-img.com/restaurant/images/Rvw/311446/640x640_rect_adaa1d840fc1075fbaba9850810f2f30.jpg",
    "address": "千葉県野田市目吹1508-1",
    "rating": 3.58,
    "ratingCount": 336,
    "lat": 35.96494695857277,
    "lng": 139.88243534716892,
    "genre": "アジア・エスニック"
  },
  {
    "rank": 17,
    "id": "12024951",
    "name": "中国小麦粉料理専門店恵泉",
    "url": "https://tabelog.com/chiba/A1201/A120105/12024951/",
    "image": "https://tblg.k-img.com/restaurant/images/Rvw/354814/640x640_rect_e66f6d8824cad6856ea1dae7ac0a7ccd.jpg",
    "address": "千葉県千葉市若葉区都賀3-24-8 都賀プラザ1Ｆ",
    "rating": 3.58,
    "ratingCount": 248,
    "lat": 35.635373508485735,
    "lng": 140.15166914570977,
    "genre": "中国料理"
  },
  {
    "rank": 92,
    "id": "12002649",
    "name": "テコテコ",
    "url": "https://tabelog.com/chiba/A1204/A120401/12002649/",
    "image": "https://tblg.k-img.com/restaurant/images/Rvw/155867/640x640_rect_155867599.jpg",
    "address": "千葉県成田市上町858-1",
    "rating": 3.57,
    "ratingCount": 177,
    "lat": 35.78028031301134,
    "lng": 140.31536943420008,
    "genre": "アジア・エスニック"
  },
  {
    "rank": 97,
    "id": "12056250",
    "name": "ロビンズインドキッチン",
    "url": "https://tabelog.com/chiba/A1202/A120201/12056250/",
    "image": "https://tblg.k-img.com/restaurant/images/Rvw/364310/640x640_rect_fdbb1adcdb8ee34a50599b5e4890125e.jpg",
    "address": "千葉県船橋市本中山4-25-16",
    "rating": 3.57,
    "ratingCount": 198,
    "lat": 35.71275682875139,
    "lng": 139.94038158458093,
    "genre": "アジア・エスニック"
  },
  {
    "rank": 94,
    "id": "12001976",
    "name": "ホーム オブ マザーズ",
    "url": "https://tabelog.com/chiba/A1205/A120502/12001976/",
    "image": "https://tblg.k-img.com/restaurant/images/Rvw/299186/640x640_rect_f0aaa8dc6ad510bbf23e591ea7b976df.jpg",
    "address": "千葉県旭市井戸野3420-3",
    "rating": 3.57,
    "ratingCount": 221,
    "lat": 35.7122101089695,
    "lng": 140.6241636240961,
    "genre": "アイス・ジェラート"
  },
  {
    "rank": 23,
    "id": "12056839",
    "name": "鉄板焼 九九",
    "url": "https://tabelog.com/chiba/A1202/A120201/12056839/",
    "image": "https://tblg.k-img.com/restaurant/images/Rvw/201394/640x640_rect_361ef28b68731b5df03a97a5fc0d0c0e.jpg",
    "address": "千葉県船橋市西船4-20-2-1",
    "rating": 3.57,
    "ratingCount": 321,
    "lat": 35.70851869288453,
    "lng": 139.9581171302247,
    "genre": "ステーキ・鉄板焼き"
  },
  {
    "rank": 89,
    "id": "12019392",
    "name": "鳥半・魚半",
    "url": "https://tabelog.com/chiba/A1204/A120401/12019392/",
    "image": "https://tblg.k-img.com/restaurant/images/Rvw/22561/640x640_rect_22561786.jpg",
    "address": "千葉県成田市花崎町846",
    "rating": 3.57,
    "ratingCount": 182,
    "lat": 35.77870113802346,
    "lng": 140.31504838382264,
    "genre": "鳥料理"
  },
  {
    "rank": 75,
    "id": "12001793",
    "name": "ステーキ石井",
    "url": "https://tabelog.com/chiba/A1202/A120202/12001793/",
    "image": "https://tblg.k-img.com/restaurant/images/Rvw/360418/640x640_rect_b425db1f6e5571594485a2d6909efb89.jpg",
    "address": "千葉県市川市行徳駅前1-7-7",
    "rating": 3.56,
    "ratingCount": 465,
    "lat": 35.68334856876268,
    "lng": 139.91717270430016,
    "genre": "ステーキ・鉄板焼き"
  },
  {
    "rank": 74,
    "id": "12000120",
    "name": "エスト! プロッシモ",
    "url": "https://tabelog.com/chiba/A1201/A120101/12000120/",
    "image": "https://tblg.k-img.com/restaurant/images/Rvw/288723/640x640_rect_3030ff2d8fc0a2bea815f19fd6caa598.jpg",
    "address": "千葉県千葉市中央区新町22-3",
    "rating": 3.55,
    "ratingCount": 479,
    "lat": 35.60974139851814,
    "lng": 140.1124571935183,
    "genre": "イタリアン"
  },
  {
    "rank": 11,
    "id": "12000695",
    "name": "DEWAN 幕張店",
    "url": "https://tabelog.com/chiba/A1201/A120102/12000695/",
    "image": "https://tblg.k-img.com/restaurant/images/Rvw/95413/320x320_rect_95413752.jpg",
    "address": "千葉県千葉市美浜区浜田2-33 グルメ大江戸ビル　 2F",
    "rating": 3.54,
    "ratingCount": 789,
    "lat": 35.6565398588165,
    "lng": 140.03269380394838,
    "genre": "アジア・エスニック"
  },
  {
    "rank": 41,
    "id": "12000107",
    "name": "ガンディー",
    "url": "https://tabelog.com/chiba/A1202/A120201/12000107/",
    "image": "https://tblg.k-img.com/restaurant/images/Rvw/45351/640x640_rect_45351986.jpg",
    "address": "千葉県船橋市本町4-42-4",
    "rating": 3.54,
    "ratingCount": 618,
    "lat": 35.69944393796916,
    "lng": 139.98649078325238,
    "genre": "アジア・エスニック"
  },
  {
    "rank": 80,
    "id": "12035969",
    "name": "Enak Enak",
    "url": "https://tabelog.com/chiba/A1202/A120202/12035969/",
    "image": "https://tblg.k-img.com/restaurant/images/Rvw/356040/640x640_rect_632a6444472ad80efb9cf50d99177cd2.jpg",
    "address": "千葉県市川市市川南1-10-1-109 ザタワーズウエスト　１Ｆ",
    "rating": 3.53,
    "ratingCount": 193,
    "lat": 35.72889011044479,
    "lng": 139.90610141461568,
    "genre": "アジア・エスニック"
  },
  {
    "rank": 4,
    "id": "12057934",
    "name": "完全個室焼肉 GYU CHIBA",
    "url": "https://tabelog.com/chiba/A1201/A120101/12057934/",
    "image": "https://tblg.k-img.com/restaurant/images/Rvw/243114/640x640_rect_4461814b029d3be1dbd7fcd676ec041e.jpg",
    "address": "千葉県千葉市中央区富士見1-10-3 SC若松ビル 2F",
    "rating": 3.52,
    "ratingCount": 217,
    "lat": 35.61251735855359,
    "lng": 140.11751539024723,
    "genre": "焼肉"
  },
  {
    "rank": 77,
    "id": "12029079",
    "name": "たけおごはん",
    "url": "https://tabelog.com/chiba/A1205/A120502/12029079/",
    "image": "https://tblg.k-img.com/restaurant/images/Rvw/52261/640x640_rect_52261260.jpg",
    "address": "千葉県匝瑳市生尾114-2",
    "rating": 3.5,
    "ratingCount": 48,
    "lat": 35.70792734894664,
    "lng": 140.54382413410917,
    "genre": "食堂"
  }
]