[
  {
    "rank": 87,
    "id": "38002524",
    "name": "くるますし",
    "url": "https://tabelog.com/ehime/A3801/A380101/38002524/",
    "image": "https://tblg.k-img.com/restaurant/images/Rvw/194136/640x640_rect_43915795c335aa53534b006754405e11.jpg",
    "address": "愛媛県松山市一番町1-6-9",
    "rating": 4.43,
    "ratingCount": 404,
    "lat": 33.84102105765775,
    "lng": 132.77347125069846,
    "genre": "寿司"
  },
  {
    "rank": 98,
    "id": "38005035",
    "name": "赤吉",
    "url": "https://tabelog.com/ehime/A3802/A380201/38005035/",
    "image": "https://tblg.k-img.com/restaurant/images/Rvw/230065/640x640_rect_9031dc6f5d63dbb03b4491507dd0374b.jpg",
    "address": "愛媛県今治市伯方町北浦甲1203-8",
    "rating": 4.22,
    "ratingCount": 143,
    "lat": 34.230753327514556,
    "lng": 133.1010902044055,
    "genre": "寿司"
  },
  {
    "rank": 42,
    "id": "38010409",
    "name": "鮨　いの",
    "url": "https://tabelog.com/ehime/A3801/A380101/38010409/",
    "image": "https://tblg.k-img.com/restaurant/images/Rvw/279967/640x640_rect_1c9d1ecbb7689ba9b2401f6d46afbcfd.jpg",
    "address": "愛媛県松山市二番町1-10-9 MITUWA320 3F",
    "rating": 4.17,
    "ratingCount": 433,
    "lat": 33.84014774056487,
    "lng": 132.7723154890699,
    "genre": "寿司"
  },
  {
    "rank": 9,
    "id": "38006443",
    "name": "しの田",
    "url": "https://tabelog.com/ehime/A3802/A380201/38006443/",
    "image": "https://tblg.k-img.com/restaurant/images/Rvw/279880/640x640_rect_aa5ff7bac4ee53772269bfbe04104d89.jpg",
    "address": "愛媛県今治市松本町2-2-4",
    "rating": 4.12,
    "ratingCount": 57,
    "lat": 34.06370109758907,
    "lng": 133.00190398278764,
    "genre": "日本料理"
  },
  {
    "rank": 6,
    "id": "38013243",
    "name": "道後 海舟",
    "url": "https://tabelog.com/ehime/A3801/A380101/38013243/",
    "image": "https://tblg.k-img.com/restaurant/images/Rvw/339877/640x640_rect_411e190c35c74c01b40e2f630646f71e.jpg",
    "address": "愛媛県松山市道後湯乃町15-27",
    "rating": 4.11,
    "ratingCount": 175,
    "lat": 33.85196473765428,
    "lng": 132.78439054080138,
    "genre": "日本料理"
  },
  {
    "rank": 47,
    "id": "38009262",
    "name": "名前のないイタリア料理店",
    "url": "https://tabelog.com/ehime/A3801/A380101/38009262/",
    "image": "https://tblg.k-img.com/restaurant/images/Rvw/208445/640x640_rect_6ba1c0a83281c3aab6064b7dfec63f7f.jpg",
    "address": "愛媛県松山市千舟町4-1-4 ヒラキビル 1F",
    "rating": 3.99,
    "ratingCount": 224,
    "lat": 33.83658923685326,
    "lng": 132.7674047694962,
    "genre": "イタリアン"
  },
  {
    "rank": 61,
    "id": "38013130",
    "name": "ラピ",
    "url": "https://tabelog.com/ehime/A3801/A380103/38013130/",
    "image": "https://tblg.k-img.com/restaurant/images/Rvw/296002/640x640_rect_1f39b19d1523443294d753c0f61c256a.jpg",
    "address": "愛媛県伊予市上三谷甲2209-13",
    "rating": 3.9,
    "ratingCount": 46,
    "lat": 33.762728137697486,
    "lng": 132.74209332992965,
    "genre": "イタリアン"
  },
  {
    "rank": 62,
    "id": "38013098",
    "name": "鮨かわなか",
    "url": "https://tabelog.com/ehime/A3801/A380101/38013098/",
    "image": "https://tblg.k-img.com/restaurant/images/Rvw/117645/640x640_rect_117645624.jpg",
    "address": "愛媛県松山市一番町1-11-9",
    "rating": 3.84,
    "ratingCount": 115,
    "lat": 33.841210236851914,
    "lng": 132.77240546953934,
    "genre": "寿司"
  },
  {
    "rank": 2,
    "id": "38007273",
    "name": "手打ち蕎麦　いよ翁",
    "url": "https://tabelog.com/ehime/A3801/A380103/38007273/",
    "image": "https://tblg.k-img.com/restaurant/images/Rvw/203562/640x640_rect_250dee0e389118013642d87c99a97f38.jpg",
    "address": "愛媛県伊予郡松前町鶴吉5-5",
    "rating": 3.75,
    "ratingCount": 271,
    "lat": 33.78306545768528,
    "lng": 132.74433572013348,
    "genre": "そば"
  },
  {
    "rank": 95,
    "id": "38012016",
    "name": "洋食屋 Shii",
    "url": "https://tabelog.com/ehime/A3801/A380101/38012016/",
    "image": "https://tblg.k-img.com/restaurant/images/Rvw/219439/640x640_rect_7e7d73238a3a795fa093e922f96b3c62.jpg",
    "address": "愛媛県松山市三番町5-3-8 フレッシュリーブス 404",
    "rating": 3.73,
    "ratingCount": 224,
    "lat": 33.837178987656905,
    "lng": 132.76314439066692,
    "genre": "洋食"
  },
  {
    "rank": 44,
    "id": "38001193",
    "name": "西條そば 甲",
    "url": "https://tabelog.com/ehime/A3802/A380202/38001193/",
    "image": "https://tblg.k-img.com/restaurant/images/Rvw/243044/640x640_rect_fc78fc28b5d51f16d0333848106d7d7d.jpg",
    "address": "愛媛県西条市朔日市783-6",
    "rating": 3.71,
    "ratingCount": 184,
    "lat": 33.927688507731645,
    "lng": 133.1783449312901,
    "genre": "そば"
  },
  {
    "rank": 90,
    "id": "38010028",
    "name": "ピッツェリア トレンタノーヴェ",
    "url": "https://tabelog.com/ehime/A3801/A380103/38010028/",
    "image": "https://tblg.k-img.com/restaurant/images/Rvw/235906/640x640_rect_05c460fe135b5bbb37a1a6817fcff042.jpg",
    "address": "愛媛県伊予郡砥部町重光147-1",
    "rating": 3.69,
    "ratingCount": 111,
    "lat": 33.78701191769519,
    "lng": 132.78329911014606,
    "genre": "ピザ"
  },
  {
    "rank": 60,
    "id": "38001214",
    "name": "炭心",
    "url": "https://tabelog.com/ehime/A3801/A380101/38001214/",
    "image": "https://tblg.k-img.com/restaurant/images/Rvw/140687/640x640_rect_140687913.jpg",
    "address": "愛媛県松山市二番町2-1-6 ささやビル１F",
    "rating": 3.69,
    "ratingCount": 171,
    "lat": 33.83913435765825,
    "lng": 132.77129426068095,
    "genre": "焼き鳥"
  },
  {
    "rank": 33,
    "id": "38000161",
    "name": "上海点心 豫園",
    "url": "https://tabelog.com/ehime/A3801/A380101/38000161/",
    "image": "https://tblg.k-img.com/restaurant/images/Rvw/219442/640x640_rect_038abdcd7bdb083fa8c03f53cf1a4fc1.jpg",
    "address": "愛媛県松山市朝生田町5-8-15",
    "rating": 3.67,
    "ratingCount": 245,
    "lat": 33.8200665276705,
    "lng": 132.77170004048807,
    "genre": "中国料理"
  },
  {
    "rank": 73,
    "id": "38000678",
    "name": "ラ・セーラ",
    "url": "https://tabelog.com/ehime/A3801/A380101/38000678/",
    "image": "https://tblg.k-img.com/restaurant/images/Rvw/33525/640x640_rect_33525400.jpg",
    "address": "愛媛県松山市千舟町3-2-4 鴻池ビル 2F",
    "rating": 3.67,
    "ratingCount": 269,
    "lat": 33.83653089765903,
    "lng": 132.76853077065658,
    "genre": "イタリアン"
  },
  {
    "rank": 56,
    "id": "38000348",
    "name": "鍋焼うどん アサヒ",
    "url": "https://tabelog.com/ehime/A3801/A380101/38000348/",
    "image": "https://tblg.k-img.com/restaurant/images/Rvw/62723/640x640_rect_62723730.jpg",
    "address": "愛媛県松山市湊町3-10-11",
    "rating": 3.67,
    "ratingCount": 901,
    "lat": 33.836409637659386,
    "lng": 132.76942501065474,
    "genre": "うどん"
  },
  {
    "rank": 29,
    "id": "38000209",
    "name": "霧の森菓子工房 松山店",
    "url": "https://tabelog.com/ehime/A3801/A380101/38000209/",
    "image": "https://tblg.k-img.com/restaurant/images/Rvw/242906/640x640_rect_0434324c662bf190b66f55494286a5c1.jpg",
    "address": "愛媛県松山市大街道3-3-1",
    "rating": 3.66,
    "ratingCount": 799,
    "lat": 33.84196650765617,
    "lng": 132.77038220071017,
    "genre": "和菓子・甘味処"
  },
  {
    "rank": 2,
    "id": "38000956",
    "name": "地鶏焼 ふかせ",
    "url": "https://tabelog.com/ehime/A3803/A380301/38000956/",
    "image": "https://tblg.k-img.com/restaurant/images/Rvw/113986/640x640_rect_113986282.jpg",
    "address": "愛媛県大洲市肱川町宇和川3752",
    "rating": 3.65,
    "ratingCount": 147,
    "lat": 33.47652507785653,
    "lng": 132.67074619708876,
    "genre": "鳥料理"
  },
  {
    "rank": 50,
    "id": "38000037",
    "name": "ことり",
    "url": "https://tabelog.com/ehime/A3801/A380101/38000037/",
    "image": "https://tblg.k-img.com/restaurant/images/Rvw/258666/640x640_rect_a717cd1d9736dc9c5df34c52a0d0b41b.jpg",
    "address": "愛媛県松山市湊町3-7-2",
    "rating": 3.65,
    "ratingCount": 848,
    "lat": 33.836135227659625,
    "lng": 132.76962192065182,
    "genre": "うどん"
  },
  {
    "rank": 7,
    "id": "38005974",
    "name": "さかな工房　丸万",
    "url": "https://tabelog.com/ehime/A3801/A380101/38005974/",
    "image": "https://tblg.k-img.com/restaurant/images/Rvw/119197/640x640_rect_119197086.jpg",
    "address": "愛媛県松山市祇園町3-21",
    "rating": 3.64,
    "ratingCount": 233,
    "lat": 33.83003322766471,
    "lng": 132.77340498058751,
    "genre": "居酒屋"
  },
  {
    "rank": 71,
    "id": "38000085",
    "name": "はち八",
    "url": "https://tabelog.com/ehime/A3802/A380201/38000085/",
    "image": "https://tblg.k-img.com/restaurant/images/Rvw/351278/640x640_rect_09d27ef7abd203a98d04969abeb10ae9.jpg",
    "address": "愛媛県今治市郷本町2-3-8",
    "rating": 3.62,
    "ratingCount": 80,
    "lat": 34.047160607597775,
    "lng": 132.9962553426245,
    "genre": "鳥料理"
  },
  {
    "rank": 72,
    "id": "38012170",
    "name": "富屋",
    "url": "https://tabelog.com/ehime/A3804/A380401/38012170/",
    "image": "https://tblg.k-img.com/restaurant/images/Rvw/353690/640x640_rect_24219647e727368c6284bfac65a6405f.jpg",
    "address": "愛媛県宇和島市和霊元町1-3-2",
    "rating": 3.59,
    "ratingCount": 52,
    "lat": 33.22675600798211,
    "lng": 132.56692916463862,
    "genre": "食堂"
  },
  {
    "rank": 44,
    "id": "38000268",
    "name": "日の出",
    "url": "https://tabelog.com/ehime/A3801/A380101/38000268/",
    "image": "https://tblg.k-img.com/restaurant/images/Rvw/259510/640x640_rect_26de5ebe40e78308baca0dbfad5d08b4.jpg",
    "address": "愛媛県松山市三杉町11-8",
    "rating": 3.54,
    "ratingCount": 301,
    "lat": 33.864989167625225,
    "lng": 132.71915260097865,
    "genre": "お好み焼き"
  },
  {
    "rank": 71,
    "id": "38005468",
    "name": "手打蕎麦まろ",
    "url": "https://tabelog.com/ehime/A3801/A380101/38005468/",
    "image": "https://tblg.k-img.com/restaurant/images/Rvw/258663/640x640_rect_aae89d9b9e06a11749f4700effc31b01.jpg",
    "address": "愛媛県松山市大街道2-5-9 久保豊ビル1F",
    "rating": 3.51,
    "ratingCount": 320,
    "lat": 33.84077713685155,
    "lng": 132.77037806953643,
    "genre": "そば"
  }
]