[
  {
    "rank": 97,
    "id": "15015200",
    "name": "レストラン ウオゼン",
    "url": "https://tabelog.com/niigata/A1501/A150102/15015200/",
    "image": "https://tblg.k-img.com/restaurant/images/Rvw/113510/640x640_rect_113510021.jpg",
    "address": "新潟県三条市東大崎1-10-69-8",
    "rating": 4.47,
    "ratingCount": 233,
    "lat": 37.62720503723318,
    "lng": 138.99112228458404,
    "genre": "フレンチ"
  },
  {
    "rank": 36,
    "id": "15023066",
    "name": "兄弟寿し",
    "url": "https://tabelog.com/niigata/A1501/A150101/15023066/",
    "image": "https://tblg.k-img.com/restaurant/images/Rvw/231610/640x640_rect_c152f5ed161d79c4ff281e4804bacd89.jpg",
    "address": "新潟県新潟市中央区東堀通8-1427-2",
    "rating": 4.43,
    "ratingCount": 296,
    "lat": 37.9237132370623,
    "lng": 139.0458725375407,
    "genre": "寿司"
  },
  {
    "rank": 96,
    "id": "15001790",
    "name": "割烹 新多久",
    "url": "https://tabelog.com/niigata/A1505/A150504/15001790/",
    "image": "https://tblg.k-img.com/restaurant/images/Rvw/194093/640x640_rect_ef4a97431429174983a7b0e1c86fa3b8.jpg",
    "address": "新潟県村上市小町3-38",
    "rating": 4.37,
    "ratingCount": 302,
    "lat": 38.22547433620264,
    "lng": 139.47720970912462,
    "genre": "日本料理"
  },
  {
    "rank": 45,
    "id": "15001390",
    "name": "登喜和鮨 新発田本店",
    "url": "https://tabelog.com/niigata/A1505/A150502/15001390/",
    "image": "https://tblg.k-img.com/restaurant/images/Rvw/67925/640x640_rect_67925601.jpg",
    "address": "新潟県新発田市中央町3-7-8",
    "rating": 4.37,
    "ratingCount": 350,
    "lat": 37.94915463632951,
    "lng": 139.32451290644056,
    "genre": "寿司"
  },
  {
    "rank": 91,
    "id": "15024021",
    "name": "登喜和鮨 新潟店",
    "url": "https://tabelog.com/niigata/A1501/A150101/15024021/",
    "image": "https://tblg.k-img.com/restaurant/images/Rvw/334564/640x640_rect_c9e04d6273f1431ded960336ffcac8ad.jpg",
    "address": "新潟県新潟市中央区本町通り七番町1151 第一クレジットビル　1F",
    "rating": 4.2,
    "ratingCount": 88,
    "lat": 37.922865104161524,
    "lng": 139.04741692234757,
    "genre": "寿司"
  },
  {
    "rank": 78,
    "id": "15020999",
    "name": "割烹 渡辺",
    "url": "https://tabelog.com/niigata/A1501/A150101/15020999/",
    "image": "https://tblg.k-img.com/restaurant/images/Rvw/347280/640x640_rect_411d3a8267870fe880adde07fdcbc4fc.jpg",
    "address": "新潟県新潟市西蒲区巻甲2443",
    "rating": 3.93,
    "ratingCount": 93,
    "lat": 37.75558013631323,
    "lng": 138.8873762047917,
    "genre": "日本料理"
  },
  {
    "rank": 38,
    "id": "15000056",
    "name": "欅苑",
    "url": "https://tabelog.com/niigata/A1504/A150402/15000056/",
    "image": "https://tblg.k-img.com/restaurant/images/Rvw/253975/640x640_rect_a665a20aa38279493098259873ea5db8.jpg",
    "address": "新潟県南魚沼市長森24",
    "rating": 3.9,
    "ratingCount": 112,
    "lat": 37.10788466754285,
    "lng": 138.92778983938283,
    "genre": "日本料理"
  },
  {
    "rank": 7,
    "id": "15020926",
    "name": "アマランサス",
    "url": "https://tabelog.com/niigata/A1501/A150101/15020926/",
    "image": "https://tblg.k-img.com/restaurant/images/Rvw/366420/640x640_rect_173d16d5e102764c2e88f54626347ab3.jpg",
    "address": "新潟県新潟市中央区寄居町332-61 2F",
    "rating": 3.85,
    "ratingCount": 48,
    "lat": 37.92211486706169,
    "lng": 139.04077373752807,
    "genre": "イタリアン"
  },
  {
    "rank": 9,
    "id": "15003960",
    "name": "日本料理 魚幸",
    "url": "https://tabelog.com/niigata/A1501/A150102/15003960/",
    "image": "https://tblg.k-img.com/restaurant/images/Rvw/356614/320x320_rect_1cf29aab7f5296e0bcc32e768bc2b5a2.jpg",
    "address": "新潟県燕市米納津3216",
    "rating": 3.83,
    "ratingCount": 46,
    "lat": 37.70365078715767,
    "lng": 138.90645835541557,
    "genre": "日本料理"
  },
  {
    "rank": 77,
    "id": "15000043",
    "name": "いち井",
    "url": "https://tabelog.com/niigata/A1502/A150201/15000043/",
    "image": "https://tblg.k-img.com/restaurant/images/Rvw/114963/640x640_rect_114963916.jpg",
    "address": "新潟県長岡市曙1-1-5",
    "rating": 3.83,
    "ratingCount": 1103,
    "lat": 37.4250466673163,
    "lng": 138.8489488526417,
    "genre": "ラーメン"
  },
  {
    "rank": 70,
    "id": "15004455",
    "name": "龍寿し",
    "url": "https://tabelog.com/niigata/A1504/A150402/15004455/",
    "image": "https://tblg.k-img.com/restaurant/images/Rvw/243997/640x640_rect_45d3e5255018de9b813fc43a63eaff05.jpg",
    "address": "新潟県南魚沼市大崎1838-1",
    "rating": 3.82,
    "ratingCount": 123,
    "lat": 37.130229636727684,
    "lng": 138.94161089843706,
    "genre": "寿司"
  },
  {
    "rank": 14,
    "id": "15001265",
    "name": "宮野屋",
    "url": "https://tabelog.com/niigata/A1504/A150402/15001265/",
    "image": "https://tblg.k-img.com/restaurant/images/Rvw/226462/640x640_rect_b3ff3c230def21dbfbe27bf94c088772.jpg",
    "address": "新潟県南魚沼市大崎3742",
    "rating": 3.8,
    "ratingCount": 212,
    "lat": 37.124863837542335,
    "lng": 138.96006005953168,
    "genre": "そば"
  },
  {
    "rank": 96,
    "id": "15002700",
    "name": "オステリア バッコ",
    "url": "https://tabelog.com/niigata/A1501/A150101/15002700/",
    "image": "https://tblg.k-img.com/restaurant/images/Rvw/314553/640x640_rect_96f541c2eb74e1aea1e406b0195fb2f2.jpg",
    "address": "新潟県新潟市中央区西大畑町591-1 異人池ハウス1F",
    "rating": 3.78,
    "ratingCount": 121,
    "lat": 37.9254285070584,
    "lng": 139.03705197756418,
    "genre": "イタリアン"
  },
  {
    "rank": 64,
    "id": "15000024",
    "name": "鍋茶屋 光琳",
    "url": "https://tabelog.com/niigata/A1501/A150101/15000024/",
    "image": "https://tblg.k-img.com/restaurant/images/Rvw/361032/640x640_rect_5ce4ba00a32c90402a084401f5b556e2.jpg",
    "address": "新潟県新潟市中央区東堀通8番町1420",
    "rating": 3.78,
    "ratingCount": 70,
    "lat": 37.92424957706201,
    "lng": 139.04603074754598,
    "genre": "日本料理"
  },
  {
    "rank": 90,
    "id": "15009579",
    "name": "割烹 長吉",
    "url": "https://tabelog.com/niigata/A1501/A150101/15009579/",
    "image": "https://tblg.k-img.com/restaurant/images/Rvw/207404/640x640_rect_d72f20f6ff5b65938de22f067ec52eca.jpg",
    "address": "新潟県新潟市西蒲区山口新田91",
    "rating": 3.78,
    "ratingCount": 103,
    "lat": 37.76785863633196,
    "lng": 138.97065060485733,
    "genre": "鳥料理"
  },
  {
    "rank": 56,
    "id": "15016478",
    "name": "レストラン イソ",
    "url": "https://tabelog.com/niigata/A1501/A150101/15016478/",
    "image": "https://tblg.k-img.com/restaurant/images/Rvw/231815/640x640_rect_9eda321e27a6f0a46eb0888da915e51a.jpg",
    "address": "新潟県新潟市中央区春日町7-13",
    "rating": 3.77,
    "ratingCount": 49,
    "lat": 37.912405807071835,
    "lng": 139.05328576742127,
    "genre": "フレンチ"
  },
  {
    "rank": 70,
    "id": "15000002",
    "name": "杭州飯店",
    "url": "https://tabelog.com/niigata/A1501/A150102/15000002/",
    "image": "https://tblg.k-img.com/restaurant/images/Rvw/338472/640x640_rect_7c6e897546b49b1d3dd338b5a4e7d976.jpg",
    "address": "新潟県燕市燕49-4",
    "rating": 3.74,
    "ratingCount": 1560,
    "lat": 37.675294127177764,
    "lng": 138.91301431512454,
    "genre": "ラーメン"
  },
  {
    "rank": 2,
    "id": "15020003",
    "name": "練馬 鳥長 新潟",
    "url": "https://tabelog.com/niigata/A1501/A150101/15020003/",
    "image": "https://tblg.k-img.com/restaurant/images/Rvw/178324/640x640_rect_81ef1cbd039fe563ed0e64608e4e0294.jpg",
    "address": "新潟県新潟市中央区東大通2-1-7 松屋ビル 2F",
    "rating": 3.71,
    "ratingCount": 344,
    "lat": 37.914844236266795,
    "lng": 139.05916540628002,
    "genre": "焼き鳥"
  },
  {
    "rank": 98,
    "id": "15018604",
    "name": "Burger Stand Tender",
    "url": "https://tabelog.com/niigata/A1501/A150101/15018604/",
    "image": "https://tblg.k-img.com/restaurant/images/Rvw/358844/640x640_rect_8222c8d5ede45982d0f953f1d2f3ef86.jpg",
    "address": "新潟県新潟市中央区東中通1番町86-12 福住ビルⅡF1",
    "rating": 3.7,
    "ratingCount": 255,
    "lat": 37.917227237063756,
    "lng": 139.03750216748102,
    "genre": "ハンバーガー"
  },
  {
    "rank": 24,
    "id": "15000116",
    "name": "麺屋あごすけ",
    "url": "https://tabelog.com/niigata/A1503/A150301/15000116/",
    "image": "https://tblg.k-img.com/restaurant/images/Rvw/90386/640x640_rect_90386903.jpg",
    "address": "新潟県上越市大字下門前1650",
    "rating": 3.69,
    "ratingCount": 905,
    "lat": 37.15618251729772,
    "lng": 138.2544077303427,
    "genre": "ラーメン"
  },
  {
    "rank": 1,
    "id": "15011022",
    "name": "新潟本町 鈴木鮮魚",
    "url": "https://tabelog.com/niigata/A1501/A150101/15011022/",
    "image": "https://tblg.k-img.com/restaurant/images/Rvw/358844/640x640_rect_106b06233d1b3a31af671fcf62c60f39.jpg",
    "address": "新潟県新潟市中央区本町通6番町1114",
    "rating": 3.69,
    "ratingCount": 554,
    "lat": 37.920177337064665,
    "lng": 139.04625576750468,
    "genre": "食堂"
  },
  {
    "rank": 94,
    "id": "15008980",
    "name": "越後一会 十郎",
    "url": "https://tabelog.com/niigata/A1501/A150101/15008980/",
    "image": "https://tblg.k-img.com/restaurant/images/Rvw/303191/640x640_rect_eea869bd1a719ac9f86379b5bc52310b.jpg",
    "address": "新潟県新潟市中央区東大通2-1-7 松屋ビル　１Ｆ",
    "rating": 3.68,
    "ratingCount": 772,
    "lat": 37.914841436266805,
    "lng": 139.05919280627995,
    "genre": "居酒屋"
  },
  {
    "rank": 29,
    "id": "15000112",
    "name": "とん汁 たちばな",
    "url": "https://tabelog.com/niigata/A1503/A150303/15000112/",
    "image": "https://tblg.k-img.com/restaurant/images/Rvw/250041/640x640_rect_e15638417edd461b6da24b4af957477b.jpg",
    "address": "新潟県妙高市栗原2-3-10",
    "rating": 3.68,
    "ratingCount": 724,
    "lat": 37.042398636566645,
    "lng": 138.26077889802716,
    "genre": "食堂"
  },
  {
    "rank": 57,
    "id": "15000005",
    "name": "食堂ニューミサ",
    "url": "https://tabelog.com/niigata/A1503/A150301/15000005/",
    "image": "https://tblg.k-img.com/restaurant/images/Rvw/359127/640x640_rect_56a5b99fbe9d8713ae082640020f787a.jpg",
    "address": "新潟県上越市中郷区稲荷山367",
    "rating": 3.68,
    "ratingCount": 586,
    "lat": 36.94490908742086,
    "lng": 138.21974401823292,
    "genre": "食堂"
  },
  {
    "rank": 69,
    "id": "15002650",
    "name": "Paris パイ",
    "url": "https://tabelog.com/niigata/A1502/A150201/15002650/",
    "image": "https://tblg.k-img.com/restaurant/images/Rvw/340145/640x640_rect_0b7f38e2adda02fa540879cf9bfa3c3e.jpg",
    "address": "新潟県長岡市大手通1-5-7",
    "rating": 3.68,
    "ratingCount": 575,
    "lat": 37.447625037302615,
    "lng": 138.8510169328683,
    "genre": "スイーツ"
  },
  {
    "rank": 98,
    "id": "15002758",
    "name": "酒肴屋 いっこう",
    "url": "https://tabelog.com/niigata/A1501/A150101/15002758/",
    "image": "https://tblg.k-img.com/restaurant/images/Rvw/367343/640x640_rect_2e89ef971d61cc520684b726a8c87b71.jpg",
    "address": "新潟県新潟市中央区西堀通6-889",
    "rating": 3.66,
    "ratingCount": 122,
    "lat": 37.923841129254356,
    "lng": 139.04348814563662,
    "genre": "居酒屋"
  },
  {
    "rank": 10,
    "id": "15001410",
    "name": "鮨 奈可久 星野",
    "url": "https://tabelog.com/niigata/A1501/A150101/15001410/",
    "image": "https://tblg.k-img.com/restaurant/images/Rvw/319067/640x640_rect_9e4f3a409f81c9cb1d922eb2d26639fe.jpg",
    "address": "新潟県新潟市中央区西堀通5番町833-11",
    "rating": 3.66,
    "ratingCount": 122,
    "lat": 37.92102603625763,
    "lng": 139.04272300635395,
    "genre": "寿司"
  },
  {
    "rank": 41,
    "id": "15013868",
    "name": "FRENCH TEPPAN 静香庵",
    "url": "https://tabelog.com/niigata/A1501/A150101/15013868/",
    "image": "https://tblg.k-img.com/restaurant/images/Rvw/181486/640x640_rect_80baf2af98016ec9654123de6a02b836.jpg",
    "address": "新潟県新潟市中央区万代3-1-1 メディアシップ １９階",
    "rating": 3.65,
    "ratingCount": 145,
    "lat": 37.91859343626337,
    "lng": 139.0558959063202,
    "genre": "ステーキ・鉄板焼き"
  },
  {
    "rank": 74,
    "id": "15001277",
    "name": "江戸庄",
    "url": "https://tabelog.com/niigata/A1505/A150504/15001277/",
    "image": "https://tblg.k-img.com/restaurant/images/Rvw/359500/640x640_rect_d94c98d385932a5160af0828265fc116.jpg",
    "address": "新潟県村上市大町2-17",
    "rating": 3.65,
    "ratingCount": 97,
    "lat": 38.22462692700915,
    "lng": 139.4791040702765,
    "genre": "すき焼き・しゃぶしゃぶ"
  },
  {
    "rank": 45,
    "id": "15000054",
    "name": "ラ・ロカンダ・デル・ピットーレ",
    "url": "https://tabelog.com/niigata/A1504/A150404/15000054/",
    "image": "https://tblg.k-img.com/restaurant/images/Rvw/358713/640x640_rect_8998c73f37d9551848e4d0a63efb4492.jpg",
    "address": "新潟県南魚沼郡湯沢町 岩原スキー場",
    "rating": 3.64,
    "ratingCount": 297,
    "lat": 36.937288630375065,
    "lng": 138.8437028296309,
    "genre": "イタリアン"
  },
  {
    "rank": 77,
    "id": "15000667",
    "name": "葱ぼうず",
    "url": "https://tabelog.com/niigata/A1501/A150101/15000667/",
    "image": "https://tblg.k-img.com/restaurant/images/Rvw/143668/640x640_rect_143668857.jpg",
    "address": "新潟県新潟市中央区笹口1-10-1",
    "rating": 3.64,
    "ratingCount": 578,
    "lat": 37.91159873627036,
    "lng": 139.0639092062439,
    "genre": "居酒屋"
  },
  {
    "rank": 9,
    "id": "15011511",
    "name": "鳥やす",
    "url": "https://tabelog.com/niigata/A1501/A150101/15011511/",
    "image": "https://tblg.k-img.com/restaurant/images/Rvw/24156/640x640_rect_24156616.jpg",
    "address": "新潟県新潟市中央区上大川前通11-1899",
    "rating": 3.64,
    "ratingCount": 89,
    "lat": 37.92751109706102,
    "lng": 139.04943820757651,
    "genre": "鳥料理"
  },
  {
    "rank": 2,
    "id": "15023744",
    "name": "焼肉 はっち",
    "url": "https://tabelog.com/niigata/A1501/A150101/15023744/",
    "image": "https://tblg.k-img.com/restaurant/images/Rvw/307415/640x640_rect_1e0454d7578d5154a609ad12143ffa21.jpg",
    "address": "新潟県新潟市中央区古町通9番町1477-2",
    "rating": 3.64,
    "ratingCount": 49,
    "lat": 37.925839277060795,
    "lng": 139.04537965756248,
    "genre": "焼肉"
  },
  {
    "rank": 49,
    "id": "15005685",
    "name": "ヤスダヨーグルト CoCoLo南館店",
    "url": "https://tabelog.com/niigata/A1501/A150101/15005685/",
    "image": "https://tblg.k-img.com/restaurant/images/Rvw/142934/640x640_rect_142934926.jpg",
    "address": "新潟県新潟市中央区花園1-1-21 新潟駅ビルCOCOLO南館　3F",
    "rating": 3.63,
    "ratingCount": 305,
    "lat": 37.911872943511284,
    "lng": 139.06314528887413,
    "genre": "アイス・ジェラート"
  },
  {
    "rank": 75,
    "id": "15007046",
    "name": "雁木亭",
    "url": "https://tabelog.com/niigata/A1503/A150301/15007046/",
    "image": "https://tblg.k-img.com/restaurant/images/Rvw/90386/640x640_rect_90386550.jpg",
    "address": "新潟県上越市仲町3-4-9",
    "rating": 3.63,
    "ratingCount": 62,
    "lat": 37.11139937732247,
    "lng": 138.24281567989846,
    "genre": "居酒屋"
  },
  {
    "rank": 77,
    "id": "15008934",
    "name": "笹川餅屋",
    "url": "https://tabelog.com/niigata/A1501/A150101/15008934/",
    "image": "https://tblg.k-img.com/restaurant/images/Rvw/315604/640x640_rect_12b7c75da0cd1a030a81af9d83d9bf5c.jpg",
    "address": "新潟県新潟市中央区西堀前通4番町739",
    "rating": 3.63,
    "ratingCount": 280,
    "lat": 37.91899980706427,
    "lng": 139.0426797874953,
    "genre": "和菓子・甘味処"
  },
  {
    "rank": 64,
    "id": "15000481",
    "name": "やまに",
    "url": "https://tabelog.com/niigata/A1504/A150401/15000481/",
    "image": "https://tblg.k-img.com/restaurant/images/Rvw/144491/640x640_rect_144491735.jpg",
    "address": "新潟県魚沼市小出島124-26",
    "rating": 3.63,
    "ratingCount": 96,
    "lat": 37.22963765747639,
    "lng": 138.9619378205887,
    "genre": "焼肉"
  },
  {
    "rank": 84,
    "id": "15000064",
    "name": "五郎 古町店",
    "url": "https://tabelog.com/niigata/A1501/A150101/15000064/",
    "image": "https://tblg.k-img.com/restaurant/images/Rvw/165772/640x640_rect_fbbd5751d9e6d911e73177285453513c.jpg",
    "address": "新潟県新潟市中央区古町通8番町1446 一蔵ビル 1F",
    "rating": 3.62,
    "ratingCount": 343,
    "lat": 37.9245431970617,
    "lng": 139.0456590675492,
    "genre": "居酒屋"
  },
  {
    "rank": 18,
    "id": "15020489",
    "name": "海鮮食堂 さばや",
    "url": "https://tabelog.com/niigata/A1501/A150101/15020489/",
    "image": "https://tblg.k-img.com/restaurant/images/Rvw/340258/640x640_rect_fac8348e9b6039bb928db82388543979.jpg",
    "address": "新潟県新潟市江南区北山188",
    "rating": 3.61,
    "ratingCount": 192,
    "lat": 37.875425827115535,
    "lng": 139.11675031700324,
    "genre": "食堂"
  },
  {
    "rank": 34,
    "id": "15008683",
    "name": "千代鮨",
    "url": "https://tabelog.com/niigata/A1501/A150101/15008683/",
    "image": "https://tblg.k-img.com/restaurant/images/Rvw/314959/640x640_rect_d37f0e3bc21233ab72c5a241ddb36487.jpg",
    "address": "新潟県新潟市中央区東大通1-5-26",
    "rating": 3.61,
    "ratingCount": 497,
    "lat": 37.91415163626835,
    "lng": 139.06268690627053,
    "genre": "寿司"
  },
  {
    "rank": 79,
    "id": "15000391",
    "name": "寿司安",
    "url": "https://tabelog.com/niigata/A1501/A150101/15000391/",
    "image": "https://tblg.k-img.com/restaurant/images/Rvw/128531/640x640_rect_128531028.jpg",
    "address": "新潟県新潟市中央区本町通4番町273",
    "rating": 3.61,
    "ratingCount": 271,
    "lat": 37.91809000706564,
    "lng": 139.04515727748438,
    "genre": "寿司"
  },
  {
    "rank": 38,
    "id": "15000444",
    "name": "五郎 万代店",
    "url": "https://tabelog.com/niigata/A1501/A150101/15000444/",
    "image": "https://tblg.k-img.com/restaurant/images/Rvw/357382/640x640_rect_75791d2a0b939f725eea002785357e5a.jpg",
    "address": "新潟県新潟市中央区東大通2-3-15 ２Ｆ",
    "rating": 3.6,
    "ratingCount": 691,
    "lat": 37.915896036265956,
    "lng": 139.05865330629098,
    "genre": "居酒屋"
  },
  {
    "rank": 84,
    "id": "15001128",
    "name": "gelateria popolo.",
    "url": "https://tabelog.com/niigata/A1501/A150101/15001128/",
    "image": "https://tblg.k-img.com/restaurant/images/Rvw/226462/640x640_rect_0121fd6ca8d2343711fa75913f384d4e.jpg",
    "address": "新潟県新潟市中央区水道町1丁目5939-37",
    "rating": 3.59,
    "ratingCount": 344,
    "lat": 37.921822287057594,
    "lng": 139.02733498753457,
    "genre": "アイス・ジェラート"
  },
  {
    "rank": 87,
    "id": "15001185",
    "name": "レガーロ",
    "url": "https://tabelog.com/niigata/A1501/A150101/15001185/",
    "image": "https://tblg.k-img.com/restaurant/images/Rvw/142934/640x640_rect_142934843.jpg",
    "address": "新潟県新潟市西蒲区橋本240-7",
    "rating": 3.58,
    "ratingCount": 320,
    "lat": 37.73493793631253,
    "lng": 138.84400640461362,
    "genre": "アイス・ジェラート"
  },
  {
    "rank": 91,
    "id": "15021928",
    "name": "World Burger 新潟駅前店",
    "url": "https://tabelog.com/niigata/A1501/A150101/15021928/",
    "image": "https://tblg.k-img.com/restaurant/images/Rvw/171114/640x640_rect_95510cf60057b4f2c58a341a5236798f.jpg",
    "address": "新潟県新潟市中央区弁天3-2-24",
    "rating": 3.57,
    "ratingCount": 156,
    "lat": 37.91349554274191,
    "lng": 139.05829605454446,
    "genre": "ハンバーガー"
  }
]