[
  {
    "rank": 18,
    "id": "9002357",
    "name": "オトワ レストラン",
    "url": "https://tabelog.com/tochigi/A0901/A090101/9002357/",
    "image": "https://tblg.k-img.com/restaurant/images/Rvw/196200/640x640_rect_56544d765792395dedbca73faac2a177.jpg",
    "address": "栃木県宇都宮市西原町3554-7",
    "rating": 4.4,
    "ratingCount": 366,
    "lat": 36.53961563740334,
    "lng": 139.8853528918098,
    "genre": "フレンチ"
  },
  {
    "rank": 75,
    "id": "9004726",
    "name": "まつむら",
    "url": "https://tabelog.com/tochigi/A0902/A090202/9004726/",
    "image": "https://tblg.k-img.com/restaurant/images/Rvw/10243/640x640_rect_10243416.jpg",
    "address": "栃木県足利市有楽町834-27",
    "rating": 3.92,
    "ratingCount": 55,
    "lat": 36.34104566819892,
    "lng": 139.45859317126494,
    "genre": "天ぷら"
  },
  {
    "rank": 22,
    "id": "9018935",
    "name": "ヨコクラストアハウス",
    "url": "https://tabelog.com/tochigi/A0902/A090203/9018935/",
    "image": "https://tblg.k-img.com/restaurant/images/Rvw/203304/640x640_rect_62f1131357dbc784171304d93892f7ef.jpg",
    "address": "栃木県小山市横倉596-76",
    "rating": 3.88,
    "ratingCount": 1069,
    "lat": 36.28162409835456,
    "lng": 139.82883682040523,
    "genre": "ラーメン"
  },
  {
    "rank": 21,
    "id": "9016306",
    "name": "ユナイテッド ヌードル アメノオト",
    "url": "https://tabelog.com/tochigi/A0902/A090202/9016306/",
    "image": "https://tblg.k-img.com/restaurant/images/Rvw/338933/640x640_rect_45e808ba9dbd3bc65d121c4325ee9ae8.jpg",
    "address": "栃木県佐野市堀米町455-1 シルフィード 1F",
    "rating": 3.87,
    "ratingCount": 790,
    "lat": 36.327076778249136,
    "lng": 139.5883956010329,
    "genre": "ラーメン"
  },
  {
    "rank": 54,
    "id": "9012617",
    "name": "麺屋 ようすけ",
    "url": "https://tabelog.com/tochigi/A0902/A090202/9012617/",
    "image": "https://tblg.k-img.com/restaurant/images/Rvw/157482/640x640_rect_157482198.jpg",
    "address": "栃木県佐野市田島町232",
    "rating": 3.76,
    "ratingCount": 2761,
    "lat": 36.29108136826427,
    "lng": 139.56416847068627,
    "genre": "ラーメン"
  },
  {
    "rank": 15,
    "id": "9009352",
    "name": "青竹手打ラーメン 日向屋",
    "url": "https://tabelog.com/tochigi/A0902/A090202/9009352/",
    "image": "https://tblg.k-img.com/restaurant/images/Rvw/16603/640x640_rect_16603537.jpg",
    "address": "栃木県佐野市免鳥町548-7",
    "rating": 3.75,
    "ratingCount": 1542,
    "lat": 36.311566518246416,
    "lng": 139.54894258090386,
    "genre": "ラーメン"
  },
  {
    "rank": 50,
    "id": "9011436",
    "name": "手打 焔",
    "url": "https://tabelog.com/tochigi/A0905/A090501/9011436/",
    "image": "https://tblg.k-img.com/restaurant/images/Rvw/114453/640x640_rect_114453023.jpg",
    "address": "栃木県那須塩原市上厚崎374-2",
    "rating": 3.74,
    "ratingCount": 863,
    "lat": 36.96203294798619,
    "lng": 140.02903671713764,
    "genre": "ラーメン"
  },
  {
    "rank": 9,
    "id": "9000137",
    "name": "とんかつ あづま",
    "url": "https://tabelog.com/tochigi/A0903/A090302/9000137/",
    "image": "https://tblg.k-img.com/restaurant/images/Rvw/48815/640x640_rect_48815323.jpg",
    "address": "栃木県日光市平ケ崎306-1",
    "rating": 3.74,
    "ratingCount": 333,
    "lat": 36.72220123802728,
    "lng": 139.67978247495992,
    "genre": "とんかつ"
  },
  {
    "rank": 8,
    "id": "9000046",
    "name": "正嗣 宮島本店",
    "url": "https://tabelog.com/tochigi/A0901/A090101/9000046/",
    "image": "https://tblg.k-img.com/restaurant/images/Rvw/101022/640x640_rect_101022168.jpg",
    "address": "栃木県宇都宮市馬場通り4-3-1",
    "rating": 3.73,
    "ratingCount": 1591,
    "lat": 36.561644337390106,
    "lng": 139.88771889203062,
    "genre": "餃子"
  },
  {
    "rank": 41,
    "id": "9006290",
    "name": "らーめん大金",
    "url": "https://tabelog.com/tochigi/A0902/A090202/9006290/",
    "image": "https://tblg.k-img.com/restaurant/images/Rvw/52915/640x640_rect_52915494.jpg",
    "address": "栃木県佐野市大橋町3229-7",
    "rating": 3.73,
    "ratingCount": 1320,
    "lat": 36.30778633744826,
    "lng": 139.56405178969334,
    "genre": "ラーメン"
  },
  {
    "rank": 45,
    "id": "9006284",
    "name": "鳥常本店",
    "url": "https://tabelog.com/tochigi/A0902/A090202/9006284/",
    "image": "https://tblg.k-img.com/restaurant/images/Rvw/94519/640x640_rect_94519370.jpg",
    "address": "栃木県足利市通1-2686",
    "rating": 3.72,
    "ratingCount": 300,
    "lat": 36.33331048820207,
    "lng": 139.4530606511907,
    "genre": "うなぎ"
  },
  {
    "rank": 47,
    "id": "9001316",
    "name": "胡桃亭",
    "url": "https://tabelog.com/tochigi/A0905/A090501/9001316/",
    "image": "https://tblg.k-img.com/restaurant/images/Rvw/198151/640x640_rect_9a2d08f10cbd2da4d80155cf676cc5f6.jpg",
    "address": "栃木県那須塩原市一区町131-18",
    "rating": 3.71,
    "ratingCount": 497,
    "lat": 36.846893368043446,
    "lng": 139.97921947600958,
    "genre": "そば"
  },
  {
    "rank": 51,
    "id": "9000108",
    "name": "グルマンズ和牛",
    "url": "https://tabelog.com/tochigi/A0903/A090301/9000108/",
    "image": "https://tblg.k-img.com/restaurant/images/Rvw/157481/640x640_rect_157481941.jpg",
    "address": "栃木県日光市所野1541-297",
    "rating": 3.71,
    "ratingCount": 283,
    "lat": 36.76511181797978,
    "lng": 139.61617658543798,
    "genre": "ステーキ・鉄板焼き"
  },
  {
    "rank": 69,
    "id": "9000022",
    "name": "夢酒OGAWA パイプのけむり",
    "url": "https://tabelog.com/tochigi/A0901/A090101/9000022/",
    "image": "https://tblg.k-img.com/restaurant/images/Rvw/188406/640x640_rect_fecf9e8f398c01a5e2ba451d48908d83.jpg",
    "address": "栃木県宇都宮市泉町2-19",
    "rating": 3.7,
    "ratingCount": 162,
    "lat": 36.56258828819247,
    "lng": 139.88015596320722,
    "genre": "バー"
  },
  {
    "rank": 41,
    "id": "9001322",
    "name": "幸楽",
    "url": "https://tabelog.com/tochigi/A0901/A090101/9001322/",
    "image": "https://tblg.k-img.com/restaurant/images/Rvw/365238/640x640_rect_778a4439c9934661482e356d0d31a255.jpg",
    "address": "栃木県宇都宮市宝木町2-864-4",
    "rating": 3.7,
    "ratingCount": 824,
    "lat": 36.580590637363514,
    "lng": 139.84202039225406,
    "genre": "餃子"
  },
  {
    "rank": 26,
    "id": "9000136",
    "name": "魚登久",
    "url": "https://tabelog.com/tochigi/A0903/A090302/9000136/",
    "image": "https://tblg.k-img.com/restaurant/images/Rvw/209256/640x640_rect_3230d0d634666e2881cdc7650be80a30.jpg",
    "address": "栃木県日光市今市467",
    "rating": 3.7,
    "ratingCount": 360,
    "lat": 36.723958108028015,
    "lng": 139.68556638497364,
    "genre": "うなぎ"
  },
  {
    "rank": 2,
    "id": "9000065",
    "name": "甜蕎屋 源平",
    "url": "https://tabelog.com/tochigi/A0903/A090302/9000065/",
    "image": "https://tblg.k-img.com/restaurant/images/Rvw/176680/640x640_rect_2cd27b8f442787e782a062ba9c2da279.jpg",
    "address": "栃木県日光市木和田島2505-4",
    "rating": 3.69,
    "ratingCount": 312,
    "lat": 36.67898351808008,
    "lng": 139.7593801244676,
    "genre": "そば"
  },
  {
    "rank": 26,
    "id": "9000010",
    "name": "バー・シャモニー",
    "url": "https://tabelog.com/tochigi/A0901/A090101/9000010/",
    "image": "https://tblg.k-img.com/restaurant/images/Rvw/188406/640x640_rect_191438713b8224af58b2965a692c4d4a.jpg",
    "address": "栃木県宇都宮市江野町10-2",
    "rating": 3.68,
    "ratingCount": 136,
    "lat": 36.56008803819506,
    "lng": 139.8833097631798,
    "genre": "バー"
  },
  {
    "rank": 7,
    "id": "9018659",
    "name": "妙月坊",
    "url": "https://tabelog.com/tochigi/A0903/A090301/9018659/",
    "image": "https://tblg.k-img.com/restaurant/images/Rvw/270262/640x640_rect_442e765abf22f5fd1814caa4a784c5f7.jpg",
    "address": "栃木県日光市山内2381",
    "rating": 3.68,
    "ratingCount": 264,
    "lat": 36.75410157798284,
    "lng": 139.6038308553354,
    "genre": "ステーキ・鉄板焼き"
  },
  {
    "rank": 43,
    "id": "9007919",
    "name": "存じやす　極",
    "url": "https://tabelog.com/tochigi/A0901/A090101/9007919/",
    "image": "https://tblg.k-img.com/restaurant/images/Rvw/344650/640x640_rect_b3d6403306b5c4bded588dde775623e5.jpg",
    "address": "栃木県宇都宮市中央5-3-5",
    "rating": 3.68,
    "ratingCount": 44,
    "lat": 36.558297908197126,
    "lng": 139.88623408315965,
    "genre": "ステーキ・鉄板焼き"
  },
  {
    "rank": 67,
    "id": "9000141",
    "name": "とんかつ ひやま",
    "url": "https://tabelog.com/tochigi/A0901/A090101/9000141/",
    "image": "https://tblg.k-img.com/restaurant/images/Rvw/365392/640x640_rect_f5575f73d26a08ce4460a5e65be24a60.jpg",
    "address": "栃木県宇都宮市若松原2-2-7",
    "rating": 3.68,
    "ratingCount": 379,
    "lat": 36.50277410822613,
    "lng": 139.8665406926126,
    "genre": "とんかつ"
  },
  {
    "rank": 42,
    "id": "9000098",
    "name": "ナス・ショウゾウ カフェ",
    "url": "https://tabelog.com/tochigi/A0905/A090501/9000098/",
    "image": "https://tblg.k-img.com/restaurant/images/Rvw/159705/640x640_rect_159705240.jpg",
    "address": "栃木県那須郡那須町高久乙2730-25",
    "rating": 3.67,
    "ratingCount": 1056,
    "lat": 37.05460795792255,
    "lng": 140.01382181808341,
    "genre": "カフェ"
  },
  {
    "rank": 74,
    "id": "9010705",
    "name": "香蘭",
    "url": "https://tabelog.com/tochigi/A0901/A090101/9010705/",
    "image": "https://tblg.k-img.com/restaurant/images/Rvw/72673/640x640_rect_72673009.jpg",
    "address": "栃木県宇都宮市本町1-24",
    "rating": 3.67,
    "ratingCount": 2192,
    "lat": 36.56265667819314,
    "lng": 139.88240093320636,
    "genre": "餃子"
  },
  {
    "rank": 66,
    "id": "9000024",
    "name": "川蝉",
    "url": "https://tabelog.com/tochigi/A0901/A090101/9000024/",
    "image": "https://tblg.k-img.com/restaurant/images/Rvw/113450/320x320_rect_113450282.jpg",
    "address": "栃木県宇都宮市大通り5-1-19",
    "rating": 3.67,
    "ratingCount": 570,
    "lat": 36.56135490819706,
    "lng": 139.8921113731864,
    "genre": "うなぎ"
  },
  {
    "rank": 98,
    "id": "9000107",
    "name": "明治の館",
    "url": "https://tabelog.com/tochigi/A0903/A090301/9000107/",
    "image": "https://tblg.k-img.com/restaurant/images/Rvw/23766/640x640_rect_23766514.jpg",
    "address": "栃木県日光市山内2339-1",
    "rating": 3.67,
    "ratingCount": 1635,
    "lat": 36.756759447980876,
    "lng": 139.60299468536283,
    "genre": "洋食"
  },
  {
    "rank": 71,
    "id": "9003450",
    "name": "さかえや",
    "url": "https://tabelog.com/tochigi/A0903/A090301/9003450/",
    "image": "https://tblg.k-img.com/restaurant/images/Rvw/209146/640x640_rect_64244b90aed35d97efd943e5fb73f300.jpg",
    "address": "栃木県日光市松原町10-1",
    "rating": 3.66,
    "ratingCount": 986,
    "lat": 36.7478097379916,
    "lng": 139.61882555526134,
    "genre": "和菓子・甘味処"
  },
  {
    "rank": 15,
    "id": "9002708",
    "name": "NAOZO",
    "url": "https://tabelog.com/tochigi/A0905/A090501/9002708/",
    "image": "https://tblg.k-img.com/restaurant/images/Rvw/159705/640x640_rect_159705626.jpg",
    "address": "栃木県那須塩原市西岩崎232-454",
    "rating": 3.65,
    "ratingCount": 451,
    "lat": 37.02685010792988,
    "lng": 139.98150052782566,
    "genre": "パン"
  },
  {
    "rank": 75,
    "id": "9014744",
    "name": "悟空",
    "url": "https://tabelog.com/tochigi/A0901/A090101/9014744/",
    "image": "https://tblg.k-img.com/restaurant/images/Rvw/35387/640x640_rect_35387904.jpg",
    "address": "栃木県宇都宮市馬場通り4-2-4 日野屋ビル 1F",
    "rating": 3.65,
    "ratingCount": 1419,
    "lat": 36.56162627764745,
    "lng": 139.88749400276333,
    "genre": "餃子"
  },
  {
    "rank": 49,
    "id": "9003227",
    "name": "松月氷室",
    "url": "https://tabelog.com/tochigi/A0903/A090302/9003227/",
    "image": "https://tblg.k-img.com/restaurant/images/Rvw/279838/640x640_rect_79ad1523307a6933ae000e7f1dec4f81.jpg",
    "address": "栃木県日光市今市379",
    "rating": 3.65,
    "ratingCount": 769,
    "lat": 36.723590438028204,
    "lng": 139.68542677497,
    "genre": "スイーツ"
  },
  {
    "rank": 9,
    "id": "9011706",
    "name": "補陀洛本舗 石屋町店",
    "url": "https://tabelog.com/tochigi/A0903/A090301/9011706/",
    "image": "https://tblg.k-img.com/restaurant/images/Rvw/209145/640x640_rect_8c228a9cf5cd000fc5cfe469f1315763.jpg",
    "address": "栃木県日光市石屋町406-4",
    "rating": 3.65,
    "ratingCount": 501,
    "lat": 36.74881800798975,
    "lng": 139.61502007527417,
    "genre": "和菓子・甘味処"
  },
  {
    "rank": 22,
    "id": "9003113",
    "name": "ぶつをのうどん",
    "url": "https://tabelog.com/tochigi/A0901/A090101/9003113/",
    "image": "https://tblg.k-img.com/restaurant/images/Rvw/3602/640x640_rect_3602152.jpg",
    "address": "栃木県宇都宮市松が峰2-9-3",
    "rating": 3.64,
    "ratingCount": 434,
    "lat": 36.55575378819735,
    "lng": 139.88184634313703,
    "genre": "うどん"
  },
  {
    "rank": 90,
    "id": "9011956",
    "name": "焼肉グレート 宇都宮駅前店",
    "url": "https://tabelog.com/tochigi/A0901/A090101/9011956/",
    "image": "https://tblg.k-img.com/restaurant/images/Rvw/31408/320x320_rect_31408296.jpg",
    "address": "栃木県宇都宮市駅前通り1-4-6 宇都宮西口東横イン向かい",
    "rating": 3.64,
    "ratingCount": 331,
    "lat": 36.56126513739343,
    "lng": 139.89740299202003,
    "genre": "焼肉"
  },
  {
    "rank": 43,
    "id": "9002912",
    "name": "ヴィア ナポリ",
    "url": "https://tabelog.com/tochigi/A0905/A090502/9002912/",
    "image": "https://tblg.k-img.com/restaurant/images/Rvw/354715/640x640_rect_dd8e311405e51b5ba0cbbc4a78af1505.jpg",
    "address": "栃木県矢板市中417-6",
    "rating": 3.63,
    "ratingCount": 168,
    "lat": 36.80857864805479,
    "lng": 139.93843296565115,
    "genre": "ピザ"
  },
  {
    "rank": 71,
    "id": "9011043",
    "name": "ホルモン屋 壺亭",
    "url": "https://tabelog.com/tochigi/A0901/A090101/9011043/",
    "image": "https://tblg.k-img.com/restaurant/images/Rvw/361564/640x640_rect_c2e29b3646424ed5ca74e1a555275e86.jpg",
    "address": "栃木県宇都宮市東宿郷2-17-10 東口屋台村",
    "rating": 3.63,
    "ratingCount": 200,
    "lat": 36.55640063820354,
    "lng": 139.90259770312903,
    "genre": "焼肉"
  },
  {
    "rank": 52,
    "id": "9002887",
    "name": "南ヶ丘牧場 ミルク茶屋",
    "url": "https://tabelog.com/tochigi/A0905/A090501/9002887/",
    "image": "https://tblg.k-img.com/restaurant/images/Rvw/105348/640x640_rect_105348295.jpg",
    "address": "栃木県那須郡那須町湯本579 南ヶ丘牧場内",
    "rating": 3.62,
    "ratingCount": 444,
    "lat": 37.07744801874271,
    "lng": 140.00090610415765,
    "genre": "アイス・ジェラート"
  },
  {
    "rank": 41,
    "id": "9001007",
    "name": "野村屋本店",
    "url": "https://tabelog.com/tochigi/A0902/A090202/9001007/",
    "image": "https://tblg.k-img.com/restaurant/images/Rvw/366503/640x640_rect_6840211c3257e9051d15fbc39b09859a.jpg",
    "address": "栃木県佐野市相生町2819",
    "rating": 3.62,
    "ratingCount": 444,
    "lat": 36.313182658255926,
    "lng": 139.58202428089697,
    "genre": "うどん"
  },
  {
    "rank": 20,
    "id": "9002608",
    "name": "ステーキハウス寿楽 本店",
    "url": "https://tabelog.com/tochigi/A0905/A090501/9002608/",
    "image": "https://tblg.k-img.com/restaurant/images/Rvw/82065/320x320_rect_82065723.jpg",
    "address": "栃木県那須郡那須町湯本379",
    "rating": 3.61,
    "ratingCount": 810,
    "lat": 37.077289168566246,
    "lng": 140.01345983786737,
    "genre": "ステーキ・鉄板焼き"
  },
  {
    "rank": 28,
    "id": "9002883",
    "name": "香雲堂本店",
    "url": "https://tabelog.com/tochigi/A0902/A090202/9002883/",
    "image": "https://tblg.k-img.com/restaurant/images/Rvw/209868/640x640_rect_e76c568c5014941053dd04dcc451f42d.jpg",
    "address": "栃木県足利市通4丁目2570",
    "rating": 3.61,
    "ratingCount": 350,
    "lat": 36.33706328819718,
    "lng": 139.44517382123414,
    "genre": "和菓子・甘味処"
  },
  {
    "rank": 22,
    "id": "9000301",
    "name": "レストラン ペニーレイン 那須店",
    "url": "https://tabelog.com/tochigi/A0905/A090501/9000301/",
    "image": "https://tblg.k-img.com/restaurant/images/Rvw/159705/640x640_rect_159705492.jpg",
    "address": "栃木県那須郡那須町大字湯本656-2",
    "rating": 3.58,
    "ratingCount": 1726,
    "lat": 37.06907000651817,
    "lng": 139.99979241572208,
    "genre": "パン"
  },
  {
    "rank": 49,
    "id": "9019556",
    "name": "餃子といえば芭莉龍",
    "url": "https://tabelog.com/tochigi/A0901/A090101/9019556/",
    "image": "https://tblg.k-img.com/restaurant/images/Rvw/367247/640x640_rect_7ab5d03265abbc945da78168f90528be.jpg",
    "address": "栃木県宇都宮市川向町1-23 宇都宮駅ビルパセオ 1F",
    "rating": 3.57,
    "ratingCount": 1662,
    "lat": 36.55907958820037,
    "lng": 139.8979704531593,
    "genre": "餃子"
  },
  {
    "rank": 3,
    "id": "9020423",
    "name": "餃天堂 シンボルロード店",
    "url": "https://tabelog.com/tochigi/A0901/A090101/9020423/",
    "image": "https://tblg.k-img.com/restaurant/images/Rvw/364300/640x640_rect_b9b63a9291cce3128e831d709f6e3b4b.jpg",
    "address": "栃木県宇都宮市池上町1-11",
    "rating": 3.56,
    "ratingCount": 653,
    "lat": 36.56096943738909,
    "lng": 139.883176292027,
    "genre": "餃子"
  },
  {
    "rank": 13,
    "id": "9020129",
    "name": "香蘭 宇都宮駅西口店",
    "url": "https://tabelog.com/tochigi/A0901/A090101/9020129/",
    "image": "https://tblg.k-img.com/restaurant/images/Rvw/367248/640x640_rect_78e29c337ee913f46180542e3334bd6b.jpg",
    "address": "栃木県宇都宮市駅前通り1-5-9",
    "rating": 3.55,
    "ratingCount": 1608,
    "lat": 36.559430748199865,
    "lng": 139.89708296316348,
    "genre": "餃子"
  },
  {
    "rank": 43,
    "id": "9000111",
    "name": "メインダイニングルーム",
    "url": "https://tabelog.com/tochigi/A0903/A090301/9000111/",
    "image": "https://tblg.k-img.com/restaurant/images/Rvw/161723/640x640_rect_161723807.jpg",
    "address": "栃木県日光市上鉢石町1300 日光金谷ホテル 2F",
    "rating": 3.52,
    "ratingCount": 196,
    "lat": 36.75217184798417,
    "lng": 139.60418601531566,
    "genre": "洋食"
  },
  {
    "rank": 50,
    "id": "9000045",
    "name": "宇都宮みんみん 本店",
    "url": "https://tabelog.com/tochigi/A0901/A090101/9000045/",
    "image": "https://tblg.k-img.com/restaurant/images/Rvw/216932/640x640_rect_a56008d3f5352865588daa37b8ebdaf2.jpg",
    "address": "栃木県宇都宮市馬場通り4-2-3",
    "rating": 3.49,
    "ratingCount": 2853,
    "lat": 36.56162214819538,
    "lng": 139.8873770031924,
    "genre": "餃子"
  },
  {
    "rank": 51,
    "id": "9003252",
    "name": "カフェ＆ガーデン しらさぎ邸",
    "url": "https://tabelog.com/tochigi/A0905/A090501/9003252/",
    "image": "https://tblg.k-img.com/restaurant/images/Rvw/208297/640x640_rect_fb4fb576366d06aa8f3803a08453106b.jpg",
    "address": "栃木県那須郡那須町高久甲喰木原2888 チーズガーデン那須本店",
    "rating": 3.49,
    "ratingCount": 409,
    "lat": 37.02867015794204,
    "lng": 140.02331141781474,
    "genre": "洋食"
  },
  {
    "rank": 83,
    "id": "9019084",
    "name": "南国食堂 マムアン",
    "url": "https://tabelog.com/tochigi/A0905/A090501/9019084/",
    "image": "https://tblg.k-img.com/restaurant/images/Rvw/288508/640x640_rect_6035de54e5844b911db6b2718bf709d3.jpg",
    "address": "栃木県那須塩原市上厚崎377-55",
    "rating": 3.33,
    "ratingCount": 35,
    "lat": 36.96623833798419,
    "lng": 140.03114519717863,
    "genre": "アジア・エスニック"
  }
]