[
  {
    "rank": 12,
    "id": "35010129",
    "name": "レストラン 高津",
    "url": "https://tabelog.com/yamaguchi/A3502/A350201/35010129/",
    "image": "https://tblg.k-img.com/restaurant/images/Rvw/280889/640x640_rect_7a8d2d2657de69b7d3817d756327dab6.jpg",
    "address": "山口県下関市岬之町13-7",
    "rating": 4.04,
    "ratingCount": 98,
    "lat": 33.95161783619668,
    "lng": 130.93513217194246,
    "genre": "フレンチ"
  },
  {
    "rank": 73,
    "id": "35012723",
    "name": "maison owl",
    "url": "https://tabelog.com/yamaguchi/A3504/A350401/35012723/",
    "image": "https://tblg.k-img.com/restaurant/images/Rvw/276256/640x640_rect_76c7efcc90b08c7e401d9352362c0257.jpg",
    "address": "山口県宇部市大字中宇部字西山1677-1",
    "rating": 3.94,
    "ratingCount": 83,
    "lat": 33.96998853628647,
    "lng": 131.25367667190474,
    "genre": "フレンチ"
  },
  {
    "rank": 44,
    "id": "35002350",
    "name": "三枡",
    "url": "https://tabelog.com/yamaguchi/A3502/A350201/35002350/",
    "image": "https://tblg.k-img.com/restaurant/images/Rvw/364354/640x640_rect_d102c01dd83733b7b558dbf4cf537f3e.jpg",
    "address": "山口県下関市竹崎町2-13-11 三枡ビル",
    "rating": 3.71,
    "ratingCount": 508,
    "lat": 33.951069836193575,
    "lng": 130.92426147194453,
    "genre": "居酒屋"
  },
  {
    "rank": 2,
    "id": "35001993",
    "name": "広島お好み焼き 弘々家",
    "url": "https://tabelog.com/yamaguchi/A3502/A350201/35001993/",
    "image": "https://tblg.k-img.com/restaurant/images/Rvw/349593/640x640_rect_36bf6fba08f44f4c8c7ccf1f6630a4e6.jpg",
    "address": "山口県下関市山の田中央町1-13 武嶋ビル 1F",
    "rating": 3.71,
    "ratingCount": 152,
    "lat": 33.98659378697764,
    "lng": 130.92820438346234,
    "genre": "お好み焼き"
  },
  {
    "rank": 75,
    "id": "35012977",
    "name": "やき鳥 西むら",
    "url": "https://tabelog.com/yamaguchi/A3504/A350401/35012977/",
    "image": "https://tblg.k-img.com/restaurant/images/Rvw/340842/640x640_rect_e0e7bd7da5bee45a48c49227b40fc877.jpg",
    "address": "山口県宇部市松島町8-17",
    "rating": 3.71,
    "ratingCount": 39,
    "lat": 33.956085027098005,
    "lng": 131.24531424293193,
    "genre": "焼き鳥"
  },
  {
    "rank": 33,
    "id": "35000251",
    "name": "日和庵",
    "url": "https://tabelog.com/yamaguchi/A3502/A350201/35000251/",
    "image": "https://tblg.k-img.com/restaurant/images/Rvw/51970/640x640_rect_51970685.jpg",
    "address": "山口県下関市丸山町5-3-19",
    "rating": 3.69,
    "ratingCount": 134,
    "lat": 33.95412863619419,
    "lng": 130.9323268719698,
    "genre": "フレンチ"
  },
  {
    "rank": 29,
    "id": "35000655",
    "name": "そば玉や",
    "url": "https://tabelog.com/yamaguchi/A3506/A350601/35000655/",
    "image": "https://tblg.k-img.com/restaurant/images/Rvw/357658/640x640_rect_75daf1c6a712a334878c21f08d716985.jpg",
    "address": "山口県岩国市麻里布町6-8-22",
    "rating": 3.56,
    "ratingCount": 150,
    "lat": 34.168673777273206,
    "lng": 132.21941641439645,
    "genre": "お好み焼き"
  },
  {
    "rank": 98,
    "id": "35000270",
    "name": "とりまんま",
    "url": "https://tabelog.com/yamaguchi/A3504/A350401/35000270/",
    "image": "https://tblg.k-img.com/restaurant/images/Rvw/24081/640x640_rect_24081088.jpg",
    "address": "山口県宇部市新町8-29 エースハイツ　１F",
    "rating": 3.5,
    "ratingCount": 81,
    "lat": 33.95163893629494,
    "lng": 131.24369807172636,
    "genre": "鳥料理"
  }
]