[
  {
    "rank": 1,
    "id": "26027655",
    "name": "KYOTO STAR BAR",
    "url": "https://tabelog.com/kyoto/A2601/A260202/26027655/",
    "image": "https://tblg.k-img.com/restaurant/images/Rvw/254090/640x640_rect_e5c85a95eefaea581c81626991a144ca.jpg",
    "address": "京都府京都市中京区木屋町通三条下る材木町185-5",
    "rating": 3.68,
    "ratingCount": 138,
    "lat": 35.007281697871605,
    "lng": 135.7708616903777,
    "year": 2022,
    "award": "2022 ・ 百名店 バー",
    "genre": "バー"
  },
  {
    "rank": 2,
    "id": "21000044",
    "name": "BAROSSA cocktailier",
    "url": "https://tabelog.com/gifu/A2101/A210101/21000044/",
    "image": "https://tblg.k-img.com/restaurant/images/Rvw/138525/640x640_rect_138525346.jpg",
    "address": "岐阜県岐阜市金宝町1-12 PORT-A 2F",
    "rating": 3.94,
    "ratingCount": 101,
    "lat": 35.414808137122094,
    "lng": 136.75901638263963,
    "year": 2022,
    "award": "2022 ・ 百名店 バー",
    "genre": "バー"
  },
  {
    "rank": 3,
    "id": "5000051",
    "name": "Lady",
    "url": "https://tabelog.com/akita/A0501/A050101/5000051/",
    "image": "https://tblg.k-img.com/restaurant/images/Rvw/302805/640x640_rect_b66cbc50c50d02dd863e4cd8d26d27a3.jpg",
    "address": "秋田県秋田市大町3-1-11",
    "rating": 3.73,
    "ratingCount": 161,
    "lat": 39.71672468626476,
    "lng": 140.11738489490065,
    "year": 2022,
    "award": "2022 ・ 百名店 バー",
    "genre": "バー"
  },
  {
    "rank": 4,
    "id": "13002169",
    "name": "オールドインペリアル バー",
    "url": "https://tabelog.com/tokyo/A1301/A130102/13002169/",
    "image": "https://tblg.k-img.com/restaurant/images/Rvw/172121/640x640_rect_f610a67be2abd5ceb96dff4ae169eb86.jpg",
    "address": "東京都千代田区内幸町1-1-1 帝国ホテル東京 本館 中2F",
    "rating": 3.78,
    "ratingCount": 462,
    "lat": 35.672371378719205,
    "lng": 139.75876973430033,
    "year": 2022,
    "award": "2022 ・ 百名店 バー",
    "genre": "バー"
  },
  {
    "rank": 5,
    "id": "27001678",
    "name": "バー ラリティー",
    "url": "https://tabelog.com/osaka/A2701/A270201/27001678/",
    "image": "https://tblg.k-img.com/restaurant/images/Rvw/204496/640x640_rect_7d7d066a6a85fca935352935f4379224.jpg",
    "address": "大阪府大阪市中央区博労町4-6-17 第三丸米ビル B1F",
    "rating": 3.68,
    "ratingCount": 180,
    "lat": 34.67778759104881,
    "lng": 135.4989331389666,
    "year": 2022,
    "award": "2022 ・ 百名店 バー",
    "genre": "バー"
  },
  {
    "rank": 6,
    "id": "27001894",
    "name": "北サンボア",
    "url": "https://tabelog.com/osaka/A2701/A270101/27001894/",
    "image": "https://tblg.k-img.com/restaurant/images/Rvw/220364/640x640_rect_e70440e0eddc270dfa77ef4b506e26b3.jpg",
    "address": "大阪府大阪市北区曽根崎2-2-12",
    "rating": 3.66,
    "ratingCount": 124,
    "lat": 34.69923420798149,
    "lng": 135.50154990745492,
    "year": 2022,
    "award": "2022 ・ 百名店 バー",
    "genre": "バー"
  },
  {
    "rank": 7,
    "id": "13147497",
    "name": "Oak",
    "url": "https://tabelog.com/tokyo/A1302/A130201/13147497/",
    "image": "https://tblg.k-img.com/restaurant/images/Rvw/218969/640x640_rect_ecdc7f6106f664cfb3b9f3445610d379.jpg",
    "address": "東京都千代田区丸の内1-9-1 東京ステーションホテル 2F",
    "rating": 3.72,
    "ratingCount": 227,
    "lat": 35.68077604871609,
    "lng": 139.7657573643803,
    "year": 2022,
    "award": "2022 ・ 百名店 バー",
    "genre": "バー"
  },
  {
    "rank": 8,
    "id": "27003573",
    "name": "バー・オーガスタ・ターロギー",
    "url": "https://tabelog.com/osaka/A2701/A270101/27003573/",
    "image": "https://tblg.k-img.com/restaurant/images/Rvw/320021/640x640_rect_8ed76415cffdd47a60dfc049b1842b84.jpg",
    "address": "大阪府大阪市北区鶴野町2-3 アラカワビル　１Ｆ",
    "rating": 3.85,
    "ratingCount": 196,
    "lat": 34.707023427976424,
    "lng": 135.50121041753385,
    "year": 2022,
    "award": "2022 ・ 百名店 バー",
    "genre": "バー"
  },
  {
    "rank": 9,
    "id": "13004802",
    "name": "石の華",
    "url": "https://tabelog.com/tokyo/A1303/A130301/13004802/",
    "image": "https://tblg.k-img.com/restaurant/images/Rvw/173634/640x640_rect_e116a6b0fb9351a465e64fbd4f4a4e09.jpg",
    "address": "東京都渋谷区渋谷3-6-2 第二矢木ビル　Ｂ１Ｆ",
    "rating": 3.74,
    "ratingCount": 383,
    "lat": 35.65798902871122,
    "lng": 139.70500303419274,
    "year": 2022,
    "award": "2022 ・ 百名店 バー",
    "genre": "バー"
  },
  {
    "rank": 10,
    "id": "5003742",
    "name": "BAR ル・ヴェール",
    "url": "https://tabelog.com/akita/A0501/A050101/5003742/",
    "image": "https://tblg.k-img.com/restaurant/images/Rvw/281128/640x640_rect_d5bcd5133218d538e15e3a36052054fe.jpg",
    "address": "秋田県秋田市大町4-1-5",
    "rating": 3.99,
    "ratingCount": 211,
    "lat": 39.715942976265175,
    "lng": 140.11713177489295,
    "year": 2022,
    "award": "2022 ・ 百名店 バー",
    "genre": "バー"
  },
  {
    "rank": 11,
    "id": "23000328",
    "name": "エストマーレ",
    "url": "https://tabelog.com/aichi/A2301/A230101/23000328/",
    "image": "https://tblg.k-img.com/restaurant/images/Rvw/191374/640x640_rect_4d520999797f00433b066d9d6b93b1f0.jpg",
    "address": "愛知県名古屋市中村区名駅1-1-4 名古屋マリオットアソシアホテル 15F",
    "rating": 3.71,
    "ratingCount": 267,
    "lat": 35.170342237316866,
    "lng": 136.88304258008338,
    "year": 2022,
    "award": "2022 ・ 百名店 バー",
    "genre": "バー"
  },
  {
    "rank": 12,
    "id": "23048205",
    "name": "Kreis",
    "url": "https://tabelog.com/aichi/A2301/A230102/23048205/",
    "image": "https://tblg.k-img.com/restaurant/images/Rvw/324815/640x640_rect_48b49b643d60814e9c936d43ae4852f6.jpg",
    "address": "愛知県名古屋市中区栄1-4-12 第一御園山田ビル 2Ｆ",
    "rating": 3.75,
    "ratingCount": 292,
    "lat": 35.16795414033912,
    "lng": 136.8962399184997,
    "year": 2022,
    "award": "2022 ・ 百名店 バー",
    "genre": "バー"
  },
  {
    "rank": 13,
    "id": "40000521",
    "name": "ハート・ストリングス",
    "url": "https://tabelog.com/fukuoka/A4001/A400102/40000521/",
    "image": "https://tblg.k-img.com/restaurant/images/Rvw/137497/640x640_rect_137497974.jpg",
    "address": "福岡県福岡市博多区中洲3-2-12 第3ラインビル 5Ｆ",
    "rating": 3.82,
    "ratingCount": 316,
    "lat": 33.59268373625667,
    "lng": 130.40767646868665,
    "year": 2022,
    "award": "2022 ・ 百名店 バー",
    "genre": "バー"
  },
  {
    "rank": 14,
    "id": "13111408",
    "name": "カルーソー",
    "url": "https://tabelog.com/tokyo/A1304/A130401/13111408/",
    "image": "https://tblg.k-img.com/restaurant/images/Rvw/210043/640x640_rect_a9950fb9f701824eb58bac460ecab1ca.jpg",
    "address": "東京都新宿区新宿3丁目8-8 平田ビル 2F",
    "rating": 3.72,
    "ratingCount": 182,
    "lat": 35.69087193788551,
    "lng": 139.70676768336187,
    "year": 2022,
    "award": "2022 ・ 百名店 バー",
    "genre": "バー"
  },
  {
    "rank": 15,
    "id": "13002270",
    "name": "スタア・バー・ギンザ",
    "url": "https://tabelog.com/tokyo/A1301/A130101/13002270/",
    "image": "https://tblg.k-img.com/restaurant/images/Rvw/343553/640x640_rect_613b45824e0180d53959a9fd2674efd2.jpg",
    "address": "東京都中央区銀座1-5-13 MODERNS GINZA B1F",
    "rating": 3.77,
    "ratingCount": 411,
    "lat": 35.674762838720284,
    "lng": 139.76691388431877,
    "year": 2022,
    "award": "2022 ・ 百名店 バー",
    "genre": "バー"
  },
  {
    "rank": 16,
    "id": "1000001",
    "name": "バーやまざき",
    "url": "https://tabelog.com/hokkaido/A0101/A010103/1000001/",
    "image": "https://tblg.k-img.com/restaurant/images/Rvw/202340/640x640_rect_251e4031870a608f22e907bc8d92b50a.jpg",
    "address": "北海道札幌市中央区南三条西3 克美ビル　４Ｆ",
    "rating": 3.78,
    "ratingCount": 369,
    "lat": 43.05630679453745,
    "lng": 141.35370469776691,
    "year": 2022,
    "award": "2022 ・ 百名店 バー",
    "genre": "バー"
  },
  {
    "rank": 17,
    "id": "4000065",
    "name": "ル・バール カワゴエ",
    "url": "https://tabelog.com/miyagi/A0401/A040101/4000065/",
    "image": "https://tblg.k-img.com/restaurant/images/Rvw/205638/640x640_rect_e642dcda451c5c344b832251735ec3eb.jpg",
    "address": "宮城県仙台市青葉区国分町2-10-30 FOX-Bビル　２Ｆ",
    "rating": 3.73,
    "ratingCount": 184,
    "lat": 38.26422113742697,
    "lng": 140.8700420697014,
    "year": 2022,
    "award": "2022 ・ 百名店 バー",
    "genre": "バー"
  },
  {
    "rank": 18,
    "id": "27057361",
    "name": "バー・ジュニパー",
    "url": "https://tabelog.com/osaka/A2701/A270101/27057361/",
    "image": "https://tblg.k-img.com/restaurant/images/Rvw/204496/640x640_rect_f74582411a91ed200f5ebc9983d1cacc.jpg",
    "address": "大阪府大阪市北区堂島1-4-4 NJビル1F",
    "rating": 3.76,
    "ratingCount": 313,
    "lat": 34.696080467313415,
    "lng": 135.49804526434568,
    "year": 2022,
    "award": "2022 ・ 百名店 バー",
    "genre": "バー"
  },
  {
    "rank": 19,
    "id": "14000469",
    "name": "バー・シーガーディアン Ⅱ",
    "url": "https://tabelog.com/kanagawa/A1401/A140105/14000469/",
    "image": "https://tblg.k-img.com/restaurant/images/Rvw/35602/640x640_rect_35602234.jpg",
    "address": "神奈川県横浜市中区山下町10 ホテルニューグランド本館　１Ｆ",
    "rating": 3.75,
    "ratingCount": 444,
    "lat": 35.444919238023544,
    "lng": 139.64966188091753,
    "year": 2022,
    "award": "2022 ・ 百名店 バー",
    "genre": "バー"
  },
  {
    "rank": 20,
    "id": "13001207",
    "name": "Radio",
    "url": "https://tabelog.com/tokyo/A1306/A130602/13001207/",
    "image": "https://tblg.k-img.com/restaurant/images/Rvw/195233/640x640_rect_26e2db1f94c0dbee043a3c9438d6a629.jpg",
    "address": "東京都港区南青山3-10-34",
    "rating": 3.87,
    "ratingCount": 313,
    "lat": 35.66588643790389,
    "lng": 139.714642183104,
    "year": 2022,
    "award": "2022 ・ 百名店 バー",
    "genre": "バー"
  },
  {
    "rank": 21,
    "id": "13015885",
    "name": "スクリュードライバー",
    "url": "https://tabelog.com/tokyo/A1320/A132001/13015885/",
    "image": "https://tblg.k-img.com/restaurant/images/Rvw/219688/640x640_rect_147798430a8c53754145c8293e094e01.jpg",
    "address": "東京都武蔵野市吉祥寺本町1-20-15 東永ビル 4F",
    "rating": 3.69,
    "ratingCount": 227,
    "lat": 35.70511555864208,
    "lng": 139.58189772475504,
    "year": 2022,
    "award": "2022 ・ 百名店 バー",
    "genre": "バー"
  },
  {
    "rank": 22,
    "id": "23061359",
    "name": "バー キュラソー",
    "url": "https://tabelog.com/aichi/A2301/A230103/23061359/",
    "image": "https://tblg.k-img.com/restaurant/images/Rvw/198760/640x640_rect_409ab0d08032960bb2be6482af2bd389.jpg",
    "address": "愛知県名古屋市中区錦3-9-24 ゴールド錦ビル 4F",
    "rating": 3.81,
    "ratingCount": 281,
    "lat": 35.171579838127954,
    "lng": 136.90349521124332,
    "year": 2022,
    "award": "2022 ・ 百名店 バー",
    "genre": "バー"
  },
  {
    "rank": 23,
    "id": "28005558",
    "name": "ラグナ ザ バー",
    "url": "https://tabelog.com/hyogo/A2801/A280101/28005558/",
    "image": "https://tblg.k-img.com/restaurant/images/Rvw/167288/640x640_rect_69d96b476a53366f2c61e8ee4213749d.jpg",
    "address": "兵庫県神戸市中央区山本通り2-4-24",
    "rating": 4,
    "ratingCount": 439,
    "lat": 34.69780977788313,
    "lng": 135.189864607659,
    "year": 2022,
    "award": "2022 ・ 百名店 バー",
    "genre": "バー"
  },
  {
    "rank": 24,
    "id": "13004998",
    "name": "リトル スミス",
    "url": "https://tabelog.com/tokyo/A1301/A130101/13004998/",
    "image": "https://tblg.k-img.com/restaurant/images/Rvw/343548/640x640_rect_001d08e71caffad9f9357604b528f646.jpg",
    "address": "東京都中央区銀座6-4-12 ＫＮビル　Ｂ２Ｆ",
    "rating": 3.73,
    "ratingCount": 351,
    "lat": 35.67098339872083,
    "lng": 139.76109484428466,
    "year": 2022,
    "award": "2022 ・ 百名店 バー",
    "genre": "バー"
  },
  {
    "rank": 25,
    "id": "13159249",
    "name": "ベンフィディック",
    "url": "https://tabelog.com/tokyo/A1304/A130401/13159249/",
    "image": "https://tblg.k-img.com/restaurant/images/Rvw/20854/320x320_rect_20854146.jpg",
    "address": "東京都新宿区西新宿1-13-7 大和家ビル 9Ｆ",
    "rating": 3.67,
    "ratingCount": 187,
    "lat": 35.68949123868854,
    "lng": 139.6966195745168,
    "year": 2022,
    "award": "2022 ・ 百名店 バー",
    "genre": "バー"
  },
  {
    "rank": 26,
    "id": "9000010",
    "name": "バー・シャモニー",
    "url": "https://tabelog.com/tochigi/A0901/A090101/9000010/",
    "image": "https://tblg.k-img.com/restaurant/images/Rvw/188406/640x640_rect_191438713b8224af58b2965a692c4d4a.jpg",
    "address": "栃木県宇都宮市江野町10-2",
    "rating": 3.68,
    "ratingCount": 136,
    "lat": 36.56008803819506,
    "lng": 139.8833097631798,
    "year": 2022,
    "award": "2022 ・ 百名店 バー",
    "genre": "バー"
  },
  {
    "rank": 27,
    "id": "13003582",
    "name": "EST!",
    "url": "https://tabelog.com/tokyo/A1311/A131101/13003582/",
    "image": "https://tblg.k-img.com/restaurant/images/Rvw/103210/640x640_rect_103210947.jpg",
    "address": "東京都文京区湯島3-45-3 小林ビル 1F",
    "rating": 3.83,
    "ratingCount": 368,
    "lat": 35.708649437894444,
    "lng": 139.77022878349692,
    "year": 2022,
    "award": "2022 ・ 百名店 バー",
    "genre": "バー"
  },
  {
    "rank": 28,
    "id": "14001338",
    "name": "ザ・バー・カサブランカ",
    "url": "https://tabelog.com/kanagawa/A1401/A140104/14001338/",
    "image": "https://tblg.k-img.com/restaurant/images/Rvw/332583/640x640_rect_cd079d252fb54e458cb456a469b22f48.jpg",
    "address": "神奈川県横浜市中区相生町5-79 ベルビル馬車道　Ｂ１Ｆ",
    "rating": 3.86,
    "ratingCount": 367,
    "lat": 35.448177768822404,
    "lng": 139.635722282122,
    "year": 2022,
    "award": "2022 ・ 百名店 バー",
    "genre": "バー"
  },
  {
    "rank": 29,
    "id": "27003386",
    "name": "カアラ",
    "url": "https://tabelog.com/osaka/A2701/A270101/27003386/",
    "image": "https://tblg.k-img.com/restaurant/images/Rvw/360677/640x640_rect_3e6a447cf3ba39dc0042609d3275e105.jpg",
    "address": "大阪府大阪市北区曽根崎新地1-1-18 グリーンテラスビル　６Ｆ",
    "rating": 3.98,
    "ratingCount": 318,
    "lat": 34.69682581798228,
    "lng": 135.49925816743217,
    "year": 2022,
    "award": "2022 ・ 百名店 バー",
    "genre": "バー"
  },
  {
    "rank": 30,
    "id": "26001147",
    "name": "bar K家 本館",
    "url": "https://tabelog.com/kyoto/A2601/A260201/26001147/",
    "image": "https://tblg.k-img.com/restaurant/images/Rvw/202885/640x640_rect_7f3ebc93bbbcd8b4150532348077014e.jpg",
    "address": "京都府京都市中京区六角通御幸町西入ル八百屋町103",
    "rating": 3.69,
    "ratingCount": 389,
    "lat": 35.00729991255391,
    "lng": 135.76585480479136,
    "year": 2022,
    "award": "2022 ・ 百名店 バー",
    "genre": "バー"
  },
  {
    "rank": 31,
    "id": "13112228",
    "name": "サンルーカルバー",
    "url": "https://tabelog.com/tokyo/A1309/A130905/13112228/",
    "image": "https://tblg.k-img.com/restaurant/images/Rvw/204217/640x640_rect_10107f1c9e19638b27d0350f2469e10d.jpg",
    "address": "東京都新宿区神楽坂6-43 K's Place102",
    "rating": 4,
    "ratingCount": 455,
    "lat": 35.703604158691896,
    "lng": 139.73531007463222,
    "year": 2022,
    "award": "2022 ・ 百名店 バー",
    "genre": "バー"
  },
  {
    "rank": 32,
    "id": "14001349",
    "name": "バー ノーブル",
    "url": "https://tabelog.com/kanagawa/A1401/A140104/14001349/",
    "image": "https://tblg.k-img.com/restaurant/images/Rvw/238689/640x640_rect_66b6f2d0af636211431624597df41b37.jpg",
    "address": "神奈川県横浜市中区吉田町2-7 VALS吉田町　1F",
    "rating": 4.13,
    "ratingCount": 509,
    "lat": 35.44545146882337,
    "lng": 139.63330592209616,
    "year": 2022,
    "award": "2022 ・ 百名店 バー",
    "genre": "バー"
  },
  {
    "rank": 33,
    "id": "13004091",
    "name": "BAR オーパ 門前仲町店",
    "url": "https://tabelog.com/tokyo/A1313/A131303/13004091/",
    "image": "https://tblg.k-img.com/restaurant/images/Rvw/353722/640x640_rect_47bb329420c4ec84789dd5455605cb67.jpg",
    "address": "東京都江東区富岡1-25-4 ニックハイム八幡　２Ｆ",
    "rating": 3.74,
    "ratingCount": 287,
    "lat": 35.67028323792795,
    "lng": 139.79893688308928,
    "year": 2022,
    "award": "2022 ・ 百名店 バー",
    "genre": "バー"
  },
  {
    "rank": 34,
    "id": "40003745",
    "name": "モモタ バー",
    "url": "https://tabelog.com/fukuoka/A4001/A400104/40003745/",
    "image": "https://tblg.k-img.com/restaurant/images/Rvw/199125/640x640_rect_b211dc140830ff1c4ebc461e70640c58.jpg",
    "address": "福岡県福岡市中央区大名1-10-14 MATCHビル 5F",
    "rating": 3.73,
    "ratingCount": 202,
    "lat": 33.58677070706116,
    "lng": 130.39311527979888,
    "year": 2022,
    "award": "2022 ・ 百名店 バー",
    "genre": "バー"
  },
  {
    "rank": 35,
    "id": "22003105",
    "name": "BAR YUMOTO",
    "url": "https://tabelog.com/shizuoka/A2205/A220501/22003105/",
    "image": "https://tblg.k-img.com/restaurant/images/Rvw/204218/640x640_rect_e0d1ca7cf2115712c504fbbdacbd4512.jpg",
    "address": "静岡県三島市芝本町10-7",
    "rating": 3.69,
    "ratingCount": 154,
    "lat": 35.12116713879988,
    "lng": 138.91282192932564,
    "year": 2022,
    "award": "2022 ・ 百名店 バー",
    "genre": "バー"
  },
  {
    "rank": 36,
    "id": "13283340",
    "name": "MORI BAR",
    "url": "https://tabelog.com/tokyo/A1301/A130101/13283340/",
    "image": "https://tblg.k-img.com/restaurant/images/Rvw/227075/640x640_rect_8ee37f874468614dfbc3a9dc3da5f1b3.jpg",
    "address": "東京都中央区銀座7-5-4 ラヴィアーレ銀座ビル 7F",
    "rating": 3.68,
    "ratingCount": 191,
    "lat": 35.670086738721594,
    "lng": 139.76170272427518,
    "year": 2022,
    "award": "2022 ・ 百名店 バー",
    "genre": "バー"
  },
  {
    "rank": 37,
    "id": "13118284",
    "name": "BAR 鶴亀",
    "url": "https://tabelog.com/tokyo/A1302/A130204/13118284/",
    "image": "https://tblg.k-img.com/restaurant/images/Rvw/5796/320x320_rect_5796889.jpg",
    "address": "東京都中央区日本橋人形町1-12-11  リガーレ日本橋人形町 １Ｆ",
    "rating": 3.7,
    "ratingCount": 229,
    "lat": 35.68350204871996,
    "lng": 139.7833250943955,
    "year": 2022,
    "award": "2022 ・ 百名店 バー",
    "genre": "バー"
  },
  {
    "rank": 38,
    "id": "13037276",
    "name": "フォーシーズンズ",
    "url": "https://tabelog.com/tokyo/A1301/A130101/13037276/",
    "image": "https://tblg.k-img.com/restaurant/images/Rvw/191721/640x640_rect_3efbbb4a461a4b4241c82c9fc34218d1.jpg",
    "address": "東京都中央区銀座4-3-12 伊藤ビル４Ｆ",
    "rating": 3.77,
    "ratingCount": 244,
    "lat": 35.67226897872105,
    "lng": 139.76434490429537,
    "year": 2022,
    "award": "2022 ・ 百名店 バー",
    "genre": "バー"
  },
  {
    "rank": 39,
    "id": "7010160",
    "name": "ザ バー ワタナベ",
    "url": "https://tabelog.com/fukushima/A0702/A070201/7010160/",
    "image": "https://tblg.k-img.com/restaurant/images/Rvw/220363/640x640_rect_19fbb8c9d2ce7bd66bd469b29f58559a.jpg",
    "address": "福島県郡山市駅前2-7-16 増子第3ビル 1F",
    "rating": 3.69,
    "ratingCount": 136,
    "lat": 37.39893912782253,
    "lng": 140.38645020130028,
    "year": 2022,
    "award": "2022 ・ 百名店 バー",
    "genre": "バー"
  },
  {
    "rank": 40,
    "id": "4008372",
    "name": "バー アンダンテ",
    "url": "https://tabelog.com/miyagi/A0401/A040101/4008372/",
    "image": "https://tblg.k-img.com/restaurant/images/Rvw/205638/640x640_rect_1c8550191125e9032989c184a8d32745.jpg",
    "address": "宮城県仙台市青葉区中央2丁目11-13 ユーメントビル 3F",
    "rating": 3.89,
    "ratingCount": 203,
    "lat": 38.262498047430284,
    "lng": 140.87699221967912,
    "year": 2022,
    "award": "2022 ・ 百名店 バー",
    "genre": "バー"
  },
  {
    "rank": 41,
    "id": "13100967",
    "name": "Bar Tiare",
    "url": "https://tabelog.com/tokyo/A1308/A130801/13100967/",
    "image": "https://tblg.k-img.com/restaurant/images/Rvw/262819/640x640_rect_cd8851bef8c7827270f2fc0059e1aa34.jpg",
    "address": "東京都港区赤坂4-2-2 赤坂Dnプラザビル 5F",
    "rating": 3.78,
    "ratingCount": 386,
    "lat": 35.67612503790411,
    "lng": 139.73569878319265,
    "year": 2022,
    "award": "2022 ・ 百名店 バー",
    "genre": "バー"
  },
  {
    "rank": 42,
    "id": "13123270",
    "name": "浅草サンボア",
    "url": "https://tabelog.com/tokyo/A1311/A131102/13123270/",
    "image": "https://tblg.k-img.com/restaurant/images/Rvw/236860/640x640_rect_9f5c05cb5a8dfe3f97644a5aa9404017.jpg",
    "address": "東京都台東区浅草1-16-8",
    "rating": 3.77,
    "ratingCount": 389,
    "lat": 35.71190078870548,
    "lng": 139.79447433467456,
    "year": 2022,
    "award": "2022 ・ 百名店 バー",
    "genre": "バー"
  },
  {
    "rank": 43,
    "id": "27011994",
    "name": "北新地サンボア",
    "url": "https://tabelog.com/osaka/A2701/A270101/27011994/",
    "image": "https://tblg.k-img.com/restaurant/images/Rvw/206396/640x640_rect_5398372a6eea44f368d37d702374178a.jpg",
    "address": "大阪府大阪市北区曽根崎新地1-9-25 玉美ビル１Ｆ",
    "rating": 3.7,
    "ratingCount": 224,
    "lat": 34.69766815798171,
    "lng": 135.49914326744081,
    "year": 2022,
    "award": "2022 ・ 百名店 バー",
    "genre": "バー"
  },
  {
    "rank": 44,
    "id": "13030834",
    "name": "バー・ラ・ユロット",
    "url": "https://tabelog.com/tokyo/A1307/A130702/13030834/",
    "image": "https://tblg.k-img.com/restaurant/images/Rvw/201881/640x640_rect_6a9409e123879362bf222a9f40ae9b5d.jpg",
    "address": "東京都港区元麻布3-12-34 大野ビル 1Ｆ",
    "rating": 3.7,
    "ratingCount": 164,
    "lat": 35.65594347872073,
    "lng": 139.73078297415398,
    "year": 2022,
    "award": "2022 ・ 百名店 バー",
    "genre": "バー"
  },
  {
    "rank": 45,
    "id": "28001274",
    "name": "バー ル・サロン",
    "url": "https://tabelog.com/hyogo/A2801/A280101/28001274/",
    "image": "https://tblg.k-img.com/restaurant/images/Rvw/162385/640x640_rect_162385168.jpg",
    "address": "兵庫県神戸市中央区中山手通2-14-13 ハンタービル　２Ｆ",
    "rating": 3.83,
    "ratingCount": 320,
    "lat": 34.6971593370783,
    "lng": 135.1902502764904,
    "year": 2022,
    "award": "2022 ・ 百名店 バー",
    "genre": "バー"
  },
  {
    "rank": 46,
    "id": "13165260",
    "name": "Bar 内藤",
    "url": "https://tabelog.com/tokyo/A1302/A130204/13165260/",
    "image": "https://tblg.k-img.com/restaurant/images/Rvw/202642/640x640_rect_221f0b4104f73627fa233d588ac112cf.jpg",
    "address": "東京都中央区日本橋人形町2-7-2 コスモVビル B1F",
    "rating": 3.74,
    "ratingCount": 232,
    "lat": 35.68636929871808,
    "lng": 139.78314801442463,
    "year": 2022,
    "award": "2022 ・ 百名店 バー",
    "genre": "バー"
  },
  {
    "rank": 47,
    "id": "13012013",
    "name": "オードヴィー",
    "url": "https://tabelog.com/tokyo/A1304/A130401/13012013/",
    "image": "https://tblg.k-img.com/restaurant/images/Rvw/180007/640x640_rect_3413f058a34f3e3c9b960305a92e9d60.jpg",
    "address": "東京都新宿区西新宿2-7-2 ハイアット リージェンシー東京 3F",
    "rating": 3.69,
    "ratingCount": 160,
    "lat": 35.69103980868577,
    "lng": 139.6910169445364,
    "year": 2022,
    "award": "2022 ・ 百名店 バー",
    "genre": "バー"
  },
  {
    "rank": 48,
    "id": "26001395",
    "name": "フィンランディア バー",
    "url": "https://tabelog.com/kyoto/A2601/A260301/26001395/",
    "image": "https://tblg.k-img.com/restaurant/images/Rvw/198388/640x640_rect_4ded3f9e701385a3638dc0364fb6e923.jpg",
    "address": "京都府京都市東山区祇園町南側570-123",
    "rating": 3.72,
    "ratingCount": 250,
    "lat": 35.0033822178752,
    "lng": 135.77438933033582,
    "year": 2022,
    "award": "2022 ・ 百名店 バー",
    "genre": "バー"
  },
  {
    "rank": 49,
    "id": "13120361",
    "name": "数寄屋橋サンボア",
    "url": "https://tabelog.com/tokyo/A1301/A130101/13120361/",
    "image": "https://tblg.k-img.com/restaurant/images/Rvw/195012/640x640_rect_645a37d9a49021ca67db21b0011c7655.jpg",
    "address": "東京都中央区銀座7-3-16 東五ビル1F",
    "rating": 3.74,
    "ratingCount": 263,
    "lat": 35.67057174872094,
    "lng": 139.76062517428082,
    "year": 2022,
    "award": "2022 ・ 百名店 バー",
    "genre": "バー"
  },
  {
    "rank": 50,
    "id": "13015798",
    "name": "BAR Too",
    "url": "https://tabelog.com/tokyo/A1305/A130501/13015798/",
    "image": "https://tblg.k-img.com/restaurant/images/Rvw/206675/640x640_rect_99192eda46f0585d07de30f71e577377.jpg",
    "address": "東京都豊島区南池袋2-8-1 エバーグリーンハイツ　１Ｆ",
    "rating": 3.71,
    "ratingCount": 242,
    "lat": 35.72483453786658,
    "lng": 139.71497928369914,
    "year": 2022,
    "award": "2022 ・ 百名店 バー",
    "genre": "バー"
  },
  {
    "rank": 51,
    "id": "22000048",
    "name": "ブルーラベル",
    "url": "https://tabelog.com/shizuoka/A2201/A220101/22000048/",
    "image": "https://tblg.k-img.com/restaurant/images/Rvw/161393/640x640_rect_161393985.jpg",
    "address": "静岡県静岡市葵区昭和町3-2 アーバンビル　６Ｆ",
    "rating": 3.84,
    "ratingCount": 228,
    "lat": 34.97181184872611,
    "lng": 138.38333124818814,
    "year": 2022,
    "award": "2022 ・ 百名店 バー",
    "genre": "バー"
  },
  {
    "rank": 52,
    "id": "26002072",
    "name": "バー クーゲル",
    "url": "https://tabelog.com/kyoto/A2601/A260301/26002072/",
    "image": "https://tblg.k-img.com/restaurant/images/Rvw/266810/640x640_rect_0e7ad69fc6593a0ac3c6a855224a6794.jpg",
    "address": "京都府京都市東山区大和大路通四条上ル常盤町161-3",
    "rating": 3.67,
    "ratingCount": 113,
    "lat": 35.00491474787368,
    "lng": 135.77264701035253,
    "year": 2022,
    "award": "2022 ・ 百名店 バー",
    "genre": "バー"
  },
  {
    "rank": 53,
    "id": "13014392",
    "name": "BAR 酒仙堂",
    "url": "https://tabelog.com/tokyo/A1301/A130101/13014392/",
    "image": "https://tblg.k-img.com/restaurant/images/Rvw/197480/640x640_rect_7b648092fdaa6b7e2de041a327866941.jpg",
    "address": "東京都中央区銀座6-12-17 錦光ビル　Ｂ１Ｆ",
    "rating": 3.75,
    "ratingCount": 139,
    "lat": 35.66947662872301,
    "lng": 139.76495871426673,
    "year": 2022,
    "award": "2022 ・ 百名店 バー",
    "genre": "バー"
  },
  {
    "rank": 54,
    "id": "23000103",
    "name": "バー・バーンズ",
    "url": "https://tabelog.com/aichi/A2301/A230102/23000103/",
    "image": "https://tblg.k-img.com/restaurant/images/Rvw/268929/320x320_rect_55247272d282348e476db5a6439cd307.jpg",
    "address": "愛知県名古屋市中区栄2-3-32 アマノビル　Ｂ１Ｆ",
    "rating": 4.19,
    "ratingCount": 567,
    "lat": 35.16768555812938,
    "lng": 136.90016139120632,
    "year": 2022,
    "award": "2022 ・ 百名店 バー",
    "genre": "バー"
  },
  {
    "rank": 55,
    "id": "28022839",
    "name": "サヴォイ キタノザカ",
    "url": "https://tabelog.com/hyogo/A2801/A280101/28022839/",
    "image": "https://tblg.k-img.com/restaurant/images/Rvw/197102/640x640_rect_c84ce0ad466dcdd9dbc9769413f33b96.jpg",
    "address": "兵庫県神戸市中央区中山手通1-7-20 第3天成ビル４F",
    "rating": 3.71,
    "ratingCount": 177,
    "lat": 34.69499995788572,
    "lng": 135.19240584762886,
    "year": 2022,
    "award": "2022 ・ 百名店 バー",
    "genre": "バー"
  },
  {
    "rank": 56,
    "id": "40000185",
    "name": "ニッカバー 七島",
    "url": "https://tabelog.com/fukuoka/A4001/A400102/40000185/",
    "image": "https://tblg.k-img.com/restaurant/images/Rvw/199126/640x640_rect_6512200dcff9b5e85d802ad18d45b5dc.jpg",
    "address": "福岡県福岡市博多区中洲4-2-18 水上ビル １Ｆ　",
    "rating": 3.76,
    "ratingCount": 287,
    "lat": 33.59239707706213,
    "lng": 130.4073839698457,
    "year": 2022,
    "award": "2022 ・ 百名店 バー",
    "genre": "バー"
  },
  {
    "rank": 57,
    "id": "14001391",
    "name": "クライスラー",
    "url": "https://tabelog.com/kanagawa/A1401/A140102/14001391/",
    "image": "https://tblg.k-img.com/restaurant/images/Rvw/215902/640x640_rect_2cf1539f941aefd6c64c30b2e40b1d4c.jpg",
    "address": "神奈川県横浜市中区福富町西通5-5 2F",
    "rating": 3.75,
    "ratingCount": 282,
    "lat": 35.445510228822535,
    "lng": 139.63079178209853,
    "year": 2022,
    "award": "2022 ・ 百名店 バー",
    "genre": "バー"
  },
  {
    "rank": 58,
    "id": "27002033",
    "name": "堂島サンボア",
    "url": "https://tabelog.com/osaka/A2701/A270101/27002033/",
    "image": "https://tblg.k-img.com/restaurant/images/Rvw/206396/640x640_rect_6f4dd541ea565064c8f1afa040e43d1c.jpg",
    "address": "大阪府大阪市北区堂島1-5-40",
    "rating": 3.69,
    "ratingCount": 151,
    "lat": 34.696092687982066,
    "lng": 135.4971157674263,
    "year": 2022,
    "award": "2022 ・ 百名店 バー",
    "genre": "バー"
  },
  {
    "rank": 59,
    "id": "26001936",
    "name": "カルバドール",
    "url": "https://tabelog.com/kyoto/A2601/A260201/26001936/",
    "image": "https://tblg.k-img.com/restaurant/images/Rvw/172796/640x640_rect_9c135825cd7beb5d8651bf7bda43855b.jpg",
    "address": "京都府京都市中京区妙満寺前町446 若林ビル　２Ｆ",
    "rating": 3.86,
    "ratingCount": 157,
    "lat": 35.013433847866494,
    "lng": 135.76705943044252,
    "year": 2022,
    "award": "2022 ・ 百名店 バー",
    "genre": "バー"
  },
  {
    "rank": 60,
    "id": "13116198",
    "name": "バー キサラ",
    "url": "https://tabelog.com/tokyo/A1308/A130801/13116198/",
    "image": "https://tblg.k-img.com/restaurant/images/Rvw/210547/640x640_rect_267a2f3d55c52b532c66130e73fc4841.jpg",
    "address": "東京都港区赤坂3-14-7 バルビゾン44 4F",
    "rating": 3.81,
    "ratingCount": 245,
    "lat": 35.67365476871151,
    "lng": 139.73714102432845,
    "year": 2022,
    "award": "2022 ・ 百名店 バー",
    "genre": "バー"
  },
  {
    "rank": 61,
    "id": "14000448",
    "name": "ホッピー仙人",
    "url": "https://tabelog.com/kanagawa/A1401/A140102/14000448/",
    "image": "https://tblg.k-img.com/restaurant/images/Rvw/215295/640x640_rect_786784f9caa0265813075afc7e6493e3.jpg",
    "address": "神奈川県横浜市中区宮川町1-1-214 都橋商店街　２Ｆ",
    "rating": 3.72,
    "ratingCount": 486,
    "lat": 35.44659438882179,
    "lng": 139.6305953921096,
    "year": 2022,
    "award": "2022 ・ 百名店 バー",
    "genre": "バー"
  },
  {
    "rank": 62,
    "id": "45005978",
    "name": "オーク",
    "url": "https://tabelog.com/miyazaki/A4501/A450101/45005978/",
    "image": "https://tblg.k-img.com/restaurant/images/Rvw/195525/640x640_rect_8951e4d9d466e0316959a0ec10516b77.jpg",
    "address": "宮崎県宮崎市中央通1-10 第１ビル　 １Ｆ",
    "rating": 3.67,
    "ratingCount": 112,
    "lat": 31.913938288451043,
    "lng": 131.421264192181,
    "year": 2022,
    "award": "2022 ・ 百名店 バー",
    "genre": "バー"
  },
  {
    "rank": 63,
    "id": "14036644",
    "name": "カサブランカ片野酒類販売",
    "url": "https://tabelog.com/kanagawa/A1401/A140104/14036644/",
    "image": "https://tblg.k-img.com/restaurant/images/Rvw/215295/640x640_rect_1deb9c45360a937a7b9958b1db2f4244.jpg",
    "address": "神奈川県横浜市中区太田町2-31-3 2F",
    "rating": 3.8,
    "ratingCount": 155,
    "lat": 35.4468189988242,
    "lng": 139.6386348721062,
    "year": 2022,
    "award": "2022 ・ 百名店 バー",
    "genre": "バー"
  },
  {
    "rank": 64,
    "id": "13093230",
    "name": "BAR五",
    "url": "https://tabelog.com/tokyo/A1303/A130302/13093230/",
    "image": "https://tblg.k-img.com/restaurant/images/Rvw/194245/640x640_rect_2efa5ea3a8c8d6c8426bcad0136f00c7.jpg",
    "address": "東京都渋谷区恵比寿西1-8-2 恵比寿ウエストパレスビル B1F",
    "rating": 3.7,
    "ratingCount": 246,
    "lat": 35.64782803970452,
    "lng": 139.70811235407058,
    "year": 2022,
    "award": "2022 ・ 百名店 バー",
    "genre": "バー"
  },
  {
    "rank": 65,
    "id": "27064091",
    "name": "バー マスダ",
    "url": "https://tabelog.com/osaka/A2701/A270202/27064091/",
    "image": "https://tblg.k-img.com/restaurant/images/Rvw/301471/640x640_rect_2c4d07d07f23113f26f07e645d9c14f2.jpg",
    "address": "大阪府大阪市中央区心斎橋筋2-3-11",
    "rating": 3.82,
    "ratingCount": 249,
    "lat": 34.66954782123604,
    "lng": 135.50214031253077,
    "year": 2022,
    "award": "2022 ・ 百名店 バー",
    "genre": "バー"
  },
  {
    "rank": 66,
    "id": "13007819",
    "name": "BAR 保志",
    "url": "https://tabelog.com/tokyo/A1301/A130101/13007819/",
    "image": "https://tblg.k-img.com/restaurant/images/Rvw/94282/640x640_rect_94282105.jpg",
    "address": "東京都中央区銀座6-3-7 ＡＯＫＩ　ＴＯＷＥＲ　８Ｆ",
    "rating": 3.79,
    "ratingCount": 505,
    "lat": 35.67135700455992,
    "lng": 139.76112409035716,
    "year": 2022,
    "award": "2022 ・ 百名店 バー",
    "genre": "バー"
  },
  {
    "rank": 67,
    "id": "26027776",
    "name": "BAR TALISKER",
    "url": "https://tabelog.com/kyoto/A2601/A260301/26027776/",
    "image": "https://tblg.k-img.com/restaurant/images/Rvw/166558/640x640_rect_149acb3ec55a4a81de2178910def7d2a.jpg",
    "address": "京都府京都市東山区祇園町南側570-88 祇園町南側ビル1F",
    "rating": 3.84,
    "ratingCount": 162,
    "lat": 35.001902067435466,
    "lng": 135.77665415643298,
    "year": 2022,
    "award": "2022 ・ 百名店 バー",
    "genre": "バー"
  },
  {
    "rank": 68,
    "id": "13019043",
    "name": "バー カプリ",
    "url": "https://tabelog.com/tokyo/A1308/A130803/13019043/",
    "image": "https://tblg.k-img.com/restaurant/images/Rvw/353012/640x640_rect_ed3f0b84c5e7a0e7b6c18107ba9cdf7c.jpg",
    "address": "東京都千代田区紀尾井町4-1 ホテルニューオータニ東京 ロビィ階",
    "rating": 3.71,
    "ratingCount": 193,
    "lat": 35.6808000379007,
    "lng": 139.7343173832408,
    "year": 2022,
    "award": "2022 ・ 百名店 バー",
    "genre": "バー"
  },
  {
    "rank": 69,
    "id": "9000022",
    "name": "夢酒OGAWA パイプのけむり",
    "url": "https://tabelog.com/tochigi/A0901/A090101/9000022/",
    "image": "https://tblg.k-img.com/restaurant/images/Rvw/188406/640x640_rect_fecf9e8f398c01a5e2ba451d48908d83.jpg",
    "address": "栃木県宇都宮市泉町2-19",
    "rating": 3.7,
    "ratingCount": 162,
    "lat": 36.56258828819247,
    "lng": 139.88015596320722,
    "year": 2022,
    "award": "2022 ・ 百名店 バー",
    "genre": "バー"
  },
  {
    "rank": 70,
    "id": "13000922",
    "name": "イーグル",
    "url": "https://tabelog.com/tokyo/A1304/A130401/13000922/",
    "image": "https://tblg.k-img.com/restaurant/images/Rvw/125797/320x320_rect_125797843.jpg",
    "address": "東京都新宿区新宿3-24-11 セキネビル　Ｂ１Ｆ・Ｂ２Ｆ",
    "rating": 3.73,
    "ratingCount": 1009,
    "lat": 35.69285463788261,
    "lng": 139.70156458338556,
    "year": 2022,
    "award": "2022 ・ 百名店 バー",
    "genre": "バー"
  },
  {
    "rank": 71,
    "id": "5002632",
    "name": "ザ・バー１９８０",
    "url": "https://tabelog.com/akita/A0501/A050101/5002632/",
    "image": "https://tblg.k-img.com/restaurant/images/Rvw/302805/640x640_rect_2660c696bafa75e91c76a2a2f961dbeb.jpg",
    "address": "秋田県秋田市大町4-2-5",
    "rating": 3.68,
    "ratingCount": 96,
    "lat": 39.716173536264805,
    "lng": 140.11643549489574,
    "year": 2022,
    "award": "2022 ・ 百名店 バー",
    "genre": "バー"
  },
  {
    "rank": 72,
    "id": "5003692",
    "name": "ムーンシャイン",
    "url": "https://tabelog.com/akita/A0501/A050101/5003692/",
    "image": "https://tblg.k-img.com/restaurant/images/Rvw/302805/640x640_rect_6c5e66742697c5b6832e217d027f9774.jpg",
    "address": "秋田県秋田市大町4丁目2-2-1F",
    "rating": 3.68,
    "ratingCount": 101,
    "lat": 39.716295926264635,
    "lng": 140.11614983489716,
    "year": 2022,
    "award": "2022 ・ 百名店 バー",
    "genre": "バー"
  },
  {
    "rank": 73,
    "id": "13002248",
    "name": "BAR オーパ 銀座",
    "url": "https://tabelog.com/tokyo/A1301/A130101/13002248/",
    "image": "https://tblg.k-img.com/restaurant/images/Rvw/298857/640x640_rect_8c382be9e8a0973c9fd10ec8e2ada62f.jpg",
    "address": "東京都中央区銀座1-4-8 銀座ビッグウエストビル5号館　B1Ｆ",
    "rating": 3.79,
    "ratingCount": 330,
    "lat": 35.674781037914805,
    "lng": 139.76662778315736,
    "year": 2022,
    "award": "2022 ・ 百名店 バー",
    "genre": "バー"
  },
  {
    "rank": 74,
    "id": "13005012",
    "name": "サンボア 銀座店",
    "url": "https://tabelog.com/tokyo/A1301/A130101/13005012/",
    "image": "https://tblg.k-img.com/restaurant/images/Rvw/195711/640x640_rect_f0d68147ea343e8a39a119e30b08dc1c.jpg",
    "address": "東京都中央区銀座5-4-7 銀座サワモトビル　Ｂ１Ｆ",
    "rating": 3.79,
    "ratingCount": 478,
    "lat": 35.67167670872101,
    "lng": 139.76303270429028,
    "year": 2022,
    "award": "2022 ・ 百名店 バー",
    "genre": "バー"
  },
  {
    "rank": 75,
    "id": "26001197",
    "name": "Bar K6",
    "url": "https://tabelog.com/kyoto/A2601/A260202/26001197/",
    "image": "https://tblg.k-img.com/restaurant/images/Rvw/167288/640x640_rect_327a2c5bcb3b7a071d45034b98133c3b.jpg",
    "address": "京都府京都市中京区二条通木屋町東入ル東生洲町481 ヴァルズビル2Ｆ",
    "rating": 3.71,
    "ratingCount": 346,
    "lat": 35.01332876786766,
    "lng": 135.770564600439,
    "year": 2022,
    "award": "2022 ・ 百名店 バー",
    "genre": "バー"
  },
  {
    "rank": 76,
    "id": "13045080",
    "name": "歯車",
    "url": "https://tabelog.com/tokyo/A1309/A130905/13045080/",
    "image": "https://tblg.k-img.com/restaurant/images/Rvw/212300/640x640_rect_2340768bfe234eb46363615f0fac6532.jpg",
    "address": "東京都新宿区若宮町16 塩谷ビル　２F",
    "rating": 3.76,
    "ratingCount": 365,
    "lat": 35.70019239869551,
    "lng": 139.7398271045946,
    "year": 2022,
    "award": "2022 ・ 百名店 バー",
    "genre": "バー"
  },
  {
    "rank": 77,
    "id": "46005461",
    "name": "バー スティンガー",
    "url": "https://tabelog.com/kagoshima/A4601/A460101/46005461/",
    "image": "https://tblg.k-img.com/restaurant/images/Rvw/212113/640x640_rect_f8cf89d7d8dc50350b4b4e6110950338.jpg",
    "address": "鹿児島県鹿児島市山之口町7-13 南映ビル 1F",
    "rating": 3.67,
    "ratingCount": 142,
    "lat": 31.5880742375767,
    "lng": 130.55480834833506,
    "year": 2022,
    "award": "2022 ・ 百名店 バー",
    "genre": "バー"
  },
  {
    "rank": 78,
    "id": "45005126",
    "name": "蚤の市",
    "url": "https://tabelog.com/miyazaki/A4501/A450101/45005126/",
    "image": "https://tblg.k-img.com/restaurant/images/Rvw/165778/640x640_rect_73ebaa8f7d109730309f3ea1596c8020.jpg",
    "address": "宮崎県宮崎市中央通8‐28‐2F",
    "rating": 3.69,
    "ratingCount": 176,
    "lat": 31.91343642845127,
    "lng": 131.42096798217617,
    "year": 2022,
    "award": "2022 ・ 百名店 バー",
    "genre": "バー"
  },
  {
    "rank": 79,
    "id": "13077494",
    "name": "バー オーディン",
    "url": "https://tabelog.com/tokyo/A1303/A130302/13077494/",
    "image": "https://tblg.k-img.com/restaurant/images/Rvw/36473/320x320_rect_36473363.jpg",
    "address": "東京都渋谷区恵比寿1-8-18 K-1ビル　地下１階",
    "rating": 3.71,
    "ratingCount": 453,
    "lat": 35.64792673791381,
    "lng": 139.70991768292586,
    "year": 2022,
    "award": "2022 ・ 百名店 バー",
    "genre": "バー"
  },
  {
    "rank": 80,
    "id": "26007698",
    "name": "ロッキングチェア",
    "url": "https://tabelog.com/kyoto/A2601/A260201/26007698/",
    "image": "https://tblg.k-img.com/restaurant/images/Rvw/217327/640x640_rect_27e1e725140f8ddba9fca9872d18b34b.jpg",
    "address": "京都府京都市下京区御幸町通仏光寺下る橘町434-2",
    "rating": 3.88,
    "ratingCount": 533,
    "lat": 35.00098157787419,
    "lng": 135.76641334031717,
    "year": 2022,
    "award": "2022 ・ 百名店 バー",
    "genre": "バー"
  },
  {
    "rank": 81,
    "id": "27002057",
    "name": "バー ケー",
    "url": "https://tabelog.com/osaka/A2701/A270101/27002057/",
    "image": "https://tblg.k-img.com/restaurant/images/Rvw/206396/640x640_rect_340102f5b6b6122c41187513da79fe73.jpg",
    "address": "大阪府大阪市北区曽根崎新地1-3-3 好陽ビル　Ｂ１Ｆ",
    "rating": 3.72,
    "ratingCount": 181,
    "lat": 34.69733170798123,
    "lng": 135.4969768974389,
    "year": 2022,
    "award": "2022 ・ 百名店 バー",
    "genre": "バー"
  },
  {
    "rank": 82,
    "id": "1000020",
    "name": "ドゥ・エルミタアヂュ",
    "url": "https://tabelog.com/hokkaido/A0101/A010103/1000020/",
    "image": "https://tblg.k-img.com/restaurant/images/Rvw/250721/640x640_rect_ea493704b75972705a1021e424f579bc.jpg",
    "address": "北海道札幌市中央区南三条西4丁目 ３・４ビル　１０Ｆ",
    "rating": 3.76,
    "ratingCount": 217,
    "lat": 43.0567836445365,
    "lng": 141.35169808777312,
    "year": 2022,
    "award": "2022 ・ 百名店 バー",
    "genre": "バー"
  },
  {
    "rank": 83,
    "id": "5003703",
    "name": "ポケット",
    "url": "https://tabelog.com/akita/A0505/A050502/5003703/",
    "image": "https://tblg.k-img.com/restaurant/images/Rvw/205480/640x640_rect_948147d09cb597ab8370e73592b7fc7e.jpg",
    "address": "秋田県湯沢市表町2-1-23",
    "rating": 3.65,
    "ratingCount": 39,
    "lat": 39.16343314300742,
    "lng": 140.4886934398003,
    "year": 2022,
    "award": "2022 ・ 百名店 バー",
    "genre": "バー"
  },
  {
    "rank": 84,
    "id": "47002697",
    "name": "バー アウル",
    "url": "https://tabelog.com/okinawa/A4701/A470101/47002697/",
    "image": "https://tblg.k-img.com/restaurant/images/Rvw/236950/640x640_rect_301da64f520ef30a225f24d50a7c7b80.jpg",
    "address": "沖縄県那覇市久茂地1-8-7 カネトモ産業ビル　２Ｆ",
    "rating": 3.68,
    "ratingCount": 257,
    "lat": 26.214794540073243,
    "lng": 127.67808239607648,
    "year": 2022,
    "award": "2022 ・ 百名店 バー",
    "genre": "バー"
  },
  {
    "rank": 85,
    "id": "27001912",
    "name": "蓮",
    "url": "https://tabelog.com/osaka/A2701/A270101/27001912/",
    "image": "https://tblg.k-img.com/restaurant/images/Rvw/210557/640x640_rect_a9912a9696106c4feb17996329524067.jpg",
    "address": "大阪府大阪市北区西天満2-3-15 千都ビル　Ｂ１Ｆ",
    "rating": 3.9,
    "ratingCount": 146,
    "lat": 34.696091797983925,
    "lng": 135.5029349174222,
    "year": 2022,
    "award": "2022 ・ 百名店 バー",
    "genre": "バー"
  },
  {
    "rank": 86,
    "id": "13000988",
    "name": "ル・パラン",
    "url": "https://tabelog.com/tokyo/A1304/A130401/13000988/",
    "image": "https://tblg.k-img.com/restaurant/images/Rvw/209867/640x640_rect_361ec92c046bfeb6d968f28060c73861.jpg",
    "address": "東京都新宿区新宿3-6-13 石井ビル　３Ｆ",
    "rating": 3.76,
    "ratingCount": 253,
    "lat": 35.69113338869043,
    "lng": 139.70583503452693,
    "year": 2022,
    "award": "2022 ・ 百名店 バー",
    "genre": "バー"
  },
  {
    "rank": 87,
    "id": "14001355",
    "name": "バー スリーマティーニ",
    "url": "https://tabelog.com/kanagawa/A1401/A140105/14001355/",
    "image": "https://tblg.k-img.com/restaurant/images/Rvw/219297/640x640_rect_eb6afc4492acd04dfafe613d43b03220.jpg",
    "address": "神奈川県横浜市中区山下町28 ライオンズプラザ山下公園",
    "rating": 3.74,
    "ratingCount": 219,
    "lat": 35.445075548828335,
    "lng": 139.64812652208195,
    "year": 2022,
    "award": "2022 ・ 百名店 バー",
    "genre": "バー"
  },
  {
    "rank": 88,
    "id": "13122052",
    "name": "Bar P.M.9 ",
    "url": "https://tabelog.com/tokyo/A1301/A130103/13122052/",
    "image": "https://tblg.k-img.com/restaurant/images/Rvw/294026/640x640_rect_c70cd07d065b7762cb887f45b1c3bebb.jpg",
    "address": "東京都港区新橋2-15-13",
    "rating": 3.75,
    "ratingCount": 216,
    "lat": 35.66654162872216,
    "lng": 139.75641460424308,
    "year": 2022,
    "award": "2022 ・ 百名店 バー",
    "genre": "バー"
  },
  {
    "rank": 89,
    "id": "13141138",
    "name": "ロイヤル バー",
    "url": "https://tabelog.com/tokyo/A1302/A130201/13141138/",
    "image": "https://tblg.k-img.com/restaurant/images/Rvw/80575/320x320_rect_80575889.jpg",
    "address": "東京都千代田区丸の内 1-1-1 パレスホテル東京 1F",
    "rating": 3.74,
    "ratingCount": 216,
    "lat": 35.68455807871233,
    "lng": 139.7614653644215,
    "year": 2022,
    "award": "2022 ・ 百名店 バー",
    "genre": "バー"
  },
  {
    "rank": 90,
    "id": "3001224",
    "name": "The bar 佐藤",
    "url": "https://tabelog.com/iwate/A0301/A030101/3001224/",
    "image": "https://tblg.k-img.com/restaurant/images/Rvw/166040/640x640_rect_695e2b5f5d787062cd1aa111f8a61ab7.jpg",
    "address": "岩手県盛岡市大通2-2-16 アキヤマビル 2F",
    "rating": 3.69,
    "ratingCount": 170,
    "lat": 39.70287258660139,
    "lng": 141.14680168403913,
    "year": 2022,
    "award": "2022 ・ 百名店 バー",
    "genre": "バー"
  },
  {
    "rank": 91,
    "id": "1007364",
    "name": "ザ バー ナノ フェムト",
    "url": "https://tabelog.com/hokkaido/A0101/A010103/1007364/",
    "image": "https://tblg.k-img.com/restaurant/images/Rvw/200604/640x640_rect_9ed0cd71a344d12b3859b98a0ea6d294.jpg",
    "address": "北海道札幌市中央区南3条西3丁目 都ビル 7F",
    "rating": 3.78,
    "ratingCount": 345,
    "lat": 43.056434004537465,
    "lng": 141.35402733776795,
    "year": 2022,
    "award": "2022 ・ 百名店 バー",
    "genre": "バー"
  },
  {
    "rank": 92,
    "id": "40000009",
    "name": "バー オスカー",
    "url": "https://tabelog.com/fukuoka/A4001/A400104/40000009/",
    "image": "https://tblg.k-img.com/restaurant/images/Rvw/163379/640x640_rect_1e8ed58ed54d3cfc93a5eb220b92c1df.jpg",
    "address": "福岡県福岡市中央区大名1-10-29 ステージ１大名　６Ｆ",
    "rating": 3.85,
    "ratingCount": 430,
    "lat": 33.58717583625581,
    "lng": 130.3939692686406,
    "year": 2022,
    "award": "2022 ・ 百名店 バー",
    "genre": "バー"
  },
  {
    "rank": 93,
    "id": "2006536",
    "name": "ローズガーデン",
    "url": "https://tabelog.com/aomori/A0203/A020301/2006536/",
    "image": "https://tblg.k-img.com/restaurant/images/Rvw/321149/640x640_rect_40de3f8374df4a1bed9b92d83e13cdb7.jpg",
    "address": "青森県八戸市長横町7 マルマンビル 3F",
    "rating": 3.67,
    "ratingCount": 117,
    "lat": 40.5080903662004,
    "lng": 141.49351374192955,
    "year": 2022,
    "award": "2022 ・ 百名店 バー",
    "genre": "バー"
  },
  {
    "rank": 94,
    "id": "26016560",
    "name": "ザ・コモン・ワン・バー・キョウト",
    "url": "https://tabelog.com/kyoto/A2601/A260301/26016560/",
    "image": "https://tblg.k-img.com/restaurant/images/Rvw/198388/640x640_rect_42a981f345bcf6f47e3e89098be0cdb8.jpg",
    "address": "京都府京都市東山区新橋通大和大路東入元吉町46 何生館内",
    "rating": 3.72,
    "ratingCount": 291,
    "lat": 35.00607036787315,
    "lng": 135.77330390036377,
    "year": 2022,
    "award": "2022 ・ 百名店 バー",
    "genre": "バー"
  },
  {
    "rank": 95,
    "id": "23031142",
    "name": "Bar Neat 名駅店",
    "url": "https://tabelog.com/aichi/A2301/A230101/23031142/",
    "image": "https://tblg.k-img.com/restaurant/images/Rvw/326283/640x640_rect_f939fdd4518ee1e39e0419b30671c35b.jpg",
    "address": "愛知県名古屋市中村区名駅3-12-3 不動産工房ビル 1F",
    "rating": 3.71,
    "ratingCount": 234,
    "lat": 35.17414183731511,
    "lng": 136.8851315801203,
    "year": 2022,
    "award": "2022 ・ 百名店 バー",
    "genre": "バー"
  },
  {
    "rank": 96,
    "id": "26001401",
    "name": "祇園サンボア",
    "url": "https://tabelog.com/kyoto/A2601/A260301/26001401/",
    "image": "https://tblg.k-img.com/restaurant/images/Rvw/198388/640x640_rect_8ca89b54237fa9edc34b1e96bf336ba9.jpg",
    "address": "京都府京都市東山区祇園町南側570-186",
    "rating": 3.7,
    "ratingCount": 216,
    "lat": 35.00265554787635,
    "lng": 135.77654646032698,
    "year": 2022,
    "award": "2022 ・ 百名店 バー",
    "genre": "バー"
  },
  {
    "rank": 97,
    "id": "26004165",
    "name": "エル・テソロ",
    "url": "https://tabelog.com/kyoto/A2601/A260301/26004165/",
    "image": "https://tblg.k-img.com/restaurant/images/Rvw/198388/640x640_rect_33e18b3e5597e2933a693ecd62481afe.jpg",
    "address": "京都府京都市東山区大和大路新橋上がる西側 大和ビル 1F",
    "rating": 3.94,
    "ratingCount": 219,
    "lat": 35.00609159787289,
    "lng": 135.7725312703645,
    "year": 2022,
    "award": "2022 ・ 百名店 バー",
    "genre": "バー"
  },
  {
    "rank": 98,
    "id": "4000064",
    "name": "バー アルカンシェル",
    "url": "https://tabelog.com/miyagi/A0401/A040101/4000064/",
    "image": "https://tblg.k-img.com/restaurant/images/Rvw/166039/640x640_rect_092e84fe1cb816d22b70188c504579c6.jpg",
    "address": "宮城県仙台市青葉区国分町2-10-21 邦栄ビル B1F",
    "rating": 3.73,
    "ratingCount": 139,
    "lat": 38.264383527426816,
    "lng": 140.86987901970318,
    "year": 2022,
    "award": "2022 ・ 百名店 バー",
    "genre": "バー"
  },
  {
    "rank": 99,
    "id": "14043842",
    "name": "野毛ハイボール",
    "url": "https://tabelog.com/kanagawa/A1401/A140102/14043842/",
    "image": "https://tblg.k-img.com/restaurant/images/Rvw/215295/640x640_rect_76daa713098292dc1594004b93932afe.jpg",
    "address": "神奈川県横浜市中区宮川町1-1 都橋商店街 2F",
    "rating": 3.7,
    "ratingCount": 292,
    "lat": 35.446793603923844,
    "lng": 139.63077275289194,
    "year": 2022,
    "award": "2022 ・ 百名店 バー",
    "genre": "バー"
  },
  {
    "rank": 100,
    "id": "1000004",
    "name": "バー・プルーフ",
    "url": "https://tabelog.com/hokkaido/A0101/A010103/1000004/",
    "image": "https://tblg.k-img.com/restaurant/images/Rvw/200604/640x640_rect_5452e738480afe741feca6a9745a5080.jpg",
    "address": "北海道札幌市中央区南三条西3 都ビル　５Ｆ",
    "rating": 3.77,
    "ratingCount": 252,
    "lat": 43.05643524453747,
    "lng": 141.35402642776793,
    "year": 2022,
    "award": "2022 ・ 百名店 バー",
    "genre": "バー"
  }
]