[
  {
    "rank": 1,
    "id": "23008648",
    "name": "パンの店　ポルカ",
    "url": "https://tabelog.com/aichi/A2303/A230302/23008648/",
    "image": "https://tblg.k-img.com/restaurant/images/Rvw/360294/640x640_rect_b147124a349dd6d632761918c29729db.jpg",
    "address": "愛知県尾張旭市東山町1-2-5",
    "rating": 3.62,
    "ratingCount": 202,
    "lat": 35.199567918146734,
    "lng": 137.0182541114456,
    "year": 2022,
    "award": "2022 ・ 百名店 パン 東日本",
    "genre": "パン"
  },
  {
    "rank": 2,
    "id": "14050307",
    "name": "ラフォレ・エ・ラターブル",
    "url": "https://tabelog.com/kanagawa/A1404/A140402/14050307/",
    "image": "https://tblg.k-img.com/restaurant/images/Rvw/19337/640x640_rect_19337055.jpg",
    "address": "神奈川県鎌倉市由比ヶ浜1-3-16 コンフォート由比ヶ浜1-A 1階",
    "rating": 3.67,
    "ratingCount": 229,
    "lat": 35.31560627887822,
    "lng": 139.5465919808454,
    "year": 2022,
    "award": "2022 ・ 百名店 パン 東日本",
    "genre": "パン"
  },
  {
    "rank": 3,
    "id": "1008888",
    "name": "ココペライ",
    "url": "https://tabelog.com/hokkaido/A0101/A010102/1008888/",
    "image": "https://tblg.k-img.com/restaurant/images/Rvw/366201/640x640_rect_f620617f750caafaffaf1cf4568b843f.jpg",
    "address": "北海道札幌市中央区北7条西18丁目4-10",
    "rating": 3.59,
    "ratingCount": 287,
    "lat": 43.06631103371712,
    "lng": 141.32668605672512,
    "year": 2022,
    "award": "2022 ・ 百名店 パン 東日本",
    "genre": "パン"
  },
  {
    "rank": 4,
    "id": "20000200",
    "name": "フランスベ－カリー",
    "url": "https://tabelog.com/nagano/A2003/A200301/20000200/",
    "image": "https://tblg.k-img.com/restaurant/images/Rvw/152182/640x640_rect_152182213.jpg",
    "address": "長野県北佐久郡軽井沢町大字軽井沢旧軽井沢618",
    "rating": 3.66,
    "ratingCount": 721,
    "lat": 36.359292407925395,
    "lng": 138.6361015220258,
    "year": 2022,
    "award": "2022 ・ 百名店 パン 東日本",
    "genre": "パン"
  },
  {
    "rank": 5,
    "id": "14054459",
    "name": "nico",
    "url": "https://tabelog.com/kanagawa/A1404/A140407/14054459/",
    "image": "https://tblg.k-img.com/restaurant/images/Rvw/89015/640x640_rect_89015059.jpg",
    "address": "神奈川県平塚市宮松町7-2 落合ビル 1F",
    "rating": 3.67,
    "ratingCount": 411,
    "lat": 35.33395433799885,
    "lng": 139.35080518000618,
    "year": 2022,
    "award": "2022 ・ 百名店 パン 東日本",
    "genre": "パン"
  },
  {
    "rank": 6,
    "id": "14034186",
    "name": "白楽ベーグル",
    "url": "https://tabelog.com/kanagawa/A1401/A140205/14034186/",
    "image": "https://tblg.k-img.com/restaurant/images/Rvw/95078/640x640_rect_95078049.jpg",
    "address": "神奈川県横浜市神奈川区六角橋3-3-15",
    "rating": 3.64,
    "ratingCount": 392,
    "lat": 35.48658881879389,
    "lng": 139.62276917251904,
    "year": 2022,
    "award": "2022 ・ 百名店 パン 東日本",
    "genre": "パン"
  },
  {
    "rank": 7,
    "id": "11022163",
    "name": "アーブル",
    "url": "https://tabelog.com/saitama/A1103/A110301/11022163/",
    "image": "https://tblg.k-img.com/restaurant/images/Rvw/5402/320x320_square_5402771.jpg",
    "address": "埼玉県朝霞市根岸台1-1-73 ｓｋ根岸台101",
    "rating": 3.68,
    "ratingCount": 348,
    "lat": 35.7985100377838,
    "lng": 139.60202398452253,
    "year": 2022,
    "award": "2022 ・ 百名店 パン 東日本",
    "genre": "パン"
  },
  {
    "rank": 8,
    "id": "14006781",
    "name": "ベルグフェルド 鎌倉本店",
    "url": "https://tabelog.com/kanagawa/A1404/A140402/14006781/",
    "image": "https://tblg.k-img.com/restaurant/images/Rvw/178204/640x640_rect_6c39b49c2dd5436008097ca3afcb8043.jpg",
    "address": "神奈川県鎌倉市雪ノ下3-9-24",
    "rating": 3.63,
    "ratingCount": 312,
    "lat": 35.32366965887769,
    "lng": 139.56100904091673,
    "year": 2022,
    "award": "2022 ・ 百名店 パン 東日本",
    "genre": "パン"
  },
  {
    "rank": 9,
    "id": "3001022",
    "name": "福田パン 長田町本店",
    "url": "https://tabelog.com/iwate/A0301/A030101/3001022/",
    "image": "https://tblg.k-img.com/restaurant/images/Rvw/163294/640x640_rect_8e5a0fd344abdddbc71e3b32bde228c1.jpg",
    "address": "岩手県盛岡市長田町12-11",
    "rating": 3.67,
    "ratingCount": 1476,
    "lat": 39.708237886596486,
    "lng": 141.14209737409664,
    "year": 2022,
    "award": "2022 ・ 百名店 パン 東日本",
    "genre": "パン"
  },
  {
    "rank": 10,
    "id": "14036183",
    "name": "パンドウー",
    "url": "https://tabelog.com/kanagawa/A1401/A140212/14036183/",
    "image": "https://tblg.k-img.com/restaurant/images/Rvw/15882/640x640_rect_15882904.jpg",
    "address": "神奈川県横浜市神奈川区二ツ谷町2-1 1F",
    "rating": 3.67,
    "ratingCount": 533,
    "lat": 35.47715278880273,
    "lng": 139.6317033324175,
    "year": 2022,
    "award": "2022 ・ 百名店 パン 東日本",
    "genre": "パン"
  },
  {
    "rank": 11,
    "id": "23003662",
    "name": "ポンレヴェック",
    "url": "https://tabelog.com/aichi/A2302/A230202/23003662/",
    "image": "https://tblg.k-img.com/restaurant/images/Rvw/36130/640x640_rect_36130127.jpg",
    "address": "愛知県海部郡蟹江町学戸2-38",
    "rating": 3.63,
    "ratingCount": 553,
    "lat": 35.136493638112846,
    "lng": 136.78605878097127,
    "year": 2022,
    "award": "2022 ・ 百名店 パン 東日本",
    "genre": "パン"
  },
  {
    "rank": 12,
    "id": "1001468",
    "name": "ぱん吉",
    "url": "https://tabelog.com/hokkaido/A0101/A010101/1001468/",
    "image": "https://tblg.k-img.com/restaurant/images/Rvw/52462/640x640_rect_52462474.jpg",
    "address": "北海道札幌市北区北八条西4-18",
    "rating": 3.66,
    "ratingCount": 296,
    "lat": 43.07108797514641,
    "lng": 141.3485623899966,
    "year": 2022,
    "award": "2022 ・ 百名店 パン 東日本",
    "genre": "パン"
  },
  {
    "rank": 13,
    "id": "21000648",
    "name": "サカエパン",
    "url": "https://tabelog.com/gifu/A2101/A210101/21000648/",
    "image": "https://tblg.k-img.com/restaurant/images/Rvw/332898/640x640_rect_89fc4b0c03ee4fb5e5a03a94aca41bee.jpg",
    "address": "岐阜県岐阜市加納栄町通1-9",
    "rating": 3.65,
    "ratingCount": 690,
    "lat": 35.408097427930905,
    "lng": 136.75642368373548,
    "year": 2022,
    "award": "2022 ・ 百名店 パン 東日本",
    "genre": "パン"
  },
  {
    "rank": 14,
    "id": "11028957",
    "name": "クーネルベーカリー",
    "url": "https://tabelog.com/saitama/A1101/A110102/11028957/",
    "image": "https://tblg.k-img.com/restaurant/images/Rvw/362414/640x640_rect_279b85e69270462386953d4b6df82bd8.jpg",
    "address": "埼玉県さいたま市浦和区東高砂町9号20番 岸ビル1F",
    "rating": 3.71,
    "ratingCount": 638,
    "lat": 35.857398097380006,
    "lng": 139.65888262694008,
    "year": 2022,
    "award": "2022 ・ 百名店 パン 東日本",
    "genre": "パン"
  },
  {
    "rank": 15,
    "id": "9002708",
    "name": "NAOZO",
    "url": "https://tabelog.com/tochigi/A0905/A090501/9002708/",
    "image": "https://tblg.k-img.com/restaurant/images/Rvw/159705/640x640_rect_159705626.jpg",
    "address": "栃木県那須塩原市西岩崎232-454",
    "rating": 3.65,
    "ratingCount": 451,
    "lat": 37.02685010792988,
    "lng": 139.98150052782566,
    "year": 2022,
    "award": "2022 ・ 百名店 パン 東日本",
    "genre": "パン"
  },
  {
    "rank": 16,
    "id": "20000537",
    "name": "ルヴァン 信州上田店",
    "url": "https://tabelog.com/nagano/A2004/A200401/20000537/",
    "image": "https://tblg.k-img.com/restaurant/images/Rvw/198937/640x640_rect_d984e47762d922b965ab2c42087fc39f.jpg",
    "address": "長野県上田市中央4-7-31",
    "rating": 3.68,
    "ratingCount": 456,
    "lat": 36.40567615777395,
    "lng": 138.25305093276282,
    "year": 2022,
    "award": "2022 ・ 百名店 パン 東日本",
    "genre": "パン"
  },
  {
    "rank": 17,
    "id": "14041555",
    "name": "モン・ペシェ・ミニョン",
    "url": "https://tabelog.com/kanagawa/A1404/A140402/14041555/",
    "image": "https://tblg.k-img.com/restaurant/images/Rvw/16202/640x640_rect_16202626.jpg",
    "address": "神奈川県鎌倉市雪ノ下4-3-17",
    "rating": 3.68,
    "ratingCount": 469,
    "lat": 35.3233328588781,
    "lng": 139.5616182009129,
    "year": 2022,
    "award": "2022 ・ 百名店 パン 東日本",
    "genre": "パン"
  },
  {
    "rank": 18,
    "id": "14004623",
    "name": "プルクワ",
    "url": "https://tabelog.com/kanagawa/A1404/A140404/14004623/",
    "image": "https://tblg.k-img.com/restaurant/images/Rvw/140274/640x640_rect_140274663.jpg",
    "address": "神奈川県藤沢市辻堂元町4-17-11",
    "rating": 3.64,
    "ratingCount": 303,
    "lat": 35.33131604884047,
    "lng": 139.4593579810652,
    "year": 2022,
    "award": "2022 ・ 百名店 パン 東日本",
    "genre": "パン"
  },
  {
    "rank": 19,
    "id": "11003478",
    "name": "ラパン ノワール くろうさぎ",
    "url": "https://tabelog.com/saitama/A1107/A110701/11003478/",
    "image": "https://tblg.k-img.com/restaurant/images/Rvw/146278/320x320_rect_146278848.jpg",
    "address": "埼玉県秩父市野坂町1-18-12",
    "rating": 3.64,
    "ratingCount": 521,
    "lat": 35.988004838303596,
    "lng": 139.08319494796206,
    "year": 2022,
    "award": "2022 ・ 百名店 パン 東日本",
    "genre": "パン"
  },
  {
    "rank": 20,
    "id": "8001938",
    "name": "ベッカライ・ブロートツァイト",
    "url": "https://tabelog.com/ibaraki/A0802/A080201/8001938/",
    "image": "https://tblg.k-img.com/restaurant/images/Rvw/364169/640x640_rect_acc8ba72e3eca4ead0575981c6a0fc82.jpg",
    "address": "茨城県つくば市天久保2丁目10-20",
    "rating": 3.68,
    "ratingCount": 397,
    "lat": 36.097062468561006,
    "lng": 140.10897844834457,
    "year": 2022,
    "award": "2022 ・ 百名店 パン 東日本",
    "genre": "パン"
  },
  {
    "rank": 21,
    "id": "1040487",
    "name": "ブーランジェリー コロン 本店",
    "url": "https://tabelog.com/hokkaido/A0101/A010102/1040487/",
    "image": "https://tblg.k-img.com/restaurant/images/Rvw/56118/640x640_rect_56118081.jpg",
    "address": "北海道札幌市中央区北2条東3丁目2-4 prod23  1F",
    "rating": 3.68,
    "ratingCount": 657,
    "lat": 43.06460669453414,
    "lng": 141.35988826784643,
    "year": 2022,
    "award": "2022 ・ 百名店 パン 東日本",
    "genre": "パン"
  },
  {
    "rank": 22,
    "id": "9000301",
    "name": "レストラン ペニーレイン 那須店",
    "url": "https://tabelog.com/tochigi/A0905/A090501/9000301/",
    "image": "https://tblg.k-img.com/restaurant/images/Rvw/159705/640x640_rect_159705492.jpg",
    "address": "栃木県那須郡那須町大字湯本656-2",
    "rating": 3.58,
    "ratingCount": 1726,
    "lat": 37.06907000651817,
    "lng": 139.99979241572208,
    "year": 2022,
    "award": "2022 ・ 百名店 パン 東日本",
    "genre": "パン"
  },
  {
    "rank": 23,
    "id": "12001352",
    "name": "人舟",
    "url": "https://tabelog.com/chiba/A1205/A120504/12001352/",
    "image": "https://tblg.k-img.com/restaurant/images/Rvw/55418/640x640_rect_2448ccb66754f09206c51e6f45ae266a.jpg",
    "address": "千葉県長生郡長生村入山津803-2",
    "rating": 3.62,
    "ratingCount": 198,
    "lat": 35.41830148013919,
    "lng": 140.3920000139813,
    "year": 2022,
    "award": "2022 ・ 百名店 パン 東日本",
    "genre": "パン"
  },
  {
    "rank": 24,
    "id": "14009181",
    "name": "パンヤコット",
    "url": "https://tabelog.com/kanagawa/A1406/A140602/14009181/",
    "image": "https://tblg.k-img.com/restaurant/images/Rvw/89798/640x640_rect_89798921.jpg",
    "address": "神奈川県逗子市新宿4-13-7",
    "rating": 3.64,
    "ratingCount": 123,
    "lat": 35.3003778380889,
    "lng": 139.56658517951576,
    "year": 2022,
    "award": "2022 ・ 百名店 パン 東日本",
    "genre": "パン"
  },
  {
    "rank": 25,
    "id": "14008269",
    "name": "ブーランジェリー エス",
    "url": "https://tabelog.com/kanagawa/A1406/A140602/14008269/",
    "image": "https://tblg.k-img.com/restaurant/images/Rvw/191408/640x640_rect_263c64f0ead3499ab971ba3aef383f8a.jpg",
    "address": "神奈川県逗子市逗子7-6-31",
    "rating": 3.66,
    "ratingCount": 276,
    "lat": 35.296511388899624,
    "lng": 139.5757210806321,
    "year": 2022,
    "award": "2022 ・ 百名店 パン 東日本",
    "genre": "パン"
  },
  {
    "rank": 26,
    "id": "11005320",
    "name": "川越ベーカリー 楽楽",
    "url": "https://tabelog.com/saitama/A1103/A110303/11005320/",
    "image": "https://tblg.k-img.com/restaurant/images/Rvw/92686/640x640_rect_92686677.jpg",
    "address": "埼玉県川越市元町2-10-13",
    "rating": 3.71,
    "ratingCount": 893,
    "lat": 35.92452940847083,
    "lng": 139.48174969704152,
    "year": 2022,
    "award": "2022 ・ 百名店 パン 東日本",
    "genre": "パン"
  },
  {
    "rank": 27,
    "id": "11003565",
    "name": "ベーグルショップ vivant",
    "url": "https://tabelog.com/saitama/A1101/A110102/11003565/",
    "image": "https://tblg.k-img.com/restaurant/images/Rvw/366455/640x640_rect_19dda31f97cc1d75ad3f4cc049ecf599.jpg",
    "address": "埼玉県さいたま市南区沼影1-25-12",
    "rating": 3.68,
    "ratingCount": 420,
    "lat": 35.84082619857516,
    "lng": 139.6423987060834,
    "year": 2022,
    "award": "2022 ・ 百名店 パン 東日本",
    "genre": "パン"
  },
  {
    "rank": 28,
    "id": "11003447",
    "name": "ベルテコ",
    "url": "https://tabelog.com/saitama/A1106/A110601/11003447/",
    "image": "https://tblg.k-img.com/restaurant/images/Rvw/248327/640x640_rect_061ea73b62b5977abac14c022d7659f9.jpg",
    "address": "埼玉県所沢市東所沢和田2-3-14",
    "rating": 3.67,
    "ratingCount": 542,
    "lat": 35.79598123856164,
    "lng": 139.51049386572294,
    "year": 2022,
    "award": "2022 ・ 百名店 パン 東日本",
    "genre": "パン"
  },
  {
    "rank": 29,
    "id": "11003096",
    "name": "VANITOY BAGEL 蔵づくり本店",
    "url": "https://tabelog.com/saitama/A1103/A110303/11003096/",
    "image": "https://tblg.k-img.com/restaurant/images/Rvw/191301/320x320_rect_155bcf5c48920fd58b4f3692375e3749.jpg",
    "address": "埼玉県川越市幸町10-3",
    "rating": 3.67,
    "ratingCount": 546,
    "lat": 35.92427573766606,
    "lng": 139.48313378587622,
    "year": 2022,
    "award": "2022 ・ 百名店 パン 東日本",
    "genre": "パン"
  },
  {
    "rank": 30,
    "id": "14002514",
    "name": "ブレドール 葉山本店",
    "url": "https://tabelog.com/kanagawa/A1406/A140602/14002514/",
    "image": "https://tblg.k-img.com/restaurant/images/Rvw/363232/640x640_rect_5ad1920e4cc43df098edd0fdd51d6c8a.jpg",
    "address": "神奈川県三浦郡葉山町一色657-1",
    "rating": 3.67,
    "ratingCount": 618,
    "lat": 35.26507379892487,
    "lng": 139.59224468030297,
    "year": 2022,
    "award": "2022 ・ 百名店 パン 東日本",
    "genre": "パン"
  },
  {
    "rank": 31,
    "id": "14003548",
    "name": "渡邊ベーカリー",
    "url": "https://tabelog.com/kanagawa/A1410/A141001/14003548/",
    "image": "https://tblg.k-img.com/restaurant/images/Rvw/366356/640x640_rect_fedb3a4236a70889bcf296485a94656a.jpg",
    "address": "神奈川県足柄下郡箱根町宮ノ下343-3",
    "rating": 3.65,
    "ratingCount": 751,
    "lat": 35.24459672876785,
    "lng": 139.05840036047033,
    "year": 2022,
    "award": "2022 ・ 百名店 パン 東日本",
    "genre": "パン"
  },
  {
    "rank": 32,
    "id": "1004949",
    "name": "エグ・ヴィヴ",
    "url": "https://tabelog.com/hokkaido/A0106/A010601/1004949/",
    "image": "https://tblg.k-img.com/restaurant/images/Rvw/322343/640x640_rect_3a4e719c2e2fc21aaa8aff19f9bd0d67.jpg",
    "address": "北海道小樽市忍路1-195",
    "rating": 3.67,
    "ratingCount": 478,
    "lat": 43.20506969428878,
    "lng": 140.86956151960888,
    "year": 2022,
    "award": "2022 ・ 百名店 パン 東日本",
    "genre": "パン"
  },
  {
    "rank": 33,
    "id": "12021059",
    "name": "Boulangerie Queue",
    "url": "https://tabelog.com/chiba/A1202/A120201/12021059/",
    "image": "https://tblg.k-img.com/restaurant/images/Rvw/5024/320x320_rect_ff2e3954f9507a8ce740fb5596a7b014.jpg",
    "address": "千葉県船橋市坪井町1380-4 （2010年より区画整理後、坪井東2－14－27となります）",
    "rating": 3.68,
    "ratingCount": 514,
    "lat": 35.73027130877852,
    "lng": 140.06048567467366,
    "year": 2022,
    "award": "2022 ・ 百名店 パン 東日本",
    "genre": "パン"
  },
  {
    "rank": 34,
    "id": "14046435",
    "name": "マダムルージュ",
    "url": "https://tabelog.com/kanagawa/A1404/A140404/14046435/",
    "image": "https://tblg.k-img.com/restaurant/images/Rvw/193130/640x640_rect_b5cad917d9e6b6858cd6181e04699581.jpg",
    "address": "神奈川県藤沢市朝日町12-1 1F",
    "rating": 3.71,
    "ratingCount": 505,
    "lat": 35.340373038039374,
    "lng": 139.49085037997287,
    "year": 2022,
    "award": "2022 ・ 百名店 パン 東日本",
    "genre": "パン"
  },
  {
    "rank": 35,
    "id": "14057349",
    "name": "のり蔵",
    "url": "https://tabelog.com/kanagawa/A1401/A140105/14057349/",
    "image": "https://tblg.k-img.com/restaurant/images/Rvw/79059/640x640_rect_79059003.jpg",
    "address": "神奈川県横浜市中区山下町81 1F",
    "rating": 3.72,
    "ratingCount": 1252,
    "lat": 35.44327991882946,
    "lng": 139.64808903206384,
    "year": 2022,
    "award": "2022 ・ 百名店 パン 東日本",
    "genre": "パン"
  },
  {
    "rank": 36,
    "id": "22003252",
    "name": "ル・フィヤージュ",
    "url": "https://tabelog.com/shizuoka/A2205/A220503/22003252/",
    "image": "https://tblg.k-img.com/restaurant/images/Rvw/22632/320x320_rect_45f5b51a11b80cc4aa6fb4bbf689ef43.jpg",
    "address": "静岡県伊東市八幡野1305-75",
    "rating": 3.66,
    "ratingCount": 577,
    "lat": 34.8843547890111,
    "lng": 139.10377533679977,
    "year": 2022,
    "award": "2022 ・ 百名店 パン 東日本",
    "genre": "パン"
  },
  {
    "rank": 37,
    "id": "23004064",
    "name": "ブランジェリー ぱぴ・ぱん",
    "url": "https://tabelog.com/aichi/A2301/A230111/23004064/",
    "image": "https://tblg.k-img.com/restaurant/images/Rvw/3527/320x320_square_3527960.jpg",
    "address": "愛知県名古屋市天白区植田3-1209-1 サンテラスタカギ　１Ｆ",
    "rating": 3.65,
    "ratingCount": 481,
    "lat": 35.12802365818265,
    "lng": 136.9883495907439,
    "year": 2022,
    "award": "2022 ・ 百名店 パン 東日本",
    "genre": "パン"
  },
  {
    "rank": 38,
    "id": "14000030",
    "name": "FUJIMORI 鷺沼店",
    "url": "https://tabelog.com/kanagawa/A1405/A140507/14000030/",
    "image": "https://tblg.k-img.com/restaurant/images/Rvw/295119/640x640_rect_b63c22fde4ff9ca2ea9763b50e9fb6ed.jpg",
    "address": "神奈川県川崎市宮前区小台1-17-4",
    "rating": 3.68,
    "ratingCount": 395,
    "lat": 35.57920343791483,
    "lng": 139.5760710823255,
    "year": 2022,
    "award": "2022 ・ 百名店 パン 東日本",
    "genre": "パン"
  },
  {
    "rank": 39,
    "id": "23004452",
    "name": "中屋パン",
    "url": "https://tabelog.com/aichi/A2301/A230106/23004452/",
    "image": "https://tblg.k-img.com/restaurant/images/Rvw/144467/640x640_rect_144467747.jpg",
    "address": "愛知県名古屋市千種区今池1-9-16",
    "rating": 3.6,
    "ratingCount": 469,
    "lat": 35.168372318140555,
    "lng": 136.9366519911877,
    "year": 2022,
    "award": "2022 ・ 百名店 パン 東日本",
    "genre": "パン"
  },
  {
    "rank": 40,
    "id": "1034722",
    "name": "美瑛選果 新千歳空港店",
    "url": "https://tabelog.com/hokkaido/A0107/A010701/1034722/",
    "image": "https://tblg.k-img.com/restaurant/images/Rvw/231699/640x640_rect_e5086fc5dbae3228e2af8517b86dba2d.jpg",
    "address": "北海道千歳市美々 新千歳空港 国内線ターミナルビル 2F",
    "rating": 3.62,
    "ratingCount": 1153,
    "lat": 42.787765824812034,
    "lng": 141.6803535748254,
    "year": 2022,
    "award": "2022 ・ 百名店 パン 東日本",
    "genre": "パン"
  },
  {
    "rank": 41,
    "id": "23058942",
    "name": "バゲット ラビット",
    "url": "https://tabelog.com/aichi/A2301/A230111/23058942/",
    "image": "https://tblg.k-img.com/restaurant/images/Rvw/272007/640x640_rect_5fe56b40ec4294efd457899433f801ad.jpg",
    "address": "愛知県名古屋市名東区社口1-916",
    "rating": 3.65,
    "ratingCount": 463,
    "lat": 35.17577488815481,
    "lng": 136.99617838122072,
    "year": 2022,
    "award": "2022 ・ 百名店 パン 東日本",
    "genre": "パン"
  },
  {
    "rank": 42,
    "id": "23001867",
    "name": "こころにあまいあんぱんや JR名古屋店",
    "url": "https://tabelog.com/aichi/A2301/A230101/23001867/",
    "image": "https://tblg.k-img.com/restaurant/images/Rvw/235832/640x640_rect_4c4c75390d1b0d737ddf8c997dbfef19.jpg",
    "address": "愛知県名古屋市中村区名駅1-1-4 名古屋駅構内 タワーズ通り 名古屋マリオットアソシアホテル前",
    "rating": 3.66,
    "ratingCount": 1167,
    "lat": 35.17008550812239,
    "lng": 136.88303084124257,
    "year": 2022,
    "award": "2022 ・ 百名店 パン 東日本",
    "genre": "パン"
  },
  {
    "rank": 43,
    "id": "14015303",
    "name": "充麦",
    "url": "https://tabelog.com/kanagawa/A1406/A140603/14015303/",
    "image": "https://tblg.k-img.com/restaurant/images/Rvw/6437/640x640_rect_6437503.jpg",
    "address": "神奈川県三浦市初声町入江54-2",
    "rating": 3.65,
    "ratingCount": 328,
    "lat": 35.18870617898444,
    "lng": 139.6270251795072,
    "year": 2022,
    "award": "2022 ・ 百名店 パン 東日本",
    "genre": "パン"
  },
  {
    "rank": 44,
    "id": "21000586",
    "name": "トラン・ブルー",
    "url": "https://tabelog.com/gifu/A2104/A210401/21000586/",
    "image": "https://tblg.k-img.com/restaurant/images/Rvw/253877/640x640_rect_e3c00d1cc954e480a3bbe66031757035.jpg",
    "address": "岐阜県高山市西之一色町1-73-5",
    "rating": 3.81,
    "ratingCount": 820,
    "lat": 36.133361769878,
    "lng": 137.24981422680213,
    "year": 2022,
    "award": "2022 ・ 百名店 パン 東日本",
    "genre": "パン"
  },
  {
    "rank": 45,
    "id": "12000978",
    "name": "オープンオーブン",
    "url": "https://tabelog.com/chiba/A1202/A120202/12000978/",
    "image": "https://tblg.k-img.com/restaurant/images/Rvw/48992/640x640_rect_48992478.jpg",
    "address": "千葉県市川市市川2-30-25",
    "rating": 3.68,
    "ratingCount": 541,
    "lat": 35.73263547872815,
    "lng": 139.90702607480512,
    "year": 2022,
    "award": "2022 ・ 百名店 パン 東日本",
    "genre": "パン"
  },
  {
    "rank": 46,
    "id": "11003805",
    "name": "boulangerie Matsuoka",
    "url": "https://tabelog.com/saitama/A1105/A110501/11003805/",
    "image": "https://tblg.k-img.com/restaurant/images/Rvw/27594/640x640_rect_7be0254fea15a5a739366fea94afbd68.jpg",
    "address": "埼玉県熊谷市宮町2-180",
    "rating": 3.67,
    "ratingCount": 331,
    "lat": 36.14515108830094,
    "lng": 139.38827242933556,
    "year": 2022,
    "award": "2022 ・ 百名店 パン 東日本",
    "genre": "パン"
  },
  {
    "rank": 47,
    "id": "11012294",
    "name": "cimai",
    "url": "https://tabelog.com/saitama/A1104/A110402/11012294/",
    "image": "https://tblg.k-img.com/restaurant/images/Rvw/331281/640x640_rect_b4f334cd9d6aae249d9d92c87ac47c29.jpg",
    "address": "埼玉県幸手市大字幸手2058-1-2",
    "rating": 3.63,
    "ratingCount": 272,
    "lat": 36.0766412284532,
    "lng": 139.72974134840416,
    "year": 2022,
    "award": "2022 ・ 百名店 パン 東日本",
    "genre": "パン"
  },
  {
    "rank": 48,
    "id": "11034449",
    "name": "ベッカライサカツジ",
    "url": "https://tabelog.com/saitama/A1102/A110205/11034449/",
    "image": "https://tblg.k-img.com/restaurant/images/Rvw/346931/640x640_rect_4c4f420c6425f911f6d7fb7c3cc6f935.jpg",
    "address": "埼玉県三郷市彦成3-392-2",
    "rating": 3.66,
    "ratingCount": 416,
    "lat": 35.85555550863435,
    "lng": 139.85764730608136,
    "year": 2022,
    "award": "2022 ・ 百名店 パン 東日本",
    "genre": "パン"
  },
  {
    "rank": 49,
    "id": "4012831",
    "name": "アドゥマン",
    "url": "https://tabelog.com/miyagi/A0401/A040104/4012831/",
    "image": "https://tblg.k-img.com/restaurant/images/Rvw/30794/640x640_rect_30794271.jpg",
    "address": "宮城県仙台市泉区泉中央1-9-4 レジュイール泉 1F",
    "rating": 3.66,
    "ratingCount": 396,
    "lat": 38.32135509739397,
    "lng": 140.88037336027128,
    "year": 2022,
    "award": "2022 ・ 百名店 パン 東日本",
    "genre": "パン"
  },
  {
    "rank": 50,
    "id": "14039759",
    "name": "ベルマティネ",
    "url": "https://tabelog.com/kanagawa/A1405/A140504/14039759/",
    "image": "https://tblg.k-img.com/restaurant/images/Rvw/360446/640x640_rect_40d3ea73fa61b0c925aae6e363711ac2.jpg",
    "address": "神奈川県川崎市中原区新丸子東1-829-4",
    "rating": 3.67,
    "ratingCount": 525,
    "lat": 35.58022777874721,
    "lng": 139.66293682343675,
    "year": 2022,
    "award": "2022 ・ 百名店 パン 東日本",
    "genre": "パン"
  },
  {
    "rank": 51,
    "id": "11024415",
    "name": "Petit Riche",
    "url": "https://tabelog.com/saitama/A1101/A110102/11024415/",
    "image": "https://tblg.k-img.com/restaurant/images/Rvw/328705/640x640_rect_5b949f68cb1883527c107df0abddadee.jpg",
    "address": "埼玉県さいたま市南区文蔵2-1-4",
    "rating": 3.69,
    "ratingCount": 405,
    "lat": 35.84475313777596,
    "lng": 139.6696759849422,
    "year": 2022,
    "award": "2022 ・ 百名店 パン 東日本",
    "genre": "パン"
  },
  {
    "rank": 52,
    "id": "14004443",
    "name": "トツゼン ベーカーズ キッチン",
    "url": "https://tabelog.com/kanagawa/A1401/A140204/14004443/",
    "image": "https://tblg.k-img.com/restaurant/images/Rvw/13225/640x640_rect_13225703.jpg",
    "address": "神奈川県横浜市港北区大倉山2-1-11",
    "rating": 3.67,
    "ratingCount": 567,
    "lat": 35.522207668773454,
    "lng": 139.62962041287406,
    "year": 2022,
    "award": "2022 ・ 百名店 パン 東日本",
    "genre": "パン"
  },
  {
    "rank": 53,
    "id": "14059688",
    "name": "エコモ ベーカリー ヨコハマ モトマチ",
    "url": "https://tabelog.com/kanagawa/A1401/A140105/14059688/",
    "image": "https://tblg.k-img.com/restaurant/images/Rvw/120660/640x640_rect_120660117.jpg",
    "address": "神奈川県横浜市中区元町1-13 元町プラザ 2F",
    "rating": 3.71,
    "ratingCount": 444,
    "lat": 35.44151403802612,
    "lng": 139.65095198088224,
    "year": 2022,
    "award": "2022 ・ 百名店 パン 東日本",
    "genre": "パン"
  },
  {
    "rank": 54,
    "id": "1007040",
    "name": "ブランジェリー ラ・フォンティヌ・ドゥ・ルルド",
    "url": "https://tabelog.com/hokkaido/A0101/A010105/1007040/",
    "image": "https://tblg.k-img.com/restaurant/images/Rvw/335797/640x640_rect_f556acf055de13e46a070f8ed8a0c650.jpg",
    "address": "北海道札幌市中央区宮の森4条12丁目10-1",
    "rating": 3.59,
    "ratingCount": 307,
    "lat": 43.05431676451933,
    "lng": 141.29283757778947,
    "year": 2022,
    "award": "2022 ・ 百名店 パン 東日本",
    "genre": "パン"
  },
  {
    "rank": 55,
    "id": "1021428",
    "name": "麦音 ",
    "url": "https://tabelog.com/hokkaido/A0111/A011101/1021428/",
    "image": "https://tblg.k-img.com/restaurant/images/Rvw/175155/640x640_rect_4c661fc3b30739e5148bc7e276911cb8.jpg",
    "address": "北海道帯広市稲田町南8線西16-43",
    "rating": 3.6,
    "ratingCount": 651,
    "lat": 42.89058169890963,
    "lng": 143.19168874049265,
    "year": 2022,
    "award": "2022 ・ 百名店 パン 東日本",
    "genre": "パン"
  },
  {
    "rank": 56,
    "id": "14014244",
    "name": "KIBIYA ベーカリー 本店",
    "url": "https://tabelog.com/kanagawa/A1404/A140402/14014244/",
    "image": "https://tblg.k-img.com/restaurant/images/Rvw/70949/640x640_rect_70949058.jpg",
    "address": "神奈川県鎌倉市御成町5-34",
    "rating": 3.74,
    "ratingCount": 981,
    "lat": 35.3164777388785,
    "lng": 139.54918051085238,
    "year": 2022,
    "award": "2022 ・ 百名店 パン 東日本",
    "genre": "パン"
  },
  {
    "rank": 57,
    "id": "14004024",
    "name": "ブレッド＆サーカス",
    "url": "https://tabelog.com/kanagawa/A1410/A141002/14004024/",
    "image": "https://tblg.k-img.com/restaurant/images/Rvw/207856/640x640_rect_3f63ec73b0bc4ee92e0990d807a46875.jpg",
    "address": "神奈川県足柄下郡湯河原町土肥4-2-16",
    "rating": 3.72,
    "ratingCount": 781,
    "lat": 35.14352023884648,
    "lng": 139.1037116894176,
    "year": 2022,
    "award": "2022 ・ 百名店 パン 東日本",
    "genre": "パン"
  },
  {
    "rank": 58,
    "id": "14004229",
    "name": "シャン ド ブレ",
    "url": "https://tabelog.com/kanagawa/A1401/A140206/14004229/",
    "image": "https://tblg.k-img.com/restaurant/images/Rvw/75632/640x640_rect_75632197.jpg",
    "address": "神奈川県横浜市港北区大豆戸町1149",
    "rating": 3.68,
    "ratingCount": 588,
    "lat": 35.51058571877868,
    "lng": 139.6228526327614,
    "year": 2022,
    "award": "2022 ・ 百名店 パン 東日本",
    "genre": "パン"
  },
  {
    "rank": 59,
    "id": "14011303",
    "name": "穂の香 あざみ野",
    "url": "https://tabelog.com/kanagawa/A1401/A140201/14011303/",
    "image": "https://tblg.k-img.com/restaurant/images/Rvw/364872/640x640_rect_be2152a24b8b1e2da79e11d59043df81.jpg",
    "address": "神奈川県横浜市青葉区新石川1-22-1-102",
    "rating": 3.69,
    "ratingCount": 448,
    "lat": 35.57065800871966,
    "lng": 139.55734072341411,
    "year": 2022,
    "award": "2022 ・ 百名店 パン 東日本",
    "genre": "パン"
  },
  {
    "rank": 60,
    "id": "14052229",
    "name": "芦名ベーカリー 芦兵衛",
    "url": "https://tabelog.com/kanagawa/A1406/A140601/14052229/",
    "image": "https://tblg.k-img.com/restaurant/images/Rvw/66583/640x640_rect_66583738.jpg",
    "address": "神奈川県横須賀市芦名1-31-3",
    "rating": 3.62,
    "ratingCount": 262,
    "lat": 35.23493216894922,
    "lng": 139.60866114998697,
    "year": 2022,
    "award": "2022 ・ 百名店 パン 東日本",
    "genre": "パン"
  },
  {
    "rank": 61,
    "id": "23005960",
    "name": "Le Supreme. 栄生本店",
    "url": "https://tabelog.com/aichi/A2301/A230113/23005960/",
    "image": "https://tblg.k-img.com/restaurant/images/Rvw/55338/640x640_rect_55338807.jpg",
    "address": "愛知県名古屋市中村区栄生町7-8",
    "rating": 3.68,
    "ratingCount": 710,
    "lat": 35.182575898111274,
    "lng": 136.87304452137573,
    "year": 2022,
    "award": "2022 ・ 百名店 パン 東日本",
    "genre": "パン"
  },
  {
    "rank": 62,
    "id": "14043136",
    "name": "ジャン・フランソワ 横浜ポルタ",
    "url": "https://tabelog.com/kanagawa/A1401/A140101/14043136/",
    "image": "https://tblg.k-img.com/restaurant/images/Rvw/212373/640x640_rect_5e67f7a77c32632cb2059a485082117f.jpg",
    "address": "神奈川県横浜市西区高島2-16 横浜ポルタ",
    "rating": 3.62,
    "ratingCount": 1677,
    "lat": 35.465684828807404,
    "lng": 139.62349956230742,
    "year": 2022,
    "award": "2022 ・ 百名店 パン 東日本",
    "genre": "パン"
  },
  {
    "rank": 63,
    "id": "14038740",
    "name": "ブラフベーカリー 元町本店",
    "url": "https://tabelog.com/kanagawa/A1401/A140105/14038740/",
    "image": "https://tblg.k-img.com/restaurant/images/Rvw/129125/640x640_rect_129125753.jpg",
    "address": "神奈川県横浜市中区元町2-80-9 ヒルクレストオグラ　１Ｆ",
    "rating": 3.75,
    "ratingCount": 1192,
    "lat": 35.43849914883302,
    "lng": 139.64972029201442,
    "year": 2022,
    "award": "2022 ・ 百名店 パン 東日本",
    "genre": "パン"
  },
  {
    "rank": 64,
    "id": "22021103",
    "name": "ベーカリー＆テーブル 東府や 足湯カフェ",
    "url": "https://tabelog.com/shizuoka/A2205/A220504/22021103/",
    "image": "https://tblg.k-img.com/restaurant/images/Rvw/283900/320x320_rect_c36454eb46c345a6bb1d83a34da851d8.jpg",
    "address": "静岡県伊豆市吉奈98 東府や Resort&Spa-Izu",
    "rating": 3.61,
    "ratingCount": 626,
    "lat": 34.90568550893635,
    "lng": 138.91158892714992,
    "year": 2022,
    "award": "2022 ・ 百名店 パン 東日本",
    "genre": "パン"
  },
  {
    "rank": 65,
    "id": "14049332",
    "name": "ブーランジェリー 14区",
    "url": "https://tabelog.com/kanagawa/A1401/A140205/14049332/",
    "image": "https://tblg.k-img.com/restaurant/images/Rvw/188162/640x640_rect_43f9066bad2dd5c7fe8b686f686f136f.jpg",
    "address": "神奈川県横浜市港北区菊名1-4-2",
    "rating": 3.66,
    "ratingCount": 359,
    "lat": 35.4982589379842,
    "lng": 139.63247078146838,
    "year": 2022,
    "award": "2022 ・ 百名店 パン 東日本",
    "genre": "パン"
  },
  {
    "rank": 66,
    "id": "11003063",
    "name": "アサカベーカリー 朝霞台店",
    "url": "https://tabelog.com/saitama/A1103/A110301/11003063/",
    "image": "https://tblg.k-img.com/restaurant/images/Rvw/365539/640x640_rect_78bd609cd2d4dee30daf2a60830c5387.jpg",
    "address": "埼玉県朝霞市西弁財1-7-35",
    "rating": 3.7,
    "ratingCount": 479,
    "lat": 35.814747037767745,
    "lng": 139.58396488469918,
    "year": 2022,
    "award": "2022 ・ 百名店 パン 東日本",
    "genre": "パン"
  },
  {
    "rank": 67,
    "id": "23005844",
    "name": "大須ベーカリー",
    "url": "https://tabelog.com/aichi/A2301/A230105/23005844/",
    "image": "https://tblg.k-img.com/restaurant/images/Rvw/27374/640x640_rect_27374818.jpg",
    "address": "愛知県名古屋市中区大須3-27-18",
    "rating": 3.65,
    "ratingCount": 671,
    "lat": 35.15903357813609,
    "lng": 136.90398756111625,
    "year": 2022,
    "award": "2022 ・ 百名店 パン 東日本",
    "genre": "パン"
  },
  {
    "rank": 68,
    "id": "14001139",
    "name": "ウチキパン",
    "url": "https://tabelog.com/kanagawa/A1401/A140105/14001139/",
    "image": "https://tblg.k-img.com/restaurant/images/Rvw/239993/640x640_rect_4954aac97a2c8bd9e684a789578035af.jpg",
    "address": "神奈川県横浜市中区元町1-50",
    "rating": 3.71,
    "ratingCount": 1341,
    "lat": 35.440945268831754,
    "lng": 139.65064822203848,
    "year": 2022,
    "award": "2022 ・ 百名店 パン 東日本",
    "genre": "パン"
  },
  {
    "rank": 69,
    "id": "14004671",
    "name": "天然酵母パン工房 KIBIYAベーカリー 段葛店",
    "url": "https://tabelog.com/kanagawa/A1404/A140402/14004671/",
    "image": "https://tblg.k-img.com/restaurant/images/Rvw/130962/640x640_rect_130962329.jpg",
    "address": "神奈川県鎌倉市小町2丁目13-1",
    "rating": 3.68,
    "ratingCount": 441,
    "lat": 35.32133013887686,
    "lng": 139.5537167008982,
    "year": 2022,
    "award": "2022 ・ 百名店 パン 東日本",
    "genre": "パン"
  },
  {
    "rank": 70,
    "id": "14003971",
    "name": "プロローグ",
    "url": "https://tabelog.com/kanagawa/A1401/A140201/14003971/",
    "image": "https://tblg.k-img.com/restaurant/images/Rvw/353902/640x640_rect_898624b423bbbf99a25b8e0f4188c41f.jpg",
    "address": "神奈川県横浜市青葉区美しが丘西1-3-10",
    "rating": 3.64,
    "ratingCount": 368,
    "lat": 35.58771813870311,
    "lng": 139.539401593599,
    "year": 2022,
    "award": "2022 ・ 百名店 パン 東日本",
    "genre": "パン"
  },
  {
    "rank": 71,
    "id": "19004468",
    "name": "レイクベイク",
    "url": "https://tabelog.com/yamanashi/A1903/A190303/19004468/",
    "image": "https://tblg.k-img.com/restaurant/images/Rvw/55214/640x640_rect_462be13d67f17b1b721c310459a12365.jpg",
    "address": "山梨県南都留郡富士河口湖町大石2585-85",
    "rating": 3.62,
    "ratingCount": 512,
    "lat": 35.523952168491405,
    "lng": 138.74746484351002,
    "year": 2022,
    "award": "2022 ・ 百名店 パン 東日本",
    "genre": "パン"
  },
  {
    "rank": 72,
    "id": "14037517",
    "name": "トースト ネイバーフッド ベイカリー",
    "url": "https://tabelog.com/kanagawa/A1401/A140106/14037517/",
    "image": "https://tblg.k-img.com/restaurant/images/Rvw/60422/640x640_rect_60422113.jpg",
    "address": "神奈川県横浜市中区本郷町1-25",
    "rating": 3.64,
    "ratingCount": 189,
    "lat": 35.43254449883829,
    "lng": 139.65439526195098,
    "year": 2022,
    "award": "2022 ・ 百名店 パン 東日本",
    "genre": "パン"
  },
  {
    "rank": 73,
    "id": "23050735",
    "name": "テーラ・テール",
    "url": "https://tabelog.com/aichi/A2301/A230104/23050735/",
    "image": "https://tblg.k-img.com/restaurant/images/Rvw/185354/640x640_rect_ba47ccd5a3d7e79df2318aaa924539a0.jpg",
    "address": "愛知県名古屋市東区泉3-28-3",
    "rating": 3.72,
    "ratingCount": 1247,
    "lat": 35.17488062813084,
    "lng": 136.91914963126567,
    "year": 2022,
    "award": "2022 ・ 百名店 パン 東日本",
    "genre": "パン"
  },
  {
    "rank": 74,
    "id": "12030751",
    "name": "ベーカリーフェーブ",
    "url": "https://tabelog.com/chiba/A1203/A120301/12030751/",
    "image": "https://tblg.k-img.com/restaurant/images/Rvw/363764/640x640_rect_326bc583334324b44b94a7a81bf928b7.jpg",
    "address": "千葉県柏市泉町2-7 オークライク泉 １Ｆ",
    "rating": 3.68,
    "ratingCount": 350,
    "lat": 35.858900337862345,
    "lng": 139.96907388487526,
    "year": 2022,
    "award": "2022 ・ 百名店 パン 東日本",
    "genre": "パン"
  },
  {
    "rank": 75,
    "id": "11035931",
    "name": "みやび亭",
    "url": "https://tabelog.com/saitama/A1104/A110403/11035931/",
    "image": "https://tblg.k-img.com/restaurant/images/Rvw/364893/640x640_rect_6a104168c92ad01f3db6715c6d190c17.jpg",
    "address": "埼玉県羽生市東7-11-6",
    "rating": 3.63,
    "ratingCount": 261,
    "lat": 36.17144292833527,
    "lng": 139.54846655948882,
    "year": 2022,
    "award": "2022 ・ 百名店 パン 東日本",
    "genre": "パン"
  },
  {
    "rank": 76,
    "id": "23037293",
    "name": "テトラ コンタ",
    "url": "https://tabelog.com/aichi/A2301/A230104/23037293/",
    "image": "https://tblg.k-img.com/restaurant/images/Rvw/37102/640x640_rect_37102796.jpg",
    "address": "愛知県名古屋市東区白壁3-24-58 日興コーポラス 1F",
    "rating": 3.62,
    "ratingCount": 279,
    "lat": 35.18481603731908,
    "lng": 136.91887758020448,
    "year": 2022,
    "award": "2022 ・ 百名店 パン 東日本",
    "genre": "パン"
  },
  {
    "rank": 77,
    "id": "12000514",
    "name": "バックシュトゥーベ ツオップ",
    "url": "https://tabelog.com/chiba/A1203/A120302/12000514/",
    "image": "https://tblg.k-img.com/restaurant/images/Rvw/130232/640x640_rect_130232371.jpg",
    "address": "千葉県松戸市小金原2-14-3 1Ｆ",
    "rating": 3.83,
    "ratingCount": 1676,
    "lat": 35.824430318682865,
    "lng": 139.94789686570365,
    "year": 2022,
    "award": "2022 ・ 百名店 パン 東日本",
    "genre": "パン"
  },
  {
    "rank": 78,
    "id": "14000431",
    "name": "ラ ベルコリーヌ",
    "url": "https://tabelog.com/kanagawa/A1401/A140201/14000431/",
    "image": "https://tblg.k-img.com/restaurant/images/Rvw/212493/640x640_rect_9fa6afa6b158d6244c1485bd47756591.jpg",
    "address": "神奈川県横浜市青葉区美しが丘1-9-1",
    "rating": 3.64,
    "ratingCount": 197,
    "lat": 35.57892983790888,
    "lng": 139.55683178233625,
    "year": 2022,
    "award": "2022 ・ 百名店 パン 東日本",
    "genre": "パン"
  },
  {
    "rank": 79,
    "id": "14035775",
    "name": "ムール ア・ラ ムール",
    "url": "https://tabelog.com/kanagawa/A1408/A140803/14035775/",
    "image": "https://tblg.k-img.com/restaurant/images/Rvw/359682/640x640_rect_56ef98a0fad7760a730cb7327605eca6.jpg",
    "address": "神奈川県伊勢原市板戸645-5",
    "rating": 3.69,
    "ratingCount": 363,
    "lat": 35.39797817874709,
    "lng": 139.2991203218509,
    "year": 2022,
    "award": "2022 ・ 百名店 パン 東日本",
    "genre": "パン"
  },
  {
    "rank": 80,
    "id": "8000928",
    "name": "ダヴィッド パン",
    "url": "https://tabelog.com/ibaraki/A0802/A080201/8000928/",
    "image": "https://tblg.k-img.com/restaurant/images/Rvw/365626/640x640_rect_5b42e3107bd1478875ef8b6a50deea64.jpg",
    "address": "茨城県つくば市牧園7-11",
    "rating": 3.61,
    "ratingCount": 204,
    "lat": 36.02077251861573,
    "lng": 140.1286680975602,
    "year": 2022,
    "award": "2022 ・ 百名店 パン 東日本",
    "genre": "パン"
  },
  {
    "rank": 81,
    "id": "14053039",
    "name": "セテュヌ ボンニデー",
    "url": "https://tabelog.com/kanagawa/A1405/A140506/14053039/",
    "image": "https://tblg.k-img.com/restaurant/images/Rvw/137988/640x640_rect_137988185.jpg",
    "address": "神奈川県川崎市多摩区登戸1889 今野ビル 1F",
    "rating": 3.7,
    "ratingCount": 602,
    "lat": 35.6187961586907,
    "lng": 139.5623993838968,
    "year": 2022,
    "award": "2022 ・ 百名店 パン 東日本",
    "genre": "パン"
  },
  {
    "rank": 82,
    "id": "14003916",
    "name": "守谷製パン店",
    "url": "https://tabelog.com/kanagawa/A1409/A140901/14003916/",
    "image": "https://tblg.k-img.com/restaurant/images/Rvw/240966/640x640_rect_68e5c0a5c3a24101d233c27ba0a6926a.jpg",
    "address": "神奈川県小田原市栄町2-2-2",
    "rating": 3.66,
    "ratingCount": 829,
    "lat": 35.256500108791705,
    "lng": 139.1570514505214,
    "year": 2022,
    "award": "2022 ・ 百名店 パン 東日本",
    "genre": "パン"
  },
  {
    "rank": 83,
    "id": "1004625",
    "name": "ブーランジェリー　ジン",
    "url": "https://tabelog.com/hokkaido/A0106/A010603/1004625/",
    "image": "https://tblg.k-img.com/restaurant/images/Rvw/247529/640x640_rect_68da2803294ca05a869fbe091f486adc.jpg",
    "address": "北海道虻田郡真狩村桜川45-8",
    "rating": 3.58,
    "ratingCount": 269,
    "lat": 42.753379024545865,
    "lng": 140.776017285112,
    "year": 2022,
    "award": "2022 ・ 百名店 パン 東日本",
    "genre": "パン"
  },
  {
    "rank": 84,
    "id": "11006122",
    "name": "アサカベーカリー 本町店",
    "url": "https://tabelog.com/saitama/A1103/A110301/11006122/",
    "image": "https://tblg.k-img.com/restaurant/images/Rvw/364474/640x640_rect_d14a12e307ede23e84c0db9cf793558d.jpg",
    "address": "埼玉県朝霞市本町2-21-36",
    "rating": 3.69,
    "ratingCount": 382,
    "lat": 35.798851438588095,
    "lng": 139.59931543568965,
    "year": 2022,
    "award": "2022 ・ 百名店 パン 東日本",
    "genre": "パン"
  },
  {
    "rank": 85,
    "id": "14012394",
    "name": "zacro",
    "url": "https://tabelog.com/kanagawa/A1406/A140601/14012394/",
    "image": "https://tblg.k-img.com/restaurant/images/Rvw/10926/640x640_rect_10926974.jpg",
    "address": "神奈川県横須賀市ハイランド1-5-2",
    "rating": 3.64,
    "ratingCount": 297,
    "lat": 35.22147965898473,
    "lng": 139.69329921979178,
    "year": 2022,
    "award": "2022 ・ 百名店 パン 東日本",
    "genre": "パン"
  },
  {
    "rank": 86,
    "id": "14041192",
    "name": "前田パン",
    "url": "https://tabelog.com/kanagawa/A1401/A140201/14041192/",
    "image": "https://tblg.k-img.com/restaurant/images/Rvw/9120/640x640_rect_9120855.jpg",
    "address": "神奈川県横浜市青葉区黒須田33-5 タウンコートあざみ野　１F",
    "rating": 3.66,
    "ratingCount": 228,
    "lat": 35.56909603790793,
    "lng": 139.5343010822527,
    "year": 2022,
    "award": "2022 ・ 百名店 パン 東日本",
    "genre": "パン"
  },
  {
    "rank": 87,
    "id": "20011411",
    "name": "haluta bageri",
    "url": "https://tabelog.com/nagano/A2003/A200301/20011411/",
    "image": "https://tblg.k-img.com/restaurant/images/Rvw/181166/640x640_rect_5fd63d8003fa44f0a48ef05ef08754cf.jpg",
    "address": "長野県北佐久郡軽井沢町中軽井沢3018-3",
    "rating": 3.7,
    "ratingCount": 396,
    "lat": 36.34827109566863,
    "lng": 138.59035626725597,
    "year": 2022,
    "award": "2022 ・ 百名店 パン 東日本",
    "genre": "パン"
  },
  {
    "rank": 88,
    "id": "23052895",
    "name": "Le Supreme ジェイアール名古屋高島屋店",
    "url": "https://tabelog.com/aichi/A2301/A230101/23052895/",
    "image": "https://tblg.k-img.com/restaurant/images/Rvw/234407/640x640_rect_194b08b86d92e877243c1368a8d3f0a2.jpg",
    "address": "愛知県名古屋市中村区名駅1-1-4 ジェイアール名古屋高島屋店 B2F",
    "rating": 3.73,
    "ratingCount": 1130,
    "lat": 35.17077923731641,
    "lng": 136.88251148008817,
    "year": 2022,
    "award": "2022 ・ 百名店 パン 東日本",
    "genre": "パン"
  },
  {
    "rank": 89,
    "id": "14071269",
    "name": "ブーランジェリー メチエ パークシティ武蔵小杉ザ・ガーデン",
    "url": "https://tabelog.com/kanagawa/A1405/A140504/14071269/",
    "image": "https://tblg.k-img.com/restaurant/images/Rvw/366606/640x640_rect_a2bd4aa454fc6902fb5afe6f91f193fc.jpg",
    "address": "神奈川県川崎市中原区小杉町2-276-1 パークシティ武蔵小杉ザ・ガーデン 1F",
    "rating": 3.71,
    "ratingCount": 768,
    "lat": 35.57748465869361,
    "lng": 139.657301896997,
    "year": 2022,
    "award": "2022 ・ 百名店 パン 東日本",
    "genre": "パン"
  },
  {
    "rank": 90,
    "id": "23031040",
    "name": "スーリープー",
    "url": "https://tabelog.com/aichi/A2301/A230105/23031040/",
    "image": "https://tblg.k-img.com/restaurant/images/Rvw/122089/640x640_rect_122089889.jpg",
    "address": "愛知県名古屋市中区千代田2-16-20 安井ビル１０１",
    "rating": 3.73,
    "ratingCount": 1290,
    "lat": 35.15636548814122,
    "lng": 136.91477331108175,
    "year": 2022,
    "award": "2022 ・ 百名店 パン 東日本",
    "genre": "パン"
  },
  {
    "rank": 91,
    "id": "22002858",
    "name": "パン樹 久遠",
    "url": "https://tabelog.com/shizuoka/A2205/A220502/22002858/",
    "image": "https://tblg.k-img.com/restaurant/images/Rvw/203704/640x640_rect_697d60c7d2be01de9b3a52472c440d7b.jpg",
    "address": "静岡県熱海市田原本町7-3",
    "rating": 3.67,
    "ratingCount": 951,
    "lat": 35.10243013886436,
    "lng": 139.07790190902065,
    "year": 2022,
    "award": "2022 ・ 百名店 パン 東日本",
    "genre": "パン"
  },
  {
    "rank": 92,
    "id": "7001485",
    "name": "大友パン店",
    "url": "https://tabelog.com/fukushima/A0702/A070201/7001485/",
    "image": "https://tblg.k-img.com/restaurant/images/Rvw/343600/640x640_rect_6bcfa1385bb7acd24cda91455edc173a.jpg",
    "address": "福島県郡山市虎丸町24-9",
    "rating": 3.62,
    "ratingCount": 684,
    "lat": 37.399302047819674,
    "lng": 140.37824198130966,
    "year": 2022,
    "award": "2022 ・ 百名店 パン 東日本",
    "genre": "パン"
  },
  {
    "rank": 93,
    "id": "14007490",
    "name": "ベーカリー&スイーツ ピコット",
    "url": "https://tabelog.com/kanagawa/A1410/A141001/14007490/",
    "image": "https://tblg.k-img.com/restaurant/images/Rvw/194198/320x320_rect_944388ffce2ee384a16e72ab50795090.jpg",
    "address": "神奈川県足柄下郡箱根町宮ノ下359 富士屋ホテル",
    "rating": 3.67,
    "ratingCount": 777,
    "lat": 35.24448772876829,
    "lng": 139.05955956046841,
    "year": 2022,
    "award": "2022 ・ 百名店 パン 東日本",
    "genre": "パン"
  },
  {
    "rank": 94,
    "id": "11021712",
    "name": "バニトイベーグル 川越店",
    "url": "https://tabelog.com/saitama/A1103/A110303/11021712/",
    "image": "https://tblg.k-img.com/restaurant/images/Rvw/353995/640x640_rect_b38a18ab7f09e39a698f1ed18b562960.jpg",
    "address": "埼玉県川越市南通町15-1 金口ビル 1F",
    "rating": 3.65,
    "ratingCount": 493,
    "lat": 35.909659548481116,
    "lng": 139.48437113688948,
    "year": 2022,
    "award": "2022 ・ 百名店 パン 東日本",
    "genre": "パン"
  },
  {
    "rank": 95,
    "id": "14042306",
    "name": "ベッカライ 徳多朗 元石川本店",
    "url": "https://tabelog.com/kanagawa/A1401/A140201/14042306/",
    "image": "https://tblg.k-img.com/restaurant/images/Rvw/46990/640x640_rect_46990285.jpg",
    "address": "神奈川県横浜市青葉区元石川町6300-7",
    "rating": 3.69,
    "ratingCount": 562,
    "lat": 35.58425230870662,
    "lng": 139.54350229356115,
    "year": 2022,
    "award": "2022 ・ 百名店 パン 東日本",
    "genre": "パン"
  },
  {
    "rank": 96,
    "id": "14060669",
    "name": "ブーランジェリー オンニ",
    "url": "https://tabelog.com/kanagawa/A1401/A140307/14060669/",
    "image": "https://tblg.k-img.com/restaurant/images/Rvw/358263/640x640_rect_1de6500eefcb1e572d868832e0158cce.jpg",
    "address": "神奈川県横浜市港南区上大岡西3-10-1",
    "rating": 3.66,
    "ratingCount": 334,
    "lat": 35.40333438883877,
    "lng": 139.5976899216957,
    "year": 2022,
    "award": "2022 ・ 百名店 パン 東日本",
    "genre": "パン"
  },
  {
    "rank": 97,
    "id": "14000421",
    "name": "ペストリーショップ ドーレ (横浜ベイシェラトン ホテル&タワーズ)",
    "url": "https://tabelog.com/kanagawa/A1401/A140101/14000421/",
    "image": "https://tblg.k-img.com/restaurant/images/Rvw/364504/640x640_rect_5a0d0cff956f4b9b0ea31346e2feab0e.jpg",
    "address": "神奈川県横浜市西区北幸1-3-23 横浜ベイシェラトン ホテル＆タワーズ B1F",
    "rating": 3.77,
    "ratingCount": 1285,
    "lat": 35.46678947691656,
    "lng": 139.62006800149095,
    "year": 2022,
    "award": "2022 ・ 百名店 パン 東日本",
    "genre": "パン"
  },
  {
    "rank": 98,
    "id": "14042523",
    "name": "mbs 46.7",
    "url": "https://tabelog.com/kanagawa/A1404/A140402/14042523/",
    "image": "https://tblg.k-img.com/restaurant/images/Rvw/69361/320x320_rect_69361244.jpg",
    "address": "神奈川県鎌倉市大町1-1-13 Walk大町",
    "rating": 3.69,
    "ratingCount": 348,
    "lat": 35.31575407887967,
    "lng": 139.5514280908435,
    "year": 2022,
    "award": "2022 ・ 百名店 パン 東日本",
    "genre": "パン"
  },
  {
    "rank": 99,
    "id": "23002593",
    "name": "プーフレカンテ",
    "url": "https://tabelog.com/aichi/A2301/A230112/23002593/",
    "image": "https://tblg.k-img.com/restaurant/images/Rvw/125963/640x640_rect_125963458.jpg",
    "address": "愛知県名古屋市瑞穂区豊岡通1-25 シャンボール近藤　１Ｆ",
    "rating": 3.65,
    "ratingCount": 435,
    "lat": 35.126452058165256,
    "lng": 136.9306143407685,
    "year": 2022,
    "award": "2022 ・ 百名店 パン 東日本",
    "genre": "パン"
  },
  {
    "rank": 100,
    "id": "14046895",
    "name": "鎌倉 利々庵",
    "url": "https://tabelog.com/kanagawa/A1404/A140402/14046895/",
    "image": "https://tblg.k-img.com/restaurant/images/Rvw/17764/640x640_rect_17764062.jpg",
    "address": "神奈川県鎌倉市御成町10-19",
    "rating": 3.69,
    "ratingCount": 471,
    "lat": 35.318257468877256,
    "lng": 139.54884208087057,
    "year": 2022,
    "award": "2022 ・ 百名店 パン 東日本",
    "genre": "パン"
  }
]