[
  {
    "rank": 1,
    "id": "22006811",
    "name": "温石",
    "url": "https://tabelog.com/shizuoka/A2203/A220301/22006811/",
    "image": "https://tblg.k-img.com/restaurant/images/Rvw/117733/320x320_rect_117733659.jpg",
    "address": "静岡県焼津市本町6-14-12",
    "rating": 4.55,
    "ratingCount": 647,
    "lat": 34.86035963797205,
    "lng": 138.32216587594348,
    "year": 2025,
    "award": "2025 ・ 百名店 日本料理 東日本",
    "genre": "日本料理"
  },
  {
    "rank": 2,
    "id": "23001725",
    "name": "懐石 八泉",
    "url": "https://tabelog.com/aichi/A2301/A230107/23001725/",
    "image": "https://tblg.k-img.com/restaurant/images/Rvw/121876/640x640_rect_121876866.jpg",
    "address": "愛知県名古屋市千種区猫洞通4-34",
    "rating": 3.89,
    "ratingCount": 98,
    "lat": 35.16697327778903,
    "lng": 136.96807455335698,
    "year": 2025,
    "award": "2025 ・ 百名店 日本料理 東日本",
    "genre": "日本料理"
  },
  {
    "rank": 3,
    "id": "11000020",
    "name": "国登録文化財 二木屋",
    "url": "https://tabelog.com/saitama/A1101/A110102/11000020/",
    "image": "https://tblg.k-img.com/restaurant/images/Rvw/54354/640x640_rect_54354679.jpg",
    "address": "埼玉県さいたま市中央区大戸4-14-2",
    "rating": 3.7,
    "ratingCount": 294,
    "lat": 35.86801283775219,
    "lng": 139.64137228519698,
    "year": 2025,
    "award": "2025 ・ 百名店 日本料理 東日本",
    "genre": "日本料理"
  },
  {
    "rank": 4,
    "id": "23080047",
    "name": "橦木町 しみず",
    "url": "https://tabelog.com/aichi/A2301/A230104/23080047/",
    "image": "https://tblg.k-img.com/restaurant/images/Rvw/194192/640x640_rect_ed8a19f1ced4be91f41ef7c1bbf788ec.jpg",
    "address": "愛知県名古屋市東区橦木町3-24 プランドール橦木 1F",
    "rating": 4.54,
    "ratingCount": 249,
    "lat": 35.18025453732205,
    "lng": 136.91909288015822,
    "year": 2025,
    "award": "2025 ・ 百名店 日本料理 東日本",
    "genre": "日本料理"
  },
  {
    "rank": 5,
    "id": "23072364",
    "name": "乙味 あさ井",
    "url": "https://tabelog.com/aichi/A2301/A230104/23072364/",
    "image": "https://tblg.k-img.com/restaurant/images/Rvw/289125/640x640_rect_339fa5cb76d251ce35d927feeed43679.jpg",
    "address": "愛知県名古屋市中区新栄1-5-6 メイトウスタービル 2A",
    "rating": 3.7,
    "ratingCount": 180,
    "lat": 35.16941907942546,
    "lng": 136.9176258527294,
    "year": 2025,
    "award": "2025 ・ 百名店 日本料理 東日本",
    "genre": "日本料理"
  },
  {
    "rank": 6,
    "id": "3006494",
    "name": "日本料理 新茶家",
    "url": "https://tabelog.com/iwate/A0303/A030302/3006494/",
    "image": "https://tblg.k-img.com/restaurant/images/Rvw/270725/640x640_rect_e060ad8382002b10ec214f5611359e5b.jpg",
    "address": "岩手県奥州市江刺中町4-1",
    "rating": 4.31,
    "ratingCount": 65,
    "lat": 39.188903036132515,
    "lng": 141.17839641766363,
    "year": 2025,
    "award": "2025 ・ 百名店 日本料理 東日本",
    "genre": "日本料理"
  },
  {
    "rank": 7,
    "id": "10010261",
    "name": "龢",
    "url": "https://tabelog.com/gunma/A1001/A100101/10010261/",
    "image": "https://tblg.k-img.com/restaurant/images/Rvw/154936/640x640_rect_154936818.jpg",
    "address": "群馬県前橋市千代田町3-12-9 ライオンズマンション前橋千代田町１F",
    "rating": 3.65,
    "ratingCount": 138,
    "lat": 36.39422385804205,
    "lng": 139.07204465207303,
    "year": 2025,
    "award": "2025 ・ 百名店 日本料理 東日本",
    "genre": "日本料理"
  },
  {
    "rank": 8,
    "id": "1030202",
    "name": "花小路 さわ田",
    "url": "https://tabelog.com/hokkaido/A0101/A010103/1030202/",
    "image": "https://tblg.k-img.com/restaurant/images/Rvw/231569/640x640_rect_e45e95d9916d5694e50a5d4fc1b67b9f.jpg",
    "address": "北海道札幌市中央区南7条西4丁目 プラザ7・4浅井ビル 3F",
    "rating": 3.7,
    "ratingCount": 112,
    "lat": 43.05247363373444,
    "lng": 141.35342895656657,
    "year": 2025,
    "award": "2025 ・ 百名店 日本料理 東日本",
    "genre": "日本料理"
  },
  {
    "rank": 9,
    "id": "15003960",
    "name": "日本料理 魚幸",
    "url": "https://tabelog.com/niigata/A1501/A150102/15003960/",
    "image": "https://tblg.k-img.com/restaurant/images/Rvw/356614/320x320_rect_1cf29aab7f5296e0bcc32e768bc2b5a2.jpg",
    "address": "新潟県燕市米納津3216",
    "rating": 3.83,
    "ratingCount": 46,
    "lat": 37.70365078715767,
    "lng": 138.90645835541557,
    "year": 2025,
    "award": "2025 ・ 百名店 日本料理 東日本",
    "genre": "日本料理"
  },
  {
    "rank": 10,
    "id": "2000243",
    "name": "菜のはな",
    "url": "https://tabelog.com/aomori/A0201/A020101/2000243/",
    "image": "https://tblg.k-img.com/restaurant/images/Rvw/41915/640x640_rect_41915726.jpg",
    "address": "青森県青森市本町5-4-20",
    "rating": 3.77,
    "ratingCount": 51,
    "lat": 40.825657925762165,
    "lng": 140.7507634056579,
    "year": 2025,
    "award": "2025 ・ 百名店 日本料理 東日本",
    "genre": "日本料理"
  },
  {
    "rank": 11,
    "id": "22027669",
    "name": "日本料理FUJI",
    "url": "https://tabelog.com/shizuoka/A2201/A220101/22027669/",
    "image": "https://tblg.k-img.com/restaurant/images/Rvw/192922/640x640_rect_5a94f5325fb88f43a77201b335ed8493.jpg",
    "address": "静岡県静岡市葵区栄町3-6",
    "rating": 4.5,
    "ratingCount": 433,
    "lat": 34.974763498726915,
    "lng": 138.39175358821205,
    "year": 2025,
    "award": "2025 ・ 百名店 日本料理 東日本",
    "genre": "日本料理"
  },
  {
    "rank": 12,
    "id": "22027057",
    "name": "ごう",
    "url": "https://tabelog.com/shizuoka/A2201/A220101/22027057/",
    "image": "https://tblg.k-img.com/restaurant/images/Rvw/330812/640x640_rect_f52bc6532bdda220057cc4cdbf780b94.jpg",
    "address": "静岡県静岡市葵区常磐町1-6-2 グリーンハイツ和門 1F",
    "rating": 3.77,
    "ratingCount": 85,
    "lat": 34.97191603872578,
    "lng": 138.38248678818982,
    "year": 2025,
    "award": "2025 ・ 百名店 日本料理 東日本",
    "genre": "日本料理"
  },
  {
    "rank": 13,
    "id": "14068100",
    "name": "お料理 とみやま",
    "url": "https://tabelog.com/kanagawa/A1404/A140402/14068100/",
    "image": "https://tblg.k-img.com/restaurant/images/Rvw/83896/640x640_rect_83896926.jpg",
    "address": "神奈川県鎌倉市小町2-10-18 二の鳥居ビル2階",
    "rating": 3.75,
    "ratingCount": 629,
    "lat": 35.319925518877255,
    "lng": 139.55213411088513,
    "year": 2025,
    "award": "2025 ・ 百名店 日本料理 東日本",
    "genre": "日本料理"
  },
  {
    "rank": 14,
    "id": "23058362",
    "name": "御料理 ひさまつ",
    "url": "https://tabelog.com/aichi/A2301/A230113/23058362/",
    "image": "https://tblg.k-img.com/restaurant/images/Rvw/339872/640x640_rect_5f28002f6f2c30258824b0069118bacb.jpg",
    "address": "愛知県名古屋市中川区高畑1-129 タカオキBコーポ 1F",
    "rating": 3.76,
    "ratingCount": 65,
    "lat": 35.1420907373264,
    "lng": 136.8566892798165,
    "year": 2025,
    "award": "2025 ・ 百名店 日本料理 東日本",
    "genre": "日本料理"
  },
  {
    "rank": 15,
    "id": "23072816",
    "name": "日本料理 直",
    "url": "https://tabelog.com/aichi/A2301/A230101/23072816/",
    "image": "https://tblg.k-img.com/restaurant/images/Rvw/352525/640x640_rect_e2ae70386c1ea1533390da021791be19.jpg",
    "address": "愛知県名古屋市西区那古野1-21-6-2",
    "rating": 3.79,
    "ratingCount": 59,
    "lat": 35.17568138812166,
    "lng": 136.89190564129288,
    "year": 2025,
    "award": "2025 ・ 百名店 日本料理 東日本",
    "genre": "日本料理"
  },
  {
    "rank": 16,
    "id": "1047890",
    "name": "日本料理こまつ",
    "url": "https://tabelog.com/hokkaido/A0101/A010105/1047890/",
    "image": "https://tblg.k-img.com/restaurant/images/Rvw/335049/640x640_rect_1fdbad37a3ca7f218ed16d154df57f72.jpg",
    "address": "北海道札幌市中央区円山西町8-4-26",
    "rating": 3.98,
    "ratingCount": 110,
    "lat": 43.044141233724936,
    "lng": 141.307007256515,
    "year": 2025,
    "award": "2025 ・ 百名店 日本料理 東日本",
    "genre": "日本料理"
  },
  {
    "rank": 17,
    "id": "11010989",
    "name": "樋山",
    "url": "https://tabelog.com/saitama/A1102/A110201/11010989/",
    "image": "https://tblg.k-img.com/restaurant/images/Rvw/168511/640x640_rect_e8c5562bdfaffb6dbafb38ed4ed3b001.jpg",
    "address": "埼玉県川口市東川口2-6-8",
    "rating": 4.44,
    "ratingCount": 262,
    "lat": 35.87654863778036,
    "lng": 139.74685088520928,
    "year": 2025,
    "award": "2025 ・ 百名店 日本料理 東日本",
    "genre": "日本料理"
  },
  {
    "rank": 18,
    "id": "14079044",
    "name": "炭火割烹 庵",
    "url": "https://tabelog.com/kanagawa/A1401/A140104/14079044/",
    "image": "https://tblg.k-img.com/restaurant/images/Rvw/130969/640x640_rect_130969563.jpg",
    "address": "神奈川県横浜市中区南仲通3-35 エクセレントビルIII",
    "rating": 3.9,
    "ratingCount": 187,
    "lat": 35.448299938017705,
    "lng": 139.6380652809598,
    "year": 2025,
    "award": "2025 ・ 百名店 日本料理 東日本",
    "genre": "日本料理"
  },
  {
    "rank": 19,
    "id": "23000794",
    "name": "もちづき",
    "url": "https://tabelog.com/aichi/A2301/A230113/23000794/",
    "image": "https://tblg.k-img.com/restaurant/images/Rvw/165483/640x640_rect_effecf1bea0d96e27ca5d06521475426.jpg",
    "address": "愛知県名古屋市中村区名楽町1-35",
    "rating": 4.01,
    "ratingCount": 182,
    "lat": 35.16844693731274,
    "lng": 136.86629618007598,
    "year": 2025,
    "award": "2025 ・ 百名店 日本料理 東日本",
    "genre": "日本料理"
  },
  {
    "rank": 20,
    "id": "23081855",
    "name": "蓬左茶寮",
    "url": "https://tabelog.com/aichi/A2301/A230106/23081855/",
    "image": "https://tblg.k-img.com/restaurant/images/Rvw/181030/320x320_square_56c72db12a2660dc8ed0e0b36b593f4f.jpg",
    "address": "愛知県名古屋市千種区高見2-13-14 堀清ビル 1F",
    "rating": 3.75,
    "ratingCount": 108,
    "lat": 35.16906563733758,
    "lng": 136.94558168002666,
    "year": 2025,
    "award": "2025 ・ 百名店 日本料理 東日本",
    "genre": "日本料理"
  },
  {
    "rank": 21,
    "id": "14004298",
    "name": "日本料理 幸庵",
    "url": "https://tabelog.com/kanagawa/A1404/A140404/14004298/",
    "image": "https://tblg.k-img.com/restaurant/images/Rvw/150822/640x640_rect_150822773.jpg",
    "address": "神奈川県藤沢市鵠沼花沢町2-8 ルート鵠沼　１Ｆ",
    "rating": 3.73,
    "ratingCount": 274,
    "lat": 35.337725138039154,
    "lng": 139.4848689799503,
    "year": 2025,
    "award": "2025 ・ 百名店 日本料理 東日本",
    "genre": "日本料理"
  },
  {
    "rank": 22,
    "id": "23000897",
    "name": "梶川",
    "url": "https://tabelog.com/aichi/A2301/A230106/23000897/",
    "image": "https://tblg.k-img.com/restaurant/images/Rvw/169937/640x640_rect_9fa36857a0c3f204d07e58f5eb1184f5.jpg",
    "address": "愛知県名古屋市千種区高見1-26-4 タカミ光ビル　１Ｆ",
    "rating": 3.75,
    "ratingCount": 118,
    "lat": 35.17170144814194,
    "lng": 136.94763771121362,
    "year": 2025,
    "award": "2025 ・ 百名店 日本料理 東日本",
    "genre": "日本料理"
  },
  {
    "rank": 23,
    "id": "23044914",
    "name": "吉い",
    "url": "https://tabelog.com/aichi/A2301/A230104/23044914/",
    "image": "https://tblg.k-img.com/restaurant/images/Rvw/120949/640x640_rect_120949053.jpg",
    "address": "愛知県名古屋市中区新栄2-8-13 シャトー秋月 1F",
    "rating": 4.22,
    "ratingCount": 119,
    "lat": 35.16832706610504,
    "lng": 136.92289852066872,
    "year": 2025,
    "award": "2025 ・ 百名店 日本料理 東日本",
    "genre": "日本料理"
  },
  {
    "rank": 24,
    "id": "23057797",
    "name": "味感 ことほぎ",
    "url": "https://tabelog.com/aichi/A2301/A230104/23057797/",
    "image": "https://tblg.k-img.com/restaurant/images/Rvw/332920/640x640_rect_1db401ee0d22fecec3f09b71d135785c.jpg",
    "address": "愛知県名古屋市東区泉2-1-28 ヴィアーレストリア 2F",
    "rating": 3.8,
    "ratingCount": 140,
    "lat": 35.178057543778216,
    "lng": 136.91441322180742,
    "year": 2025,
    "award": "2025 ・ 百名店 日本料理 東日本",
    "genre": "日本料理"
  },
  {
    "rank": 25,
    "id": "21000680",
    "name": "飛騨高山 角正",
    "url": "https://tabelog.com/gifu/A2104/A210401/21000680/",
    "image": "https://tblg.k-img.com/restaurant/images/Rvw/74326/640x640_rect_74326384.jpg",
    "address": "岐阜県高山市馬場町2-98",
    "rating": 3.59,
    "ratingCount": 35,
    "lat": 36.142358097625724,
    "lng": 137.26248371079743,
    "year": 2025,
    "award": "2025 ・ 百名店 日本料理 東日本",
    "genre": "日本料理"
  },
  {
    "rank": 26,
    "id": "20000774",
    "name": "きく蔵",
    "url": "https://tabelog.com/nagano/A2002/A200201/20000774/",
    "image": "https://tblg.k-img.com/restaurant/images/Rvw/362000/640x640_rect_a89bd2bd4559eccacb26cbe6f061b800.jpg",
    "address": "長野県松本市大手4-7-10",
    "rating": 3.65,
    "ratingCount": 300,
    "lat": 36.235746936987475,
    "lng": 137.97350719008057,
    "year": 2025,
    "award": "2025 ・ 百名店 日本料理 東日本",
    "genre": "日本料理"
  },
  {
    "rank": 28,
    "id": "20001225",
    "name": "昇月",
    "url": "https://tabelog.com/nagano/A2005/A200501/20001225/",
    "image": "https://tblg.k-img.com/restaurant/images/Rvw/166482/640x640_rect_468798a0a2dd24a0caf9495aef5f4772.jpg",
    "address": "長野県安曇野市穂高有明矢村8884-9",
    "rating": 3.69,
    "ratingCount": 43,
    "lat": 36.371384567662595,
    "lng": 137.83500046270953,
    "year": 2025,
    "award": "2025 ・ 百名店 日本料理 東日本",
    "genre": "日本料理"
  },
  {
    "rank": 29,
    "id": "20016864",
    "name": "草如庵",
    "url": "https://tabelog.com/nagano/A2004/A200402/20016864/",
    "image": "https://tblg.k-img.com/restaurant/images/Rvw/207436/640x640_rect_a32d64f20a0b7f604e857400902fe9ae.jpg",
    "address": "長野県東御市布下165",
    "rating": 3.72,
    "ratingCount": 55,
    "lat": 36.33664033785295,
    "lng": 138.36343964198812,
    "year": 2025,
    "award": "2025 ・ 百名店 日本料理 東日本",
    "genre": "日本料理"
  },
  {
    "rank": 30,
    "id": "23013684",
    "name": "花いち",
    "url": "https://tabelog.com/aichi/A2301/A230109/23013684/",
    "image": "https://tblg.k-img.com/restaurant/images/Rvw/123145/640x640_rect_123145314.jpg",
    "address": "愛知県名古屋市西区児玉2-4-13",
    "rating": 4.3,
    "ratingCount": 202,
    "lat": 35.19293075810843,
    "lng": 136.88476113147212,
    "year": 2025,
    "award": "2025 ・ 百名店 日本料理 東日本",
    "genre": "日本料理"
  },
  {
    "rank": 31,
    "id": "23071169",
    "name": "土方",
    "url": "https://tabelog.com/aichi/A2301/A230103/23071169/",
    "image": "https://tblg.k-img.com/restaurant/images/Rvw/281774/640x640_rect_ea6d2f070dc92f0f46dfa4b089a65782.jpg",
    "address": "愛知県名古屋市中区丸の内3-11-26",
    "rating": 4.22,
    "ratingCount": 86,
    "lat": 35.176197260938814,
    "lng": 136.9027320553557,
    "year": 2025,
    "award": "2025 ・ 百名店 日本料理 東日本",
    "genre": "日本料理"
  },
  {
    "rank": 32,
    "id": "21000019",
    "name": "洲さき",
    "url": "https://tabelog.com/gifu/A2104/A210401/21000019/",
    "image": "https://tblg.k-img.com/restaurant/images/Rvw/312747/640x640_rect_859fd5f976f2a657cace8b764cf435aa.jpg",
    "address": "岐阜県高山市神明町4-14",
    "rating": 3.76,
    "ratingCount": 55,
    "lat": 36.13995230762636,
    "lng": 137.25966781077514,
    "year": 2025,
    "award": "2025 ・ 百名店 日本料理 東日本",
    "genre": "日本料理"
  },
  {
    "rank": 33,
    "id": "5000664",
    "name": "日本料理 たかむら",
    "url": "https://tabelog.com/akita/A0501/A050101/5000664/",
    "image": "https://tblg.k-img.com/restaurant/images/Rvw/86356/320x320_rect_86356799.jpg",
    "address": "秋田県秋田市大町1-7-31",
    "rating": 4.42,
    "ratingCount": 379,
    "lat": 39.72069698626075,
    "lng": 140.11270652494403,
    "year": 2025,
    "award": "2025 ・ 百名店 日本料理 東日本",
    "genre": "日本料理"
  },
  {
    "rank": 34,
    "id": "23003010",
    "name": "御懐石 志ら玉",
    "url": "https://tabelog.com/aichi/A2301/A230110/23003010/",
    "image": "https://tblg.k-img.com/restaurant/images/Rvw/83717/640x640_rect_83717277.jpg",
    "address": "愛知県名古屋市北区上飯田西町2-36",
    "rating": 3.56,
    "ratingCount": 83,
    "lat": 35.203965847756415,
    "lng": 136.92825699032943,
    "year": 2025,
    "award": "2025 ・ 百名店 日本料理 東日本",
    "genre": "日本料理"
  },
  {
    "rank": 35,
    "id": "20004238",
    "name": "柚木元",
    "url": "https://tabelog.com/nagano/A2006/A200603/20004238/",
    "image": "https://tblg.k-img.com/restaurant/images/Rvw/123876/320x320_rect_123876420.jpg",
    "address": "長野県飯田市東和町2-43-1",
    "rating": 4.58,
    "ratingCount": 392,
    "lat": 35.519482451530344,
    "lng": 137.823037040868,
    "year": 2025,
    "award": "2025 ・ 百名店 日本料理 東日本",
    "genre": "日本料理"
  },
  {
    "rank": 36,
    "id": "23000096",
    "name": "せき根",
    "url": "https://tabelog.com/aichi/A2301/A230108/23000096/",
    "image": "https://tblg.k-img.com/restaurant/images/Rvw/185997/640x640_rect_970dbf82735eb22ad120faa6217e6f71.jpg",
    "address": "愛知県名古屋市昭和区上山町4-7-1",
    "rating": 3.61,
    "ratingCount": 41,
    "lat": 35.13836646816443,
    "lng": 136.951767220874,
    "year": 2025,
    "award": "2025 ・ 百名店 日本料理 東日本",
    "genre": "日本料理"
  },
  {
    "rank": 37,
    "id": "23057731",
    "name": "日本料理 大竹",
    "url": "https://tabelog.com/aichi/A2303/A230302/23057731/",
    "image": "https://tblg.k-img.com/restaurant/images/Rvw/273897/640x640_rect_8c0ce22e7dec4777f67b4658dab63a40.jpg",
    "address": "愛知県瀬戸市水北町271-5",
    "rating": 3.59,
    "ratingCount": 26,
    "lat": 35.24972141813579,
    "lng": 137.08390782190614,
    "year": 2025,
    "award": "2025 ・ 百名店 日本料理 東日本",
    "genre": "日本料理"
  },
  {
    "rank": 38,
    "id": "15000056",
    "name": "欅苑",
    "url": "https://tabelog.com/niigata/A1504/A150402/15000056/",
    "image": "https://tblg.k-img.com/restaurant/images/Rvw/253975/640x640_rect_a665a20aa38279493098259873ea5db8.jpg",
    "address": "新潟県南魚沼市長森24",
    "rating": 3.9,
    "ratingCount": 112,
    "lat": 37.10788466754285,
    "lng": 138.92778983938283,
    "year": 2025,
    "award": "2025 ・ 百名店 日本料理 東日本",
    "genre": "日本料理"
  },
  {
    "rank": 39,
    "id": "2000619",
    "name": "ほむら",
    "url": "https://tabelog.com/aomori/A0203/A020301/2000619/",
    "image": "https://tblg.k-img.com/restaurant/images/Rvw/91685/640x640_rect_91685218.jpg",
    "address": "青森県八戸市一番町1丁目1-30",
    "rating": 3.76,
    "ratingCount": 143,
    "lat": 40.508441576180715,
    "lng": 141.43239445197594,
    "year": 2025,
    "award": "2025 ・ 百名店 日本料理 東日本",
    "genre": "日本料理"
  },
  {
    "rank": 40,
    "id": "23045460",
    "name": "割烹 ほその",
    "url": "https://tabelog.com/aichi/A2301/A230104/23045460/",
    "image": "https://tblg.k-img.com/restaurant/images/Rvw/121629/640x640_rect_121629127.jpg",
    "address": "愛知県名古屋市東区泉2-28-12 アクセス泉 1A",
    "rating": 3.68,
    "ratingCount": 139,
    "lat": 35.17469890813004,
    "lng": 136.9162445112659,
    "year": 2025,
    "award": "2025 ・ 百名店 日本料理 東日本",
    "genre": "日本料理"
  },
  {
    "rank": 41,
    "id": "20001756",
    "name": "ヒカリヤ ヒガシ",
    "url": "https://tabelog.com/nagano/A2002/A200201/20001756/",
    "image": "https://tblg.k-img.com/restaurant/images/Rvw/353031/640x640_rect_c11b1a65c29b45ed4fd2326caf7e5783.jpg",
    "address": "長野県松本市大手4-7-14",
    "rating": 3.61,
    "ratingCount": 110,
    "lat": 36.2353667369878,
    "lng": 137.9737210900766,
    "year": 2025,
    "award": "2025 ・ 百名店 日本料理 東日本",
    "genre": "日本料理"
  },
  {
    "rank": 42,
    "id": "1053112",
    "name": "温味",
    "url": "https://tabelog.com/hokkaido/A0101/A010104/1053112/",
    "image": "https://tblg.k-img.com/restaurant/images/Rvw/335047/640x640_rect_a102caef5816d9aff3c762815756417b.jpg",
    "address": "北海道札幌市中央区南10条西6丁目3番2号",
    "rating": 3.9,
    "ratingCount": 113,
    "lat": 43.04671253373763,
    "lng": 141.35202925650935,
    "year": 2025,
    "award": "2025 ・ 百名店 日本料理 東日本",
    "genre": "日本料理"
  },
  {
    "rank": 44,
    "id": "21000949",
    "name": "川原町 泉屋",
    "url": "https://tabelog.com/gifu/A2101/A210101/21000949/",
    "image": "https://tblg.k-img.com/restaurant/images/Rvw/53958/640x640_rect_53958909.jpg",
    "address": "岐阜県岐阜市元浜町20",
    "rating": 3.73,
    "ratingCount": 268,
    "lat": 35.43599473711216,
    "lng": 136.77005888284594,
    "year": 2025,
    "award": "2025 ・ 百名店 日本料理 東日本",
    "genre": "日本料理"
  },
  {
    "rank": 45,
    "id": "23059862",
    "name": "ふじ原",
    "url": "https://tabelog.com/aichi/A2301/A230103/23059862/",
    "image": "https://tblg.k-img.com/restaurant/images/Rvw/354740/640x640_rect_7154418fad156a095b6a79337e9ad34d.jpg",
    "address": "愛知県名古屋市東区泉1-14-23 ホワイトメイツ 3F",
    "rating": 3.7,
    "ratingCount": 201,
    "lat": 35.1754666373218,
    "lng": 136.90873188011716,
    "year": 2025,
    "award": "2025 ・ 百名店 日本料理 東日本",
    "genre": "日本料理"
  },
  {
    "rank": 46,
    "id": "23088468",
    "name": "筒井 清寂",
    "url": "https://tabelog.com/aichi/A2301/A230106/23088468/",
    "image": "https://tblg.k-img.com/restaurant/images/Rvw/300943/640x640_rect_bea05efd69546a1862c8a9af9abfdaf1.jpg",
    "address": "愛知県名古屋市東区筒井3-30-2 貞和ビル 1F",
    "rating": 3.9,
    "ratingCount": 63,
    "lat": 35.173833938135324,
    "lng": 136.93110418124672,
    "year": 2025,
    "award": "2025 ・ 百名店 日本料理 東日本",
    "genre": "日本料理"
  },
  {
    "rank": 47,
    "id": "14066296",
    "name": "かまくら和久",
    "url": "https://tabelog.com/kanagawa/A1404/A140402/14066296/",
    "image": "https://tblg.k-img.com/restaurant/images/Rvw/268613/640x640_rect_0396850af804e42e41db84a009919e70.jpg",
    "address": "神奈川県鎌倉市由比ガ浜2-3-28",
    "rating": 3.71,
    "ratingCount": 105,
    "lat": 35.31497833807393,
    "lng": 139.54870827967576,
    "year": 2025,
    "award": "2025 ・ 百名店 日本料理 東日本",
    "genre": "日本料理"
  },
  {
    "rank": 48,
    "id": "1060134",
    "name": "御料理 ふじ田",
    "url": "https://tabelog.com/hokkaido/A0101/A010105/1060134/",
    "image": "https://tblg.k-img.com/restaurant/images/Rvw/359836/640x640_rect_d7e922a11c48b766260f95a8bdd3ea47.jpg",
    "address": "北海道札幌市中央区南6条西21-4-6",
    "rating": 3.9,
    "ratingCount": 108,
    "lat": 43.049548997731904,
    "lng": 141.32659803484015,
    "year": 2025,
    "award": "2025 ・ 百名店 日本料理 東日本",
    "genre": "日本料理"
  },
  {
    "rank": 49,
    "id": "8004634",
    "name": "よし町",
    "url": "https://tabelog.com/ibaraki/A0802/A080202/8004634/",
    "image": "https://tblg.k-img.com/restaurant/images/Rvw/280011/640x640_rect_1a6dded19f14300c39625792fd8e3744.jpg",
    "address": "茨城県土浦市中央2-9-28",
    "rating": 3.99,
    "ratingCount": 124,
    "lat": 36.0840215377934,
    "lng": 140.20156978698617,
    "year": 2025,
    "award": "2025 ・ 百名店 日本料理 東日本",
    "genre": "日本料理"
  },
  {
    "rank": 50,
    "id": "23039138",
    "name": "割烹 藪下",
    "url": "https://tabelog.com/aichi/A2301/A230102/23039138/",
    "image": "https://tblg.k-img.com/restaurant/images/Rvw/75559/640x640_rect_75559151.jpg",
    "address": "愛知県名古屋市中区丸の内3-23-11 セントヒルズ丸の内1F",
    "rating": 3.54,
    "ratingCount": 65,
    "lat": 35.17413937812604,
    "lng": 136.90255462126984,
    "year": 2025,
    "award": "2025 ・ 百名店 日本料理 東日本",
    "genre": "日本料理"
  },
  {
    "rank": 51,
    "id": "4001636",
    "name": "千松しま",
    "url": "https://tabelog.com/miyagi/A0404/A040404/4001636/",
    "image": "https://tblg.k-img.com/restaurant/images/Rvw/91247/320x320_rect_91247625.jpg",
    "address": "宮城県塩竈市長沢町15-1",
    "rating": 3.76,
    "ratingCount": 131,
    "lat": 38.32726474743284,
    "lng": 141.01421603023718,
    "year": 2025,
    "award": "2025 ・ 百名店 日本料理 東日本",
    "genre": "日本料理"
  },
  {
    "rank": 52,
    "id": "19010716",
    "name": "八ヶ岳 えさき",
    "url": "https://tabelog.com/yamanashi/A1902/A190201/19010716/",
    "image": "https://tblg.k-img.com/restaurant/images/Rvw/339795/640x640_rect_017d1393e172b8ed39532310c1a9364c.jpg",
    "address": "山梨県北杜市大泉町谷戸5771-210",
    "rating": 4.04,
    "ratingCount": 41,
    "lat": 35.89631289813939,
    "lng": 138.38474164752552,
    "year": 2025,
    "award": "2025 ・ 百名店 日本料理 東日本",
    "genre": "日本料理"
  },
  {
    "rank": 53,
    "id": "23078193",
    "name": "かみその",
    "url": "https://tabelog.com/aichi/A2301/A230104/23078193/",
    "image": "https://tblg.k-img.com/restaurant/images/Rvw/350813/640x640_rect_2244c0a8583f073026d9a28ccbcb9978.jpg",
    "address": "愛知県名古屋市東区泉3-22-4-3",
    "rating": 3.8,
    "ratingCount": 61,
    "lat": 35.17626392812965,
    "lng": 136.91814442128037,
    "year": 2025,
    "award": "2025 ・ 百名店 日本料理 東日本",
    "genre": "日本料理"
  },
  {
    "rank": 54,
    "id": "21001271",
    "name": "新日本料理 神也",
    "url": "https://tabelog.com/gifu/A2103/A210301/21001271/",
    "image": "https://tblg.k-img.com/restaurant/images/Rvw/276065/640x640_rect_17b03cd9f6ed9f9f895dfe27423b1c20.jpg",
    "address": "岐阜県土岐市土岐津町土岐口1-1",
    "rating": 3.5,
    "ratingCount": 49,
    "lat": 35.335918858113075,
    "lng": 137.18447940270633,
    "year": 2025,
    "award": "2025 ・ 百名店 日本料理 東日本",
    "genre": "日本料理"
  },
  {
    "rank": 55,
    "id": "23006901",
    "name": "こなす",
    "url": "https://tabelog.com/aichi/A2305/A230503/23006901/",
    "image": "https://tblg.k-img.com/restaurant/images/Rvw/185627/640x640_rect_8fa845968cb1ac85a682462e4573d8d3.jpg",
    "address": "愛知県刈谷市桜町2-30",
    "rating": 3.72,
    "ratingCount": 274,
    "lat": 34.9928687077543,
    "lng": 137.00795009112292,
    "year": 2025,
    "award": "2025 ・ 百名店 日本料理 東日本",
    "genre": "日本料理"
  },
  {
    "rank": 56,
    "id": "22034729",
    "name": "勢麟",
    "url": "https://tabelog.com/shizuoka/A2202/A220201/22034729/",
    "image": "https://tblg.k-img.com/restaurant/images/Rvw/175700/640x640_rect_adf94b3d9aced2baf95038543e61b8a9.jpg",
    "address": "静岡県浜松市中央区元城町222-25 アルスビル 1F",
    "rating": 4.38,
    "ratingCount": 419,
    "lat": 34.708803069746516,
    "lng": 137.72868247993907,
    "year": 2025,
    "award": "2025 ・ 百名店 日本料理 東日本",
    "genre": "日本料理"
  },
  {
    "rank": 57,
    "id": "23062836",
    "name": "ことわりをはかるみせ ばんどう",
    "url": "https://tabelog.com/aichi/A2301/A230106/23062836/",
    "image": "https://tblg.k-img.com/restaurant/images/Rvw/281009/640x640_rect_0c12482d92ea1f822778a31dee79b75c.jpg",
    "address": "愛知県名古屋市千種区今池4-1-14 フカミビル 1A",
    "rating": 4.1,
    "ratingCount": 131,
    "lat": 35.1707254215893,
    "lng": 136.93885291856628,
    "year": 2025,
    "award": "2025 ・ 百名店 日本料理 東日本",
    "genre": "日本料理"
  },
  {
    "rank": 58,
    "id": "3005625",
    "name": "御料理 寺沢",
    "url": "https://tabelog.com/iwate/A0302/A030202/3005625/",
    "image": "https://tblg.k-img.com/restaurant/images/Rvw/114269/320x320_rect_114269614.jpg",
    "address": "岩手県北上市大通り4丁目4-3",
    "rating": 4.11,
    "ratingCount": 100,
    "lat": 39.285923236048454,
    "lng": 141.10792811869302,
    "year": 2025,
    "award": "2025 ・ 百名店 日本料理 東日本",
    "genre": "日本料理"
  },
  {
    "rank": 59,
    "id": "2001751",
    "name": "津軽割烹未来",
    "url": "https://tabelog.com/aomori/A0201/A020101/2001751/",
    "image": "https://tblg.k-img.com/restaurant/images/Rvw/39321/640x640_rect_39321580.jpg",
    "address": "青森県青森市安方2-3-16",
    "rating": 3.74,
    "ratingCount": 90,
    "lat": 40.827929634952156,
    "lng": 140.74076593452608,
    "year": 2025,
    "award": "2025 ・ 百名店 日本料理 東日本",
    "genre": "日本料理"
  },
  {
    "rank": 60,
    "id": "23085579",
    "name": "好日",
    "url": "https://tabelog.com/aichi/A2301/A230110/23085579/",
    "image": "https://tblg.k-img.com/restaurant/images/Rvw/211810/640x640_rect_bd562dd3ea45f73ed25c75a40e917f2a.jpg",
    "address": "愛知県名古屋市東区東大曽根町20-13 ロイヤルマンション十州 1F",
    "rating": 4.14,
    "ratingCount": 162,
    "lat": 35.189391937320664,
    "lng": 136.93296458024082,
    "year": 2025,
    "award": "2025 ・ 百名店 日本料理 東日本",
    "genre": "日本料理"
  },
  {
    "rank": 61,
    "id": "1002718",
    "name": "まつ久ら",
    "url": "https://tabelog.com/hokkaido/A0101/A010103/1002718/",
    "image": "https://tblg.k-img.com/restaurant/images/Rvw/344553/640x640_rect_d5b67397853c09635f5a739ae50e5efd.jpg",
    "address": "北海道札幌市中央区南7条西3 LC2番館 B1F",
    "rating": 3.9,
    "ratingCount": 83,
    "lat": 43.052004564847344,
    "lng": 141.3545211070942,
    "year": 2025,
    "award": "2025 ・ 百名店 日本料理 東日本",
    "genre": "日本料理"
  },
  {
    "rank": 62,
    "id": "23022009",
    "name": "尾頭橋すみや",
    "url": "https://tabelog.com/aichi/A2301/A230105/23022009/",
    "image": "https://tblg.k-img.com/restaurant/images/Rvw/213713/640x640_rect_2f558fc6840f6560cc89c5833247d328.jpg",
    "address": "愛知県名古屋市中川区尾頭橋1-1-35 シティコーポ尾頭橋 1号棟 2F",
    "rating": 3.71,
    "ratingCount": 114,
    "lat": 35.144111037336856,
    "lng": 136.89346707981113,
    "year": 2025,
    "award": "2025 ・ 百名店 日本料理 東日本",
    "genre": "日本料理"
  },
  {
    "rank": 63,
    "id": "10010117",
    "name": "馳走 筏や",
    "url": "https://tabelog.com/gunma/A1002/A100201/10010117/",
    "image": "https://tblg.k-img.com/restaurant/images/Rvw/249278/640x640_rect_9b16950157d7713f4583a45bdbde48b5.jpg",
    "address": "群馬県桐生市広沢町間ノ島389-1",
    "rating": 3.7,
    "ratingCount": 57,
    "lat": 36.3923310881269,
    "lng": 139.3347242818698,
    "year": 2025,
    "award": "2025 ・ 百名店 日本料理 東日本",
    "genre": "日本料理"
  },
  {
    "rank": 64,
    "id": "15000024",
    "name": "鍋茶屋 光琳",
    "url": "https://tabelog.com/niigata/A1501/A150101/15000024/",
    "image": "https://tblg.k-img.com/restaurant/images/Rvw/361032/640x640_rect_5ce4ba00a32c90402a084401f5b556e2.jpg",
    "address": "新潟県新潟市中央区東堀通8番町1420",
    "rating": 3.78,
    "ratingCount": 70,
    "lat": 37.92424957706201,
    "lng": 139.04603074754598,
    "year": 2025,
    "award": "2025 ・ 百名店 日本料理 東日本",
    "genre": "日本料理"
  },
  {
    "rank": 65,
    "id": "23050424",
    "name": "おおたに",
    "url": "https://tabelog.com/aichi/A2301/A230113/23050424/",
    "image": "https://tblg.k-img.com/restaurant/images/Rvw/123029/640x640_rect_123029734.jpg",
    "address": "愛知県名古屋市中村区豊国通4-7",
    "rating": 4.19,
    "ratingCount": 247,
    "lat": 35.16250063731288,
    "lng": 136.8549040800239,
    "year": 2025,
    "award": "2025 ・ 百名店 日本料理 東日本",
    "genre": "日本料理"
  },
  {
    "rank": 66,
    "id": "4016108",
    "name": "日本料理 e.",
    "url": "https://tabelog.com/miyagi/A0401/A040101/4016108/",
    "image": "https://tblg.k-img.com/restaurant/images/Rvw/35962/640x640_rect_35962027.jpg",
    "address": "宮城県仙台市青葉区片平1-1-18 バレンタインハウス 1F",
    "rating": 3.76,
    "ratingCount": 297,
    "lat": 38.25813910429397,
    "lng": 140.86828581830346,
    "year": 2025,
    "award": "2025 ・ 百名店 日本料理 東日本",
    "genre": "日本料理"
  },
  {
    "rank": 67,
    "id": "23082249",
    "name": "日本料理 かしづき",
    "url": "https://tabelog.com/aichi/A2301/A230106/23082249/",
    "image": "https://tblg.k-img.com/restaurant/images/Rvw/264493/640x640_rect_b36e1a42b2202f7f74d72b3872dbb6ce.jpg",
    "address": "愛知県名古屋市千種区仲田2-12-4 レインボー池下 2F",
    "rating": 3.8,
    "ratingCount": 114,
    "lat": 35.16995423814145,
    "lng": 136.94261268119945,
    "year": 2025,
    "award": "2025 ・ 百名店 日本料理 東日本",
    "genre": "日本料理"
  },
  {
    "rank": 68,
    "id": "23086899",
    "name": "日本料理 鷹光",
    "url": "https://tabelog.com/aichi/A2301/A230104/23086899/",
    "image": "https://tblg.k-img.com/restaurant/images/Rvw/339874/640x640_rect_a741ec62446c2e16abab4a8cf99f5002.jpg",
    "address": "愛知県名古屋市東区泉3-21-12",
    "rating": 4.13,
    "ratingCount": 62,
    "lat": 35.17597963863586,
    "lng": 136.91908865109627,
    "year": 2025,
    "award": "2025 ・ 百名店 日本料理 東日本",
    "genre": "日本料理"
  },
  {
    "rank": 69,
    "id": "5000689",
    "name": "和食すがわら",
    "url": "https://tabelog.com/akita/A0501/A050101/5000689/",
    "image": "https://tblg.k-img.com/restaurant/images/Rvw/318215/640x640_rect_3df36eec747fc7e99373f80bfb8d17e1.jpg",
    "address": "秋田県秋田市大町1-2-7 サンパティオ大町",
    "rating": 3.8,
    "ratingCount": 123,
    "lat": 39.719551956263054,
    "lng": 140.11766855492903,
    "year": 2025,
    "award": "2025 ・ 百名店 日本料理 東日本",
    "genre": "日本料理"
  },
  {
    "rank": 70,
    "id": "1007034",
    "name": "みえ田",
    "url": "https://tabelog.com/hokkaido/A0101/A010103/1007034/",
    "image": "https://tblg.k-img.com/restaurant/images/Rvw/335045/640x640_rect_e5fcff17bc1c8b28882d836fb83aa4f2.jpg",
    "address": "北海道札幌市中央区南五条西3丁目 第23桂和ビル 4F",
    "rating": 4.01,
    "ratingCount": 123,
    "lat": 43.0548373645384,
    "lng": 141.353773667752,
    "year": 2025,
    "award": "2025 ・ 百名店 日本料理 東日本",
    "genre": "日本料理"
  },
  {
    "rank": 71,
    "id": "14083457",
    "name": "鎌倉 北じま",
    "url": "https://tabelog.com/kanagawa/A1404/A140402/14083457/",
    "image": "https://tblg.k-img.com/restaurant/images/Rvw/193611/640x640_rect_7b4fb12a06af5070b5bef8a16bbb8ace.jpg",
    "address": "神奈川県鎌倉市大町4-3-18",
    "rating": 4.4,
    "ratingCount": 312,
    "lat": 35.31245963807847,
    "lng": 139.55798527964384,
    "year": 2025,
    "award": "2025 ・ 百名店 日本料理 東日本",
    "genre": "日本料理"
  },
  {
    "rank": 72,
    "id": "22001305",
    "name": "新日本料理おぶね",
    "url": "https://tabelog.com/shizuoka/A2203/A220303/22001305/",
    "image": "https://tblg.k-img.com/restaurant/images/Rvw/271732/640x640_rect_8421165a4081d89c0506f23020e8a9a8.jpg",
    "address": "静岡県菊川市加茂4948",
    "rating": 3.84,
    "ratingCount": 182,
    "lat": 34.747286037968045,
    "lng": 138.08408577496826,
    "year": 2025,
    "award": "2025 ・ 百名店 日本料理 東日本",
    "genre": "日本料理"
  },
  {
    "rank": 73,
    "id": "20001639",
    "name": "日本料理 嘉助",
    "url": "https://tabelog.com/nagano/A2003/A200301/20001639/",
    "image": "https://tblg.k-img.com/restaurant/images/Rvw/8439/640x640_rect_8439470.jpg",
    "address": "長野県北佐久郡軽井沢町大字長倉星野2144 星のや 軽井沢",
    "rating": 3.69,
    "ratingCount": 137,
    "lat": 36.36432982790772,
    "lng": 138.59063528210856,
    "year": 2025,
    "award": "2025 ・ 百名店 日本料理 東日本",
    "genre": "日本料理"
  },
  {
    "rank": 74,
    "id": "23051528",
    "name": "魯忍",
    "url": "https://tabelog.com/aichi/A2301/A230104/23051528/",
    "image": "https://tblg.k-img.com/restaurant/images/Rvw/64206/640x640_rect_64206721.jpg",
    "address": "愛知県名古屋市東区東桜2-15-11 アメニティ東桜 1F",
    "rating": 3.66,
    "ratingCount": 113,
    "lat": 35.17161779813219,
    "lng": 136.91687485123435,
    "year": 2025,
    "award": "2025 ・ 百名店 日本料理 東日本",
    "genre": "日本料理"
  },
  {
    "rank": 75,
    "id": "23052979",
    "name": "おん喰　せき尾",
    "url": "https://tabelog.com/aichi/A2301/A230104/23052979/",
    "image": "https://tblg.k-img.com/restaurant/images/Rvw/300763/640x640_rect_f4f01c9b820fc120e25afce211c69350.jpg",
    "address": "愛知県名古屋市東区泉3丁目24-12 渡辺ビル １F",
    "rating": 3.7,
    "ratingCount": 39,
    "lat": 35.17518762813049,
    "lng": 136.91863342126913,
    "year": 2025,
    "award": "2025 ・ 百名店 日本料理 東日本",
    "genre": "日本料理"
  },
  {
    "rank": 76,
    "id": "7000278",
    "name": "らん亭～ 美日庵",
    "url": "https://tabelog.com/fukushima/A0702/A070201/7000278/",
    "image": "https://tblg.k-img.com/restaurant/images/Rvw/91672/320x320_rect_91672764.jpg",
    "address": "福島県郡山市富田東5-101",
    "rating": 4.05,
    "ratingCount": 137,
    "lat": 37.422531153737346,
    "lng": 140.3708014201098,
    "year": 2025,
    "award": "2025 ・ 百名店 日本料理 東日本",
    "genre": "日本料理"
  },
  {
    "rank": 77,
    "id": "23053453",
    "name": "懐韻",
    "url": "https://tabelog.com/aichi/A2301/A230109/23053453/",
    "image": "https://tblg.k-img.com/restaurant/images/Rvw/152797/640x640_rect_152797342.jpg",
    "address": "愛知県名古屋市西区那古野1-2-11",
    "rating": 3.59,
    "ratingCount": 184,
    "lat": 35.17658444170417,
    "lng": 136.89266893821855,
    "year": 2025,
    "award": "2025 ・ 百名店 日本料理 東日本",
    "genre": "日本料理"
  },
  {
    "rank": 78,
    "id": "15020999",
    "name": "割烹 渡辺",
    "url": "https://tabelog.com/niigata/A1501/A150101/15020999/",
    "image": "https://tblg.k-img.com/restaurant/images/Rvw/347280/640x640_rect_411d3a8267870fe880adde07fdcbc4fc.jpg",
    "address": "新潟県新潟市西蒲区巻甲2443",
    "rating": 3.93,
    "ratingCount": 93,
    "lat": 37.75558013631323,
    "lng": 138.8873762047917,
    "year": 2025,
    "award": "2025 ・ 百名店 日本料理 東日本",
    "genre": "日本料理"
  },
  {
    "rank": 79,
    "id": "23004115",
    "name": "京都 吉兆 名古屋店",
    "url": "https://tabelog.com/aichi/A2301/A230101/23004115/",
    "image": "https://tblg.k-img.com/restaurant/images/Rvw/243160/640x640_rect_7dba9132fc1bd2e49dc23af845845e7f.jpg",
    "address": "愛知県名古屋市中村区名駅4-7-1 ミッドランドスクエア オフィスタワー41F",
    "rating": 3.71,
    "ratingCount": 131,
    "lat": 35.17065253731733,
    "lng": 136.88514298008505,
    "year": 2025,
    "award": "2025 ・ 百名店 日本料理 東日本",
    "genre": "日本料理"
  },
  {
    "rank": 80,
    "id": "14061395",
    "name": "馬車道 大かわ",
    "url": "https://tabelog.com/kanagawa/A1401/A140104/14061395/",
    "image": "https://tblg.k-img.com/restaurant/images/Rvw/59713/320x320_rect_59713877.jpg",
    "address": "神奈川県横浜市中区太田町4-48 川島ビルディング 1F",
    "rating": 3.77,
    "ratingCount": 217,
    "lat": 35.44813783801741,
    "lng": 139.63682968095904,
    "year": 2025,
    "award": "2025 ・ 百名店 日本料理 東日本",
    "genre": "日本料理"
  },
  {
    "rank": 81,
    "id": "6007923",
    "name": "御りょうり屋 伊藤",
    "url": "https://tabelog.com/yamagata/A0601/A060101/6007923/",
    "image": "https://tblg.k-img.com/restaurant/images/Rvw/213590/640x640_rect_a4c155c7933bf4b0f544ee5c29e4993a.jpg",
    "address": "山形県山形市七日町4-10-16",
    "rating": 3.65,
    "ratingCount": 44,
    "lat": 38.25368596726612,
    "lng": 140.34395986996375,
    "year": 2025,
    "award": "2025 ・ 百名店 日本料理 東日本",
    "genre": "日本料理"
  },
  {
    "rank": 82,
    "id": "2012387",
    "name": "陽",
    "url": "https://tabelog.com/aomori/A0202/A020201/2012387/",
    "image": "https://tblg.k-img.com/restaurant/images/Rvw/335050/640x640_rect_01cdaceb88916f39fdd54b30749d705f.jpg",
    "address": "青森県弘前市北川端町36-3",
    "rating": 4.25,
    "ratingCount": 46,
    "lat": 40.5996227458169,
    "lng": 140.47187083357025,
    "year": 2025,
    "award": "2025 ・ 百名店 日本料理 東日本",
    "genre": "日本料理"
  },
  {
    "rank": 83,
    "id": "23013752",
    "name": "割烹 天海",
    "url": "https://tabelog.com/aichi/A2302/A230201/23013752/",
    "image": "https://tblg.k-img.com/restaurant/images/Rvw/304474/640x640_rect_11799e2be7d6d0a64bc279ad57525962.jpg",
    "address": "愛知県一宮市末広1-18-12",
    "rating": 3.59,
    "ratingCount": 20,
    "lat": 35.29523187801404,
    "lng": 136.7923806725702,
    "year": 2025,
    "award": "2025 ・ 百名店 日本料理 東日本",
    "genre": "日本料理"
  },
  {
    "rank": 84,
    "id": "23062226",
    "name": "酒亭なわ",
    "url": "https://tabelog.com/aichi/A2301/A230104/23062226/",
    "image": "https://tblg.k-img.com/restaurant/images/Rvw/163237/320x320_square_aa292824f019656368b28a55262a3581.jpg",
    "address": "愛知県名古屋市中区東桜2-22-33 第一照運寺ビル1F",
    "rating": 3.71,
    "ratingCount": 86,
    "lat": 35.1700244373275,
    "lng": 136.91582088005717,
    "year": 2025,
    "award": "2025 ・ 百名店 日本料理 東日本",
    "genre": "日本料理"
  },
  {
    "rank": 85,
    "id": "21013604",
    "name": "手酌割烹 てら田",
    "url": "https://tabelog.com/gifu/A2101/A210101/21013604/",
    "image": "https://tblg.k-img.com/restaurant/images/Rvw/25709/640x640_rect_25709969.jpg",
    "address": "岐阜県岐阜市吉野町5-14 丸安会館 1F",
    "rating": 3.64,
    "ratingCount": 205,
    "lat": 35.41093883712401,
    "lng": 136.75730168260176,
    "year": 2025,
    "award": "2025 ・ 百名店 日本料理 東日本",
    "genre": "日本料理"
  },
  {
    "rank": 86,
    "id": "23001697",
    "name": "馳走菴 ひじり",
    "url": "https://tabelog.com/aichi/A2301/A230109/23001697/",
    "image": "https://tblg.k-img.com/restaurant/images/Rvw/99045/640x640_rect_99045392.jpg",
    "address": "愛知県名古屋市東区東片端町24 ハセガワビル 1F",
    "rating": 3.63,
    "ratingCount": 192,
    "lat": 35.17874975812636,
    "lng": 136.91274177130927,
    "year": 2025,
    "award": "2025 ・ 百名店 日本料理 東日本",
    "genre": "日本料理"
  },
  {
    "rank": 87,
    "id": "23059429",
    "name": "輪久",
    "url": "https://tabelog.com/aichi/A2301/A230105/23059429/",
    "image": "https://tblg.k-img.com/restaurant/images/Rvw/328605/640x640_rect_cdc60354f594410fc4621a8f8c110f86.jpg",
    "address": "愛知県名古屋市中区大須4-6-15 荘苑南久屋202",
    "rating": 3.66,
    "ratingCount": 211,
    "lat": 35.158446037332865,
    "lng": 136.90958097994462,
    "year": 2025,
    "award": "2025 ・ 百名店 日本料理 東日本",
    "genre": "日本料理"
  },
  {
    "rank": 88,
    "id": "23036671",
    "name": "明庵",
    "url": "https://tabelog.com/aichi/A2301/A230110/23036671/",
    "image": "https://tblg.k-img.com/restaurant/images/Rvw/272465/640x640_rect_1d01234d7281366c4f0e54fed8335f2a.jpg",
    "address": "愛知県名古屋市東区徳川町2103番地 城ビル１Ｆ　",
    "rating": 3.58,
    "ratingCount": 45,
    "lat": 35.186410537321606,
    "lng": 136.9300070802128,
    "year": 2025,
    "award": "2025 ・ 百名店 日本料理 東日本",
    "genre": "日本料理"
  },
  {
    "rank": 89,
    "id": "21000267",
    "name": "たか田八祥",
    "url": "https://tabelog.com/gifu/A2101/A210101/21000267/",
    "image": "https://tblg.k-img.com/restaurant/images/Rvw/175914/640x640_rect_e7419e72fbece75c273a2ef23b395eb0.jpg",
    "address": "岐阜県岐阜市杉山町17-2",
    "rating": 3.73,
    "ratingCount": 193,
    "lat": 35.422337417922776,
    "lng": 136.75931740387728,
    "year": 2025,
    "award": "2025 ・ 百名店 日本料理 東日本",
    "genre": "日本料理"
  },
  {
    "rank": 90,
    "id": "1060884",
    "name": "壽山",
    "url": "https://tabelog.com/hokkaido/A0101/A010104/1060884/",
    "image": "https://tblg.k-img.com/restaurant/images/Rvw/164343/640x640_rect_755ab4f51a64a53ad2b568a25d81f7d5.jpg",
    "address": "北海道札幌市中央区大通西17-2-8 グラシアス大通 1F",
    "rating": 4.17,
    "ratingCount": 132,
    "lat": 43.05773293372396,
    "lng": 141.3310910566354,
    "year": 2025,
    "award": "2025 ・ 百名店 日本料理 東日本",
    "genre": "日本料理"
  },
  {
    "rank": 91,
    "id": "20002726",
    "name": "無名",
    "url": "https://tabelog.com/nagano/A2004/A200403/20002726/",
    "image": "https://tblg.k-img.com/restaurant/images/Rvw/209007/640x640_rect_12b96711828190b1726e70e44fe9bd04.jpg",
    "address": "長野県茅野市仲町5-4",
    "rating": 4.21,
    "ratingCount": 101,
    "lat": 35.99404423719862,
    "lng": 138.15451668751226,
    "year": 2025,
    "award": "2025 ・ 百名店 日本料理 東日本",
    "genre": "日本料理"
  },
  {
    "rank": 92,
    "id": "23052408",
    "name": "やすい",
    "url": "https://tabelog.com/aichi/A2301/A230113/23052408/",
    "image": "https://tblg.k-img.com/restaurant/images/Rvw/115860/640x640_rect_115860329.jpg",
    "address": "愛知県名古屋市中村区上石川町5-30",
    "rating": 3.7,
    "ratingCount": 96,
    "lat": 35.161561537313126,
    "lng": 136.85381218001518,
    "year": 2025,
    "award": "2025 ・ 百名店 日本料理 東日本",
    "genre": "日本料理"
  },
  {
    "rank": 93,
    "id": "23055587",
    "name": "一灯",
    "url": "https://tabelog.com/aichi/A2305/A230503/23055587/",
    "image": "https://tblg.k-img.com/restaurant/images/Rvw/195582/640x640_rect_8b4d19445f4f89a98c4b2a764c283a47.jpg",
    "address": "愛知県碧南市作塚町1-16",
    "rating": 3.58,
    "ratingCount": 59,
    "lat": 34.88082763753553,
    "lng": 136.99229947708244,
    "year": 2025,
    "award": "2025 ・ 百名店 日本料理 東日本",
    "genre": "日本料理"
  },
  {
    "rank": 94,
    "id": "7001521",
    "name": "丸新",
    "url": "https://tabelog.com/fukushima/A0702/A070201/7001521/",
    "image": "https://tblg.k-img.com/restaurant/images/Rvw/175711/640x640_rect_8df1e0b4f2a668eabf7298c183724b8a.jpg",
    "address": "福島県郡山市神明町15-4",
    "rating": 3.94,
    "ratingCount": 389,
    "lat": 37.401043637013245,
    "lng": 140.37835490016542,
    "year": 2025,
    "award": "2025 ・ 百名店 日本料理 東日本",
    "genre": "日本料理"
  },
  {
    "rank": 95,
    "id": "23077422",
    "name": "華丸吉日",
    "url": "https://tabelog.com/aichi/A2301/A230103/23077422/",
    "image": "https://tblg.k-img.com/restaurant/images/Rvw/365083/640x640_rect_9b3e6d6d42598aaecb4c693c0cd68205.jpg",
    "address": "愛知県名古屋市中区栄5-1-21 MLアシスト栄ビル 1F﻿",
    "rating": 3.77,
    "ratingCount": 142,
    "lat": 35.16523314813426,
    "lng": 136.91062037117422,
    "year": 2025,
    "award": "2025 ・ 百名店 日本料理 東日本",
    "genre": "日本料理"
  },
  {
    "rank": 96,
    "id": "15001790",
    "name": "割烹 新多久",
    "url": "https://tabelog.com/niigata/A1505/A150504/15001790/",
    "image": "https://tblg.k-img.com/restaurant/images/Rvw/194093/640x640_rect_ef4a97431429174983a7b0e1c86fa3b8.jpg",
    "address": "新潟県村上市小町3-38",
    "rating": 4.37,
    "ratingCount": 302,
    "lat": 38.22547433620264,
    "lng": 139.47720970912462,
    "year": 2025,
    "award": "2025 ・ 百名店 日本料理 東日本",
    "genre": "日本料理"
  },
  {
    "rank": 97,
    "id": "1016052",
    "name": "味道広路",
    "url": "https://tabelog.com/hokkaido/A0107/A010704/1016052/",
    "image": "https://tblg.k-img.com/restaurant/images/Rvw/233268/640x640_rect_fd4126d074f201c1747cd5d26f94f14a.jpg",
    "address": "北海道夕張郡栗山町湯地40-35",
    "rating": 4.41,
    "ratingCount": 144,
    "lat": 43.06025086467579,
    "lng": 141.79598136749672,
    "year": 2025,
    "award": "2025 ・ 百名店 日本料理 東日本",
    "genre": "日本料理"
  },
  {
    "rank": 98,
    "id": "23077259",
    "name": "京味 もと井",
    "url": "https://tabelog.com/aichi/A2301/A230107/23077259/",
    "image": "https://tblg.k-img.com/restaurant/images/Rvw/278018/640x640_rect_c3ba0197c792f51f57220bff05686456.jpg",
    "address": "愛知県名古屋市千種区西山元町1-58",
    "rating": 4.04,
    "ratingCount": 300,
    "lat": 35.171267294375546,
    "lng": 136.95397136025466,
    "year": 2025,
    "award": "2025 ・ 百名店 日本料理 東日本",
    "genre": "日本料理"
  },
  {
    "rank": 99,
    "id": "21000007",
    "name": "匠味 平野",
    "url": "https://tabelog.com/gifu/A2101/A210101/21000007/",
    "image": "https://tblg.k-img.com/restaurant/images/Rvw/259047/640x640_rect_41261cb787e1bd08adad88b149ee8664.jpg",
    "address": "岐阜県岐阜市御浪町10 御浪ビル　１Ｆ",
    "rating": 3.63,
    "ratingCount": 46,
    "lat": 35.41930053792525,
    "lng": 136.76099316384543,
    "year": 2025,
    "award": "2025 ・ 百名店 日本料理 東日本",
    "genre": "日本料理"
  }
]