[
  {
    "rank": 1,
    "id": "13031814",
    "name": "定谷",
    "url": "https://tabelog.com/tokyo/A1311/A131104/13031814/",
    "image": "https://tblg.k-img.com/restaurant/images/Rvw/10438/640x640_rect_10438970.jpg",
    "address": "東京都台東区根岸4-3-2",
    "rating": 3.58,
    "ratingCount": 76,
    "lat": 35.72488693788843,
    "lng": 139.7837756836515,
    "year": 2025,
    "award": "2025 ・ 百名店 ステーキ・鉄板焼き 東日本",
    "genre": "ステーキ・鉄板焼き"
  },
  {
    "rank": 2,
    "id": "13172995",
    "name": "BLT STEAK  ROPPONGI",
    "url": "https://tabelog.com/tokyo/A1307/A130701/13172995/",
    "image": "https://tblg.k-img.com/restaurant/images/Rvw/157758/640x640_rect_157758596.jpg",
    "address": "東京都港区六本木1丁目6-1 泉ガーデン5階",
    "rating": 3.6,
    "ratingCount": 920,
    "lat": 35.66460363791256,
    "lng": 139.73929188307375,
    "year": 2025,
    "award": "2025 ・ 百名店 ステーキ・鉄板焼き 東日本",
    "genre": "ステーキ・鉄板焼き"
  },
  {
    "rank": 3,
    "id": "13220651",
    "name": "神楽坂 鉄板焼 向日葵",
    "url": "https://tabelog.com/tokyo/A1309/A130905/13220651/",
    "image": "https://tblg.k-img.com/restaurant/images/Rvw/221513/640x640_rect_a55c1bdd1c194e9ec9c00bba9b59a48c.jpg",
    "address": "東京都新宿区神楽坂3-6-40 かぐらビル 3F",
    "rating": 3.64,
    "ratingCount": 524,
    "lat": 35.70101293788949,
    "lng": 139.73945148344137,
    "year": 2025,
    "award": "2025 ・ 百名店 ステーキ・鉄板焼き 東日本",
    "genre": "ステーキ・鉄板焼き"
  },
  {
    "rank": 4,
    "id": "23045350",
    "name": "鉄板DINING集 栄店",
    "url": "https://tabelog.com/aichi/A2301/A230103/23045350/",
    "image": "https://tblg.k-img.com/restaurant/images/Rvw/215018/640x640_rect_0a9dbaf1b500d8f1ca8b0b21307a36c5.jpg",
    "address": "愛知県名古屋市中区栄3-23-5 Arrow栄ビル 2F",
    "rating": 3.59,
    "ratingCount": 315,
    "lat": 35.16496343732701,
    "lng": 136.90415818001426,
    "year": 2025,
    "award": "2025 ・ 百名店 ステーキ・鉄板焼き 東日本",
    "genre": "ステーキ・鉄板焼き"
  },
  {
    "rank": 5,
    "id": "23071120",
    "name": "尾乃道",
    "url": "https://tabelog.com/aichi/A2301/A230103/23071120/",
    "image": "https://tblg.k-img.com/restaurant/images/Rvw/114094/640x640_rect_114094324.jpg",
    "address": "愛知県名古屋市東区泉1-17-29",
    "rating": 3.66,
    "ratingCount": 93,
    "lat": 35.17500413732271,
    "lng": 136.91068438011112,
    "year": 2025,
    "award": "2025 ・ 百名店 ステーキ・鉄板焼き 東日本",
    "genre": "ステーキ・鉄板焼き"
  },
  {
    "rank": 6,
    "id": "13209209",
    "name": "PENTHOUSE GINZA hanare:",
    "url": "https://tabelog.com/tokyo/A1301/A130101/13209209/",
    "image": "https://tblg.k-img.com/restaurant/images/Rvw/82754/640x640_rect_82754592.jpg",
    "address": "東京都中央区銀座8-5-9 民友ビル 3F",
    "rating": 3.61,
    "ratingCount": 95,
    "lat": 35.66872837728557,
    "lng": 139.76000513764617,
    "year": 2025,
    "award": "2025 ・ 百名店 ステーキ・鉄板焼き 東日本",
    "genre": "ステーキ・鉄板焼き"
  },
  {
    "rank": 7,
    "id": "9018659",
    "name": "妙月坊",
    "url": "https://tabelog.com/tochigi/A0903/A090301/9018659/",
    "image": "https://tblg.k-img.com/restaurant/images/Rvw/270262/640x640_rect_442e765abf22f5fd1814caa4a784c5f7.jpg",
    "address": "栃木県日光市山内2381",
    "rating": 3.68,
    "ratingCount": 264,
    "lat": 36.75410157798284,
    "lng": 139.6038308553354,
    "year": 2025,
    "award": "2025 ・ 百名店 ステーキ・鉄板焼き 東日本",
    "genre": "ステーキ・鉄板焼き"
  },
  {
    "rank": 8,
    "id": "13002356",
    "name": "哥利歐",
    "url": "https://tabelog.com/tokyo/A1313/A131301/13002356/",
    "image": "https://tblg.k-img.com/restaurant/images/Rvw/143915/640x640_rect_143915725.jpg",
    "address": "東京都中央区銀座8-18-3 DJ銀座ビル1F",
    "rating": 3.77,
    "ratingCount": 210,
    "lat": 35.66625753791971,
    "lng": 139.7649904830724,
    "year": 2025,
    "award": "2025 ・ 百名店 ステーキ・鉄板焼き 東日本",
    "genre": "ステーキ・鉄板焼き"
  },
  {
    "rank": 9,
    "id": "13045091",
    "name": "ルース クリス ステーキハウス",
    "url": "https://tabelog.com/tokyo/A1308/A130802/13045091/",
    "image": "https://tblg.k-img.com/restaurant/images/Rvw/245870/640x640_rect_9914c46fa4d892a575c0b0f55884df92.jpg",
    "address": "東京都千代田区霞が関3-2-6 東京倶楽部ビルディング　霞ダイニング　１Ｆ",
    "rating": 3.7,
    "ratingCount": 675,
    "lat": 35.670590828716435,
    "lng": 139.7465244542909,
    "year": 2025,
    "award": "2025 ・ 百名店 ステーキ・鉄板焼き 東日本",
    "genre": "ステーキ・鉄板焼き"
  },
  {
    "rank": 11,
    "id": "13007536",
    "name": "鉄板焼 赤坂",
    "url": "https://tabelog.com/tokyo/A1308/A130802/13007536/",
    "image": "https://tblg.k-img.com/restaurant/images/Rvw/288371/320x320_rect_0b0215e31b3bfc64b51ca4e5ffce9831.jpg",
    "address": "東京都港区赤坂1-12-33 ANAインターコンチネンタルホテル東京 37F",
    "rating": 3.62,
    "ratingCount": 350,
    "lat": 35.66806793791096,
    "lng": 139.7411755831074,
    "year": 2025,
    "award": "2025 ・ 百名店 ステーキ・鉄板焼き 東日本",
    "genre": "ステーキ・鉄板焼き"
  },
  {
    "rank": 12,
    "id": "13264012",
    "name": "鉄板焼さざん",
    "url": "https://tabelog.com/tokyo/A1316/A131603/13264012/",
    "image": "https://tblg.k-img.com/restaurant/images/Rvw/232030/640x640_rect_f1689653a4f4a2b67362b2337bebee9d.jpg",
    "address": "東京都品川区西五反田2-10-8 ドルミ五反田ドゥメゾン 112",
    "rating": 3.58,
    "ratingCount": 287,
    "lat": 35.6271390379305,
    "lng": 139.7208671827082,
    "year": 2025,
    "award": "2025 ・ 百名店 ステーキ・鉄板焼き 東日本",
    "genre": "ステーキ・鉄板焼き"
  },
  {
    "rank": 13,
    "id": "13165420",
    "name": "ロウリーズ・ザ・プライムリブ 恵比寿ガーデンプレイス店",
    "url": "https://tabelog.com/tokyo/A1303/A130302/13165420/",
    "image": "https://tblg.k-img.com/restaurant/images/Rvw/364802/640x640_rect_3477404b41af15af6a7deefc77cd588e.jpg",
    "address": "東京都渋谷区恵比寿4-20-3 恵比寿ガーデンプレイスタワー B2F",
    "rating": 3.62,
    "ratingCount": 2553,
    "lat": 35.642211637918614,
    "lng": 139.71367388286552,
    "year": 2025,
    "award": "2025 ・ 百名店 ステーキ・鉄板焼き 東日本",
    "genre": "ステーキ・鉄板焼き"
  },
  {
    "rank": 14,
    "id": "13173227",
    "name": "Steak Dining Vitis",
    "url": "https://tabelog.com/tokyo/A1317/A131701/13173227/",
    "image": "https://tblg.k-img.com/restaurant/images/Rvw/129950/640x640_rect_129950694.jpg",
    "address": "東京都目黒区上目黒3-1-13 ACE中目黒ビル B1F",
    "rating": 3.62,
    "ratingCount": 248,
    "lat": 35.64525083791144,
    "lng": 139.69714698290775,
    "year": 2025,
    "award": "2025 ・ 百名店 ステーキ・鉄板焼き 東日本",
    "genre": "ステーキ・鉄板焼き"
  },
  {
    "rank": 15,
    "id": "13124827",
    "name": "ワカヌイ グリル ダイニング バー 東京",
    "url": "https://tabelog.com/tokyo/A1307/A130704/13124827/",
    "image": "https://tblg.k-img.com/restaurant/images/Rvw/174166/320x320_rect_84c3d8e8ceecaf1dbe39126275a724c8.jpg",
    "address": "東京都港区芝公園3-4-30 32芝公園ビル 10F",
    "rating": 3.66,
    "ratingCount": 775,
    "lat": 35.65886366872385,
    "lng": 139.7464358841725,
    "year": 2025,
    "award": "2025 ・ 百名店 ステーキ・鉄板焼き 東日本",
    "genre": "ステーキ・鉄板焼き"
  },
  {
    "rank": 16,
    "id": "8009475",
    "name": "しらかわ",
    "url": "https://tabelog.com/ibaraki/A0801/A080101/8009475/",
    "image": "https://tblg.k-img.com/restaurant/images/Rvw/317989/640x640_rect_eb5e482583570aeddbff447492139484.jpg",
    "address": "茨城県水戸市南町2-3-32 西洋倶楽部ビル 2F",
    "rating": 3.61,
    "ratingCount": 68,
    "lat": 36.37533556837843,
    "lng": 140.47042567080217,
    "year": 2025,
    "award": "2025 ・ 百名店 ステーキ・鉄板焼き 東日本",
    "genre": "ステーキ・鉄板焼き"
  },
  {
    "rank": 17,
    "id": "13020504",
    "name": "佐賀牛 銀座季楽",
    "url": "https://tabelog.com/tokyo/A1301/A130101/13020504/",
    "image": "https://tblg.k-img.com/restaurant/images/Rvw/325879/640x640_rect_dd441304c72c62d3638371582a9131ce.jpg",
    "address": "東京都中央区銀座5-4-6 ロイヤルクリスタル銀座　5F",
    "rating": 3.67,
    "ratingCount": 493,
    "lat": 35.67172093791568,
    "lng": 139.7632981831288,
    "year": 2025,
    "award": "2025 ・ 百名店 ステーキ・鉄板焼き 東日本",
    "genre": "ステーキ・鉄板焼き"
  },
  {
    "rank": 18,
    "id": "14000790",
    "name": "横浜うかい亭",
    "url": "https://tabelog.com/kanagawa/A1407/A140702/14000790/",
    "image": "https://tblg.k-img.com/restaurant/images/Rvw/71014/320x320_rect_71014753.jpg",
    "address": "神奈川県大和市つきみ野6-5-2",
    "rating": 3.68,
    "ratingCount": 910,
    "lat": 35.5146071379163,
    "lng": 139.45189798176008,
    "year": 2025,
    "award": "2025 ・ 百名店 ステーキ・鉄板焼き 東日本",
    "genre": "ステーキ・鉄板焼き"
  },
  {
    "rank": 19,
    "id": "20000179",
    "name": "ザ　カウボーイハウス",
    "url": "https://tabelog.com/nagano/A2003/A200301/20000179/",
    "image": "https://tblg.k-img.com/restaurant/images/Rvw/231002/640x640_rect_06973cc8f629523c3cff4fde8c13e69e.jpg",
    "address": "長野県北佐久郡軽井沢町大字長倉2144",
    "rating": 3.84,
    "ratingCount": 712,
    "lat": 36.36026373790983,
    "lng": 138.58915840206853,
    "year": 2025,
    "award": "2025 ・ 百名店 ステーキ・鉄板焼き 東日本",
    "genre": "ステーキ・鉄板焼き"
  },
  {
    "rank": 20,
    "id": "9002608",
    "name": "ステーキハウス寿楽 本店",
    "url": "https://tabelog.com/tochigi/A0905/A090501/9002608/",
    "image": "https://tblg.k-img.com/restaurant/images/Rvw/82065/320x320_rect_82065723.jpg",
    "address": "栃木県那須郡那須町湯本379",
    "rating": 3.61,
    "ratingCount": 810,
    "lat": 37.077289168566246,
    "lng": 140.01345983786737,
    "year": 2025,
    "award": "2025 ・ 百名店 ステーキ・鉄板焼き 東日本",
    "genre": "ステーキ・鉄板焼き"
  },
  {
    "rank": 21,
    "id": "11060888",
    "name": "ステーキ ハウス ベラス 所沢店",
    "url": "https://tabelog.com/saitama/A1106/A110601/11060888/",
    "image": "https://tblg.k-img.com/restaurant/images/Rvw/232107/640x640_rect_5554e0796b063de7b5d402261356d5bd.jpg",
    "address": "埼玉県所沢市緑町2-13-2 日高ビル 1F B",
    "rating": 3.58,
    "ratingCount": 285,
    "lat": 35.804462637733316,
    "lng": 139.45534518468546,
    "year": 2025,
    "award": "2025 ・ 百名店 ステーキ・鉄板焼き 東日本",
    "genre": "ステーキ・鉄板焼き"
  },
  {
    "rank": 22,
    "id": "13226598",
    "name": "Morton's The Steakhouse 丸の内",
    "url": "https://tabelog.com/tokyo/A1301/A130102/13226598/",
    "image": "https://tblg.k-img.com/restaurant/images/Rvw/147086/320x320_rect_147086434.jpg",
    "address": "東京都千代田区丸の内3-2-3 丸の内二重橋ビル 二重橋スクエア 2F",
    "rating": 3.63,
    "ratingCount": 465,
    "lat": 35.67797573791127,
    "lng": 139.76190148319293,
    "year": 2025,
    "award": "2025 ・ 百名店 ステーキ・鉄板焼き 東日本",
    "genre": "ステーキ・鉄板焼き"
  },
  {
    "rank": 23,
    "id": "12056839",
    "name": "鉄板焼 九九",
    "url": "https://tabelog.com/chiba/A1202/A120201/12056839/",
    "image": "https://tblg.k-img.com/restaurant/images/Rvw/201394/640x640_rect_361ef28b68731b5df03a97a5fc0d0c0e.jpg",
    "address": "千葉県船橋市西船4-20-2-1",
    "rating": 3.57,
    "ratingCount": 321,
    "lat": 35.70851869288453,
    "lng": 139.9581171302247,
    "year": 2025,
    "award": "2025 ・ 百名店 ステーキ・鉄板焼き 東日本",
    "genre": "ステーキ・鉄板焼き"
  },
  {
    "rank": 24,
    "id": "23002562",
    "name": "ステーキハウス スエ",
    "url": "https://tabelog.com/aichi/A2301/A230101/23002562/",
    "image": "https://tblg.k-img.com/restaurant/images/Rvw/353675/640x640_rect_6b0ac04ca8f5270bb62fe85dd0adae32.jpg",
    "address": "愛知県名古屋市中村区名駅南1-8-18",
    "rating": 3.62,
    "ratingCount": 197,
    "lat": 35.166852568126785,
    "lng": 136.89037414120477,
    "year": 2025,
    "award": "2025 ・ 百名店 ステーキ・鉄板焼き 東日本",
    "genre": "ステーキ・鉄板焼き"
  },
  {
    "rank": 25,
    "id": "23069527",
    "name": "L'atelier泉",
    "url": "https://tabelog.com/aichi/A2301/A230103/23069527/",
    "image": "https://tblg.k-img.com/restaurant/images/Rvw/102932/640x640_rect_102932613.jpg",
    "address": "愛知県名古屋市東区泉1-17-3 オレンジタウン 2F",
    "rating": 3.64,
    "ratingCount": 95,
    "lat": 35.175684437322104,
    "lng": 136.9101610801183,
    "year": 2025,
    "award": "2025 ・ 百名店 ステーキ・鉄板焼き 東日本",
    "genre": "ステーキ・鉄板焼き"
  },
  {
    "rank": 26,
    "id": "13273441",
    "name": "T",
    "url": "https://tabelog.com/tokyo/A1317/A131701/13273441/",
    "image": "https://tblg.k-img.com/restaurant/images/Rvw/209805/320x320_rect_e9cde54e28bae9f57217ac99af31bd92.jpg",
    "address": "東京都目黒区上目黒2-37-12 コンフォート中目黒 1F",
    "rating": 3.62,
    "ratingCount": 183,
    "lat": 35.64113683791376,
    "lng": 139.69627158286684,
    "year": 2025,
    "award": "2025 ・ 百名店 ステーキ・鉄板焼き 東日本",
    "genre": "ステーキ・鉄板焼き"
  },
  {
    "rank": 27,
    "id": "23051033",
    "name": "喜 ～Joie～",
    "url": "https://tabelog.com/aichi/A2301/A230103/23051033/",
    "image": "https://tblg.k-img.com/restaurant/images/Rvw/83338/640x640_rect_83338536.jpg",
    "address": "愛知県名古屋市中区栄4-5-19 シャイン栄 1F",
    "rating": 3.59,
    "ratingCount": 115,
    "lat": 35.16873363732721,
    "lng": 136.9123404800466,
    "year": 2025,
    "award": "2025 ・ 百名店 ステーキ・鉄板焼き 東日本",
    "genre": "ステーキ・鉄板焼き"
  },
  {
    "rank": 28,
    "id": "13006984",
    "name": "六本木モンシェルトントン",
    "url": "https://tabelog.com/tokyo/A1307/A130701/13006984/",
    "image": "https://tblg.k-img.com/restaurant/images/Rvw/126364/640x640_rect_126364165.jpg",
    "address": "東京都港区六本木3-12-2",
    "rating": 3.63,
    "ratingCount": 426,
    "lat": 35.66318873791168,
    "lng": 139.73370468306337,
    "year": 2025,
    "award": "2025 ・ 百名店 ステーキ・鉄板焼き 東日本",
    "genre": "ステーキ・鉄板焼き"
  },
  {
    "rank": 29,
    "id": "1002853",
    "name": "ステーキ＆ワイン いしざき",
    "url": "https://tabelog.com/hokkaido/A0101/A010103/1002853/",
    "image": "https://tblg.k-img.com/restaurant/images/Rvw/340211/320x320_rect_8a86f944e1364ec1a6422b405d795876.jpg",
    "address": "北海道札幌市中央区南四条西3 ニュー北星ビル 4Ｆ",
    "rating": 3.62,
    "ratingCount": 174,
    "lat": 43.05610331453769,
    "lng": 141.3540347077646,
    "year": 2025,
    "award": "2025 ・ 百名店 ステーキ・鉄板焼き 東日本",
    "genre": "ステーキ・鉄板焼き"
  },
  {
    "rank": 30,
    "id": "13258435",
    "name": "Peter Luger Steak House Tokyo",
    "url": "https://tabelog.com/tokyo/A1303/A130302/13258435/",
    "image": "https://tblg.k-img.com/restaurant/images/Rvw/165430/640x640_rect_cceb8503dd1f032c9c3af6977db496b8.jpg",
    "address": "東京都渋谷区恵比寿4-19-19",
    "rating": 3.76,
    "ratingCount": 2052,
    "lat": 35.64388223791766,
    "lng": 139.71396238288222,
    "year": 2025,
    "award": "2025 ・ 百名店 ステーキ・鉄板焼き 東日本",
    "genre": "ステーキ・鉄板焼き"
  },
  {
    "rank": 31,
    "id": "13141131",
    "name": "鉄板焼 濠",
    "url": "https://tabelog.com/tokyo/A1302/A130201/13141131/",
    "image": "https://tblg.k-img.com/restaurant/images/Rvw/303096/320x320_rect_826c3af5f7f7231f9a35b8064c15f637.jpg",
    "address": "東京都千代田区丸の内 1-1-1 パレスホテル東京 6F",
    "rating": 3.6,
    "ratingCount": 138,
    "lat": 35.68481189676624,
    "lng": 139.76156461602196,
    "year": 2025,
    "award": "2025 ・ 百名店 ステーキ・鉄板焼き 東日本",
    "genre": "ステーキ・鉄板焼き"
  },
  {
    "rank": 32,
    "id": "21001776",
    "name": "旬亭 なか川",
    "url": "https://tabelog.com/gifu/A2104/A210401/21001776/",
    "image": "https://tblg.k-img.com/restaurant/images/Rvw/317139/640x640_rect_be2448e30a0f6d025fd90bc02692f9ab.jpg",
    "address": "岐阜県高山市上一之町33-2",
    "rating": 3.63,
    "ratingCount": 120,
    "lat": 36.14189083682019,
    "lng": 137.26105878963193,
    "year": 2025,
    "award": "2025 ・ 百名店 ステーキ・鉄板焼き 東日本",
    "genre": "ステーキ・鉄板焼き"
  },
  {
    "rank": 33,
    "id": "23071876",
    "name": "鉄板焼じろう",
    "url": "https://tabelog.com/aichi/A2301/A230103/23071876/",
    "image": "https://tblg.k-img.com/restaurant/images/Rvw/326215/640x640_rect_c6937ad8373aaccdbf69b1bfc32bd25a.jpg",
    "address": "愛知県名古屋市中区栄4-5-18 栄ソシアルビル B1F",
    "rating": 3.71,
    "ratingCount": 243,
    "lat": 35.16875783732722,
    "lng": 136.9124352800468,
    "year": 2025,
    "award": "2025 ・ 百名店 ステーキ・鉄板焼き 東日本",
    "genre": "ステーキ・鉄板焼き"
  },
  {
    "rank": 34,
    "id": "1004828",
    "name": "鉄板焼 石狩",
    "url": "https://tabelog.com/hokkaido/A0101/A010101/1004828/",
    "image": "https://tblg.k-img.com/restaurant/images/Rvw/256747/640x640_rect_54e11da580315c3385d3f7d1f4747367.jpg",
    "address": "北海道札幌市中央区北三条西1 ANAクラウンプラザホテル札幌 26F",
    "rating": 3.63,
    "ratingCount": 92,
    "lat": 43.06560871453201,
    "lng": 141.35518956785984,
    "year": 2025,
    "award": "2025 ・ 百名店 ステーキ・鉄板焼き 東日本",
    "genre": "ステーキ・鉄板焼き"
  },
  {
    "rank": 35,
    "id": "13076544",
    "name": "加藤牛肉店 銀座",
    "url": "https://tabelog.com/tokyo/A1301/A130101/13076544/",
    "image": "https://tblg.k-img.com/restaurant/images/Rvw/140836/640x640_rect_140836459.jpg",
    "address": "東京都中央区銀座6-4-15 トニービル　１Ｆ",
    "rating": 3.66,
    "ratingCount": 302,
    "lat": 35.67126013791536,
    "lng": 139.76133118312552,
    "year": 2025,
    "award": "2025 ・ 百名店 ステーキ・鉄板焼き 東日本",
    "genre": "ステーキ・鉄板焼き"
  },
  {
    "rank": 36,
    "id": "13044361",
    "name": "表参道うかい亭",
    "url": "https://tabelog.com/tokyo/A1306/A130601/13044361/",
    "image": "https://tblg.k-img.com/restaurant/images/Rvw/70965/320x320_rect_70965791.jpg",
    "address": "東京都渋谷区神宮前5-10-1 表参道ジャイル 5F",
    "rating": 3.64,
    "ratingCount": 1074,
    "lat": 35.66739746870581,
    "lng": 139.7067968042865,
    "year": 2025,
    "award": "2025 ・ 百名店 ステーキ・鉄板焼き 東日本",
    "genre": "ステーキ・鉄板焼き"
  },
  {
    "rank": 37,
    "id": "14081465",
    "name": "鉄板焼 華暦",
    "url": "https://tabelog.com/kanagawa/A1401/A140103/14081465/",
    "image": "https://tblg.k-img.com/restaurant/images/Rvw/354656/640x640_rect_733beace0907cc9e09df026476ad0314.jpg",
    "address": "神奈川県横浜市西区みなとみらい1-1-3 ザ・カハラ・ホテル&リゾート 3F",
    "rating": 3.63,
    "ratingCount": 81,
    "lat": 35.46216289881302,
    "lng": 139.6341280822644,
    "year": 2025,
    "award": "2025 ・ 百名店 ステーキ・鉄板焼き 東日本",
    "genre": "ステーキ・鉄板焼き"
  },
  {
    "rank": 38,
    "id": "13183954",
    "name": "RUSTEAKS",
    "url": "https://tabelog.com/tokyo/A1303/A130302/13183954/",
    "image": "https://tblg.k-img.com/restaurant/images/Rvw/188416/640x640_rect_54ed2b22585d634177cb6ebff9fdf3cd.jpg",
    "address": "東京都渋谷区広尾5-22-3 広尾西川ビル B1F",
    "rating": 3.69,
    "ratingCount": 847,
    "lat": 35.64868483791589,
    "lng": 139.7179701829279,
    "year": 2025,
    "award": "2025 ・ 百名店 ステーキ・鉄板焼き 東日本",
    "genre": "ステーキ・鉄板焼き"
  },
  {
    "rank": 39,
    "id": "13040328",
    "name": "けやき坂",
    "url": "https://tabelog.com/tokyo/A1307/A130701/13040328/",
    "image": "https://tblg.k-img.com/restaurant/images/Rvw/290771/640x640_rect_9405fed3de43bbdff7ddd9123d5fc294.jpg",
    "address": "東京都港区六本木6-10-3 六本木ヒルズ グランド ハイアット 東京 4F",
    "rating": 3.58,
    "ratingCount": 542,
    "lat": 35.66008923791191,
    "lng": 139.72823948303588,
    "year": 2025,
    "award": "2025 ・ 百名店 ステーキ・鉄板焼き 東日本",
    "genre": "ステーキ・鉄板焼き"
  },
  {
    "rank": 40,
    "id": "13006988",
    "name": "CHACOあめみや",
    "url": "https://tabelog.com/tokyo/A1309/A130901/13006988/",
    "image": "https://tblg.k-img.com/restaurant/images/Rvw/287387/640x640_rect_0925de6e06c0c83d94882dcdfa6590dd.jpg",
    "address": "東京都渋谷区千駄ヶ谷1-7-12 Ｂ１Ｆ",
    "rating": 3.66,
    "ratingCount": 873,
    "lat": 35.67861179869975,
    "lng": 139.71010749439745,
    "year": 2025,
    "award": "2025 ・ 百名店 ステーキ・鉄板焼き 東日本",
    "genre": "ステーキ・鉄板焼き"
  },
  {
    "rank": 41,
    "id": "15013868",
    "name": "FRENCH TEPPAN 静香庵",
    "url": "https://tabelog.com/niigata/A1501/A150101/15013868/",
    "image": "https://tblg.k-img.com/restaurant/images/Rvw/181486/640x640_rect_80baf2af98016ec9654123de6a02b836.jpg",
    "address": "新潟県新潟市中央区万代3-1-1 メディアシップ １９階",
    "rating": 3.65,
    "ratingCount": 145,
    "lat": 37.91859343626337,
    "lng": 139.0558959063202,
    "year": 2025,
    "award": "2025 ・ 百名店 ステーキ・鉄板焼き 東日本",
    "genre": "ステーキ・鉄板焼き"
  },
  {
    "rank": 42,
    "id": "23000324",
    "name": "那古亭",
    "url": "https://tabelog.com/aichi/A2301/A230101/23000324/",
    "image": "https://tblg.k-img.com/restaurant/images/Rvw/24508/320x320_rect_24508297.jpg",
    "address": "愛知県名古屋市中村区名駅1-1-4 名古屋マリオットアソシアホテル　１８Ｆ",
    "rating": 3.65,
    "ratingCount": 320,
    "lat": 35.17056913812214,
    "lng": 136.88320945124732,
    "year": 2025,
    "award": "2025 ・ 百名店 ステーキ・鉄板焼き 東日本",
    "genre": "ステーキ・鉄板焼き"
  },
  {
    "rank": 43,
    "id": "9007919",
    "name": "存じやす　極",
    "url": "https://tabelog.com/tochigi/A0901/A090101/9007919/",
    "image": "https://tblg.k-img.com/restaurant/images/Rvw/344650/640x640_rect_b3d6403306b5c4bded588dde775623e5.jpg",
    "address": "栃木県宇都宮市中央5-3-5",
    "rating": 3.68,
    "ratingCount": 44,
    "lat": 36.558297908197126,
    "lng": 139.88623408315965,
    "year": 2025,
    "award": "2025 ・ 百名店 ステーキ・鉄板焼き 東日本",
    "genre": "ステーキ・鉄板焼き"
  },
  {
    "rank": 44,
    "id": "1070319",
    "name": "鉄板焼 漆",
    "url": "https://tabelog.com/hokkaido/A0101/A010103/1070319/",
    "image": "https://tblg.k-img.com/restaurant/images/Rvw/221806/640x640_rect_11116f67832473515b93688d73814278.jpg",
    "address": "北海道札幌市中央区南五条西3-3 中銀三番館ビル 2F",
    "rating": 3.56,
    "ratingCount": 216,
    "lat": 43.054088733733714,
    "lng": 141.35443125658222,
    "year": 2025,
    "award": "2025 ・ 百名店 ステーキ・鉄板焼き 東日本",
    "genre": "ステーキ・鉄板焼き"
  },
  {
    "rank": 45,
    "id": "13192732",
    "name": "鉄板焼 花",
    "url": "https://tabelog.com/tokyo/A1303/A130303/13192732/",
    "image": "https://tblg.k-img.com/restaurant/images/Rvw/241097/640x640_rect_b9d3f328b48c5eecaf42f566d5eebdea.jpg",
    "address": "東京都渋谷区代官山町13-6 ８８.DAIKANYAMA 2F",
    "rating": 3.63,
    "ratingCount": 502,
    "lat": 35.650071937910724,
    "lng": 139.70449378295132,
    "year": 2025,
    "award": "2025 ・ 百名店 ステーキ・鉄板焼き 東日本",
    "genre": "ステーキ・鉄板焼き"
  },
  {
    "rank": 46,
    "id": "13197319",
    "name": "くずし鉄板 あばぐら 神田店",
    "url": "https://tabelog.com/tokyo/A1310/A131002/13197319/",
    "image": "https://tblg.k-img.com/restaurant/images/Rvw/98637/640x640_rect_98637402.jpg",
    "address": "東京都千代田区鍛冶町1-9-19 GEMS神田 5F",
    "rating": 3.65,
    "ratingCount": 1021,
    "lat": 35.69047333790674,
    "lng": 139.77259508331167,
    "year": 2025,
    "award": "2025 ・ 百名店 ステーキ・鉄板焼き 東日本",
    "genre": "ステーキ・鉄板焼き"
  },
  {
    "rank": 47,
    "id": "13053632",
    "name": "ステーキ＆ワイン　神房",
    "url": "https://tabelog.com/tokyo/A1310/A131003/13053632/",
    "image": "https://tblg.k-img.com/restaurant/images/Rvw/70833/320x320_square_70833608.jpg",
    "address": "東京都千代田区神田神保町2-3 神田古書センター １Ｆ",
    "rating": 3.59,
    "ratingCount": 424,
    "lat": 35.69567584870396,
    "lng": 139.7573701245367,
    "year": 2025,
    "award": "2025 ・ 百名店 ステーキ・鉄板焼き 東日本",
    "genre": "ステーキ・鉄板焼き"
  },
  {
    "rank": 48,
    "id": "21000080",
    "name": "ステーキハウス キッチン飛騨",
    "url": "https://tabelog.com/gifu/A2104/A210401/21000080/",
    "image": "https://tblg.k-img.com/restaurant/images/Rvw/97399/640x640_rect_97399115.jpg",
    "address": "岐阜県高山市本町1-66",
    "rating": 3.77,
    "ratingCount": 426,
    "lat": 36.14071001834181,
    "lng": 137.25768511305924,
    "year": 2025,
    "award": "2025 ・ 百名店 ステーキ・鉄板焼き 東日本",
    "genre": "ステーキ・鉄板焼き"
  },
  {
    "rank": 49,
    "id": "23084912",
    "name": "卓",
    "url": "https://tabelog.com/aichi/A2301/A230102/23084912/",
    "image": "https://tblg.k-img.com/restaurant/images/Rvw/257579/640x640_rect_2b559ce1ae16b3343eda602076bc18cb.jpg",
    "address": "愛知県名古屋市中区栄2-2-14 サンフタミ栄ビル 1F",
    "rating": 3.62,
    "ratingCount": 79,
    "lat": 35.167821200454306,
    "lng": 136.89965694613437,
    "year": 2025,
    "award": "2025 ・ 百名店 ステーキ・鉄板焼き 東日本",
    "genre": "ステーキ・鉄板焼き"
  },
  {
    "rank": 50,
    "id": "13006015",
    "name": "八王子うかい亭",
    "url": "https://tabelog.com/tokyo/A1329/A132904/13006015/",
    "image": "https://tblg.k-img.com/restaurant/images/Rvw/241208/640x640_rect_449b394906225cdf4efafb69f10a24bb.jpg",
    "address": "東京都八王子市暁町2-14-6",
    "rating": 3.73,
    "ratingCount": 617,
    "lat": 35.67341113777801,
    "lng": 139.33435028344653,
    "year": 2025,
    "award": "2025 ・ 百名店 ステーキ・鉄板焼き 東日本",
    "genre": "ステーキ・鉄板焼き"
  },
  {
    "rank": 51,
    "id": "9000108",
    "name": "グルマンズ和牛",
    "url": "https://tabelog.com/tochigi/A0903/A090301/9000108/",
    "image": "https://tblg.k-img.com/restaurant/images/Rvw/157481/640x640_rect_157481941.jpg",
    "address": "栃木県日光市所野1541-297",
    "rating": 3.71,
    "ratingCount": 283,
    "lat": 36.76511181797978,
    "lng": 139.61617658543798,
    "year": 2025,
    "award": "2025 ・ 百名店 ステーキ・鉄板焼き 東日本",
    "genre": "ステーキ・鉄板焼き"
  },
  {
    "rank": 52,
    "id": "13268574",
    "name": "本店山科",
    "url": "https://tabelog.com/tokyo/A1301/A130101/13268574/",
    "image": "https://tblg.k-img.com/restaurant/images/Rvw/187801/640x640_rect_4da96bb9511b8a472671aab212d74913.jpg",
    "address": "東京都中央区銀座5-8-1 GINZA PLACE 11F",
    "rating": 3.68,
    "ratingCount": 589,
    "lat": 35.67089413791676,
    "lng": 139.76501218311924,
    "year": 2025,
    "award": "2025 ・ 百名店 ステーキ・鉄板焼き 東日本",
    "genre": "ステーキ・鉄板焼き"
  },
  {
    "rank": 53,
    "id": "23056777",
    "name": "Wiggo",
    "url": "https://tabelog.com/aichi/A2301/A230103/23056777/",
    "image": "https://tblg.k-img.com/restaurant/images/Rvw/298720/640x640_rect_786fea13d925ad1bbb272864e382df73.jpg",
    "address": "愛知県名古屋市中区栄3-20-9 佳陽ビル B1F",
    "rating": 3.64,
    "ratingCount": 80,
    "lat": 35.16565323732637,
    "lng": 136.90356358002163,
    "year": 2025,
    "award": "2025 ・ 百名店 ステーキ・鉄板焼き 東日本",
    "genre": "ステーキ・鉄板焼き"
  },
  {
    "rank": 54,
    "id": "13209863",
    "name": "ベンジャミンステーキハウス 六本木",
    "url": "https://tabelog.com/tokyo/A1307/A130701/13209863/",
    "image": "https://tblg.k-img.com/restaurant/images/Rvw/334355/640x640_rect_b5347dda05f62b35a7f38b45851d2eaf.jpg",
    "address": "東京都港区六本木7-14-4 レム六本木ビル B1F",
    "rating": 3.67,
    "ratingCount": 1160,
    "lat": 35.6637873379106,
    "lng": 139.73149768307096,
    "year": 2025,
    "award": "2025 ・ 百名店 ステーキ・鉄板焼き 東日本",
    "genre": "ステーキ・鉄板焼き"
  },
  {
    "rank": 55,
    "id": "14003795",
    "name": "あざみ野うかい亭",
    "url": "https://tabelog.com/kanagawa/A1401/A140201/14003795/",
    "image": "https://tblg.k-img.com/restaurant/images/Rvw/71162/320x320_rect_71162094.jpg",
    "address": "神奈川県横浜市青葉区あざみ野南2-14-3",
    "rating": 3.68,
    "ratingCount": 646,
    "lat": 35.56521723791616,
    "lng": 139.55235408220088,
    "year": 2025,
    "award": "2025 ・ 百名店 ステーキ・鉄板焼き 東日本",
    "genre": "ステーキ・鉄板焼き"
  },
  {
    "rank": 56,
    "id": "23001008",
    "name": "千薫庵",
    "url": "https://tabelog.com/aichi/A2301/A230111/23001008/",
    "image": "https://tblg.k-img.com/restaurant/images/Rvw/367235/640x640_rect_1a081a924bf2bad05ab9b28923ad7c11.jpg",
    "address": "愛知県名古屋市名東区猪子石1-2701",
    "rating": 3.64,
    "ratingCount": 296,
    "lat": 35.185148738149074,
    "lng": 136.99687114131495,
    "year": 2025,
    "award": "2025 ・ 百名店 ステーキ・鉄板焼き 東日本",
    "genre": "ステーキ・鉄板焼き"
  },
  {
    "rank": 57,
    "id": "13185496",
    "name": "三田牛竈炭火焼 ウェスタ",
    "url": "https://tabelog.com/tokyo/A1302/A130202/13185496/",
    "image": "https://tblg.k-img.com/restaurant/images/Rvw/55168/640x640_rect_55168371.jpg",
    "address": "東京都中央区日本橋3-8-13 華蓮日本橋ビル 1F",
    "rating": 3.84,
    "ratingCount": 293,
    "lat": 35.680003137913644,
    "lng": 139.7733856832054,
    "year": 2025,
    "award": "2025 ・ 百名店 ステーキ・鉄板焼き 東日本",
    "genre": "ステーキ・鉄板焼き"
  },
  {
    "rank": 58,
    "id": "23072950",
    "name": "チョットジョット",
    "url": "https://tabelog.com/aichi/A2301/A230104/23072950/",
    "image": "https://tblg.k-img.com/restaurant/images/Rvw/363946/640x640_rect_8c9b6276798a83724511a0e42a776211.jpg",
    "address": "愛知県名古屋市東区泉2-2-30 ヴィアーレジュエリー 2F",
    "rating": 3.73,
    "ratingCount": 67,
    "lat": 35.17846101812728,
    "lng": 136.9150693213047,
    "year": 2025,
    "award": "2025 ・ 百名店 ステーキ・鉄板焼き 東日本",
    "genre": "ステーキ・鉄板焼き"
  },
  {
    "rank": 59,
    "id": "13164062",
    "name": "ウルフギャング・ステーキハウス 六本木",
    "url": "https://tabelog.com/tokyo/A1307/A130701/13164062/",
    "image": "https://tblg.k-img.com/restaurant/images/Rvw/39562/640x640_rect_39562674.jpg",
    "address": "東京都港区六本木5-16-50 六本木DUPLEX M's 1F",
    "rating": 3.66,
    "ratingCount": 2805,
    "lat": 35.66144783791332,
    "lng": 139.7353794830446,
    "year": 2025,
    "award": "2025 ・ 百名店 ステーキ・鉄板焼き 東日本",
    "genre": "ステーキ・鉄板焼き"
  },
  {
    "rank": 60,
    "id": "21010723",
    "name": "飛騨牛グリルばくろ",
    "url": "https://tabelog.com/gifu/A2101/A210101/21010723/",
    "image": "https://tblg.k-img.com/restaurant/images/Rvw/104172/640x640_rect_104172048.jpg",
    "address": "岐阜県岐阜市米屋町9",
    "rating": 3.74,
    "ratingCount": 270,
    "lat": 35.429542637115134,
    "lng": 136.7665475827832,
    "year": 2025,
    "award": "2025 ・ 百名店 ステーキ・鉄板焼き 東日本",
    "genre": "ステーキ・鉄板焼き"
  },
  {
    "rank": 61,
    "id": "13152696",
    "name": "匠",
    "url": "https://tabelog.com/tokyo/A1314/A131401/13152696/",
    "image": "https://tblg.k-img.com/restaurant/images/Rvw/17668/640x640_rect_17668583.jpg",
    "address": "東京都港区海岸1-16-2 ホテル インターコンチネンタル 東京ベイ 1Ｆ",
    "rating": 3.6,
    "ratingCount": 156,
    "lat": 35.653257438732474,
    "lng": 139.76223738410442,
    "year": 2025,
    "award": "2025 ・ 百名店 ステーキ・鉄板焼き 東日本",
    "genre": "ステーキ・鉄板焼き"
  },
  {
    "rank": 62,
    "id": "6000031",
    "name": "米沢牛亭 ぐっど",
    "url": "https://tabelog.com/yamagata/A0602/A060201/6000031/",
    "image": "https://tblg.k-img.com/restaurant/images/Rvw/82111/640x640_rect_82111774.jpg",
    "address": "山形県米沢市下花沢1-3-4",
    "rating": 3.77,
    "ratingCount": 507,
    "lat": 37.90673663661405,
    "lng": 140.1334029054451,
    "year": 2025,
    "award": "2025 ・ 百名店 ステーキ・鉄板焼き 東日本",
    "genre": "ステーキ・鉄板焼き"
  },
  {
    "rank": 63,
    "id": "13187289",
    "name": "秋田牛鉄板焼 銀座五明",
    "url": "https://tabelog.com/tokyo/A1301/A130101/13187289/",
    "image": "https://tblg.k-img.com/restaurant/images/Rvw/300001/640x640_rect_91f33d5795b9363ba4e671d3a3043ce1.jpg",
    "address": "東京都中央区銀座6-4-18 マキシドピアビル B1F",
    "rating": 3.74,
    "ratingCount": 148,
    "lat": 35.67160043791524,
    "lng": 139.76164288312873,
    "year": 2025,
    "award": "2025 ・ 百名店 ステーキ・鉄板焼き 東日本",
    "genre": "ステーキ・鉄板焼き"
  },
  {
    "rank": 64,
    "id": "13151917",
    "name": "銀座 ひらやま",
    "url": "https://tabelog.com/tokyo/A1313/A131301/13151917/",
    "image": "https://tblg.k-img.com/restaurant/images/Rvw/235699/640x640_rect_863d5981ca31525c9571e5913f2be03f.jpg",
    "address": "東京都中央区銀座7-17-1 武蔵野ビル1F",
    "rating": 3.76,
    "ratingCount": 151,
    "lat": 35.66678576872517,
    "lng": 139.76636683423857,
    "year": 2025,
    "award": "2025 ・ 百名店 ステーキ・鉄板焼き 東日本",
    "genre": "ステーキ・鉄板焼き"
  },
  {
    "rank": 65,
    "id": "13022458",
    "name": "築地鉄板焼 Kurosawa",
    "url": "https://tabelog.com/tokyo/A1313/A131301/13022458/",
    "image": "https://tblg.k-img.com/restaurant/images/Rvw/43501/640x640_rect_43501610.jpg",
    "address": "東京都中央区築地2-9-8",
    "rating": 3.61,
    "ratingCount": 237,
    "lat": 35.66917600872571,
    "lng": 139.77278557425822,
    "year": 2025,
    "award": "2025 ・ 百名店 ステーキ・鉄板焼き 東日本",
    "genre": "ステーキ・鉄板焼き"
  },
  {
    "rank": 66,
    "id": "23000754",
    "name": "備長炭ステーキ炉　Sakai",
    "url": "https://tabelog.com/aichi/A2301/A230105/23000754/",
    "image": "https://tblg.k-img.com/restaurant/images/Rvw/338495/640x640_rect_c1b9e5f2c8473eaeec966d8dd8a1b7f0.jpg",
    "address": "愛知県名古屋市中区大須2-8-23",
    "rating": 3.66,
    "ratingCount": 147,
    "lat": 35.16079373732849,
    "lng": 136.9004967799747,
    "year": 2025,
    "award": "2025 ・ 百名店 ステーキ・鉄板焼き 東日本",
    "genre": "ステーキ・鉄板焼き"
  },
  {
    "rank": 67,
    "id": "13000495",
    "name": "西洋料理 島",
    "url": "https://tabelog.com/tokyo/A1302/A130202/13000495/",
    "image": "https://tblg.k-img.com/restaurant/images/Rvw/121000/320x320_square_121000349.jpg",
    "address": "東京都中央区日本橋3-5-12 日本橋ＭＭビル　Ｂ１Ｆ",
    "rating": 3.72,
    "ratingCount": 264,
    "lat": 35.67905583791409,
    "lng": 139.77290458319615,
    "year": 2025,
    "award": "2025 ・ 百名店 ステーキ・鉄板焼き 東日本",
    "genre": "ステーキ・鉄板焼き"
  },
  {
    "rank": 69,
    "id": "13152057",
    "name": "小石川 中勢以",
    "url": "https://tabelog.com/tokyo/A1323/A132302/13152057/",
    "image": "https://tblg.k-img.com/restaurant/images/Rvw/226623/640x640_rect_53dc982bd5691a463ea1916b4efedaf7.jpg",
    "address": "東京都文京区小石川5-10-18",
    "rating": 3.75,
    "ratingCount": 1261,
    "lat": 35.71615463354667,
    "lng": 139.74067400394793,
    "year": 2025,
    "award": "2025 ・ 百名店 ステーキ・鉄板焼き 東日本",
    "genre": "ステーキ・鉄板焼き"
  },
  {
    "rank": 70,
    "id": "13213238",
    "name": "Empire Steak House Roppongi",
    "url": "https://tabelog.com/tokyo/A1307/A130701/13213238/",
    "image": "https://tblg.k-img.com/restaurant/images/Rvw/332993/320x320_rect_c28e1b03cdb79fa5116a6f03d6a9c974.jpg",
    "address": "東京都港区六本木6-7-11 1F",
    "rating": 3.59,
    "ratingCount": 883,
    "lat": 35.662050537912094,
    "lng": 139.73269128305256,
    "year": 2025,
    "award": "2025 ・ 百名店 ステーキ・鉄板焼き 東日本",
    "genre": "ステーキ・鉄板焼き"
  },
  {
    "rank": 71,
    "id": "13002367",
    "name": "銀座うかい亭",
    "url": "https://tabelog.com/tokyo/A1301/A130101/13002367/",
    "image": "https://tblg.k-img.com/restaurant/images/Rvw/70966/320x320_rect_70966996.jpg",
    "address": "東京都中央区銀座5-15-8 時事通信ビル　１Ｆ",
    "rating": 3.79,
    "ratingCount": 1399,
    "lat": 35.66809013791925,
    "lng": 139.76719818308936,
    "year": 2025,
    "award": "2025 ・ 百名店 ステーキ・鉄板焼き 東日本",
    "genre": "ステーキ・鉄板焼き"
  },
  {
    "rank": 72,
    "id": "3008898",
    "name": "Golot",
    "url": "https://tabelog.com/iwate/A0301/A030101/3008898/",
    "image": "https://tblg.k-img.com/restaurant/images/Rvw/289901/640x640_rect_31f810235530a7cb566698d044800df7.jpg",
    "address": "岩手県盛岡市菜園2-6-28",
    "rating": 3.61,
    "ratingCount": 98,
    "lat": 39.70196033579604,
    "lng": 141.1450292228694,
    "year": 2025,
    "award": "2025 ・ 百名店 ステーキ・鉄板焼き 東日本",
    "genre": "ステーキ・鉄板焼き"
  },
  {
    "rank": 73,
    "id": "21000012",
    "name": "潜龍",
    "url": "https://tabelog.com/gifu/A2101/A210101/21000012/",
    "image": "https://tblg.k-img.com/restaurant/images/Rvw/351660/640x640_rect_7e5adc558b60eb75718c4c468b56e5a8.jpg",
    "address": "岐阜県岐阜市長良14",
    "rating": 3.86,
    "ratingCount": 250,
    "lat": 35.441011057917784,
    "lng": 136.78087569405076,
    "year": 2025,
    "award": "2025 ・ 百名店 ステーキ・鉄板焼き 東日本",
    "genre": "ステーキ・鉄板焼き"
  },
  {
    "rank": 74,
    "id": "21000079",
    "name": "ブルボン",
    "url": "https://tabelog.com/gifu/A2104/A210401/21000079/",
    "image": "https://tblg.k-img.com/restaurant/images/Rvw/236233/640x640_rect_c1dd0ad54425c3a2e7372b7daf8b86dc.jpg",
    "address": "岐阜県高山市本町4-5",
    "rating": 3.64,
    "ratingCount": 36,
    "lat": 36.14522212762218,
    "lng": 137.25708077083019,
    "year": 2025,
    "award": "2025 ・ 百名店 ステーキ・鉄板焼き 東日本",
    "genre": "ステーキ・鉄板焼き"
  },
  {
    "rank": 75,
    "id": "12001793",
    "name": "ステーキ石井",
    "url": "https://tabelog.com/chiba/A1202/A120202/12001793/",
    "image": "https://tblg.k-img.com/restaurant/images/Rvw/360418/640x640_rect_b425db1f6e5571594485a2d6909efb89.jpg",
    "address": "千葉県市川市行徳駅前1-7-7",
    "rating": 3.56,
    "ratingCount": 465,
    "lat": 35.68334856876268,
    "lng": 139.91717270430016,
    "year": 2025,
    "award": "2025 ・ 百名店 ステーキ・鉄板焼き 東日本",
    "genre": "ステーキ・鉄板焼き"
  },
  {
    "rank": 76,
    "id": "13034212",
    "name": "蘭麻",
    "url": "https://tabelog.com/tokyo/A1314/A131401/13034212/",
    "image": "https://tblg.k-img.com/restaurant/images/Rvw/129473/640x640_rect_129473273.jpg",
    "address": "東京都港区東麻布1-18-5",
    "rating": 3.6,
    "ratingCount": 578,
    "lat": 35.6559295379192,
    "lng": 139.74282728298363,
    "year": 2025,
    "award": "2025 ・ 百名店 ステーキ・鉄板焼き 東日本",
    "genre": "ステーキ・鉄板焼き"
  },
  {
    "rank": 77,
    "id": "4000805",
    "name": "仙台牛と和風個室 すていき小次郎",
    "url": "https://tabelog.com/miyagi/A0401/A040101/4000805/",
    "image": "https://tblg.k-img.com/restaurant/images/Rvw/221167/640x640_rect_0fe54dabf474cdc5c0b8f88e870ba759.jpg",
    "address": "宮城県仙台市青葉区立町15-3",
    "rating": 3.54,
    "ratingCount": 136,
    "lat": 38.263440418664395,
    "lng": 140.86690666241103,
    "year": 2025,
    "award": "2025 ・ 百名店 ステーキ・鉄板焼き 東日本",
    "genre": "ステーキ・鉄板焼き"
  },
  {
    "rank": 78,
    "id": "23006175",
    "name": "ローズルーム名古屋",
    "url": "https://tabelog.com/aichi/A2301/A230102/23006175/",
    "image": "https://tblg.k-img.com/restaurant/images/Rvw/361137/640x640_rect_33d54770dcf309d600dadd4a1718901b.jpg",
    "address": "愛知県名古屋市中区栄2-7-13 ヴィア白川　２Ｆ",
    "rating": 3.61,
    "ratingCount": 91,
    "lat": 35.16689715813003,
    "lng": 136.90064828119802,
    "year": 2025,
    "award": "2025 ・ 百名店 ステーキ・鉄板焼き 東日本",
    "genre": "ステーキ・鉄板焼き"
  },
  {
    "rank": 79,
    "id": "13231933",
    "name": "神戸牛炉釜炭焼ステーキ銀座一宮",
    "url": "https://tabelog.com/tokyo/A1301/A130101/13231933/",
    "image": "https://tblg.k-img.com/restaurant/images/Rvw/116272/640x640_rect_116272532.jpg",
    "address": "東京都中央区銀座5-14-14 サンリット銀座ビルⅢ 8F",
    "rating": 3.69,
    "ratingCount": 106,
    "lat": 35.66863823791883,
    "lng": 139.76698398309506,
    "year": 2025,
    "award": "2025 ・ 百名店 ステーキ・鉄板焼き 東日本",
    "genre": "ステーキ・鉄板焼き"
  },
  {
    "rank": 80,
    "id": "13210946",
    "name": "ロウリーズ・ザ・プライムリブ 赤坂店",
    "url": "https://tabelog.com/tokyo/A1308/A130802/13210946/",
    "image": "https://tblg.k-img.com/restaurant/images/Rvw/327613/640x640_rect_1bbc971064ebb606d3d5ac5beaf9056f.jpg",
    "address": "東京都港区赤坂1-8-1 赤坂インターシティ AIR 3F",
    "rating": 3.69,
    "ratingCount": 1422,
    "lat": 35.669945937910235,
    "lng": 139.74264628312534,
    "year": 2025,
    "award": "2025 ・ 百名店 ステーキ・鉄板焼き 東日本",
    "genre": "ステーキ・鉄板焼き"
  },
  {
    "rank": 81,
    "id": "23086832",
    "name": "鉄板料理 らくだ 名古屋店",
    "url": "https://tabelog.com/aichi/A2301/A230104/23086832/",
    "image": "https://tblg.k-img.com/restaurant/images/Rvw/269779/640x640_rect_f213dc67c3dc4ae68868ad347c4a9caa.jpg",
    "address": "愛知県名古屋市東区東桜2-13-15",
    "rating": 3.62,
    "ratingCount": 86,
    "lat": 35.17080559627094,
    "lng": 136.91588171605116,
    "year": 2025,
    "award": "2025 ・ 百名店 ステーキ・鉄板焼き 東日本",
    "genre": "ステーキ・鉄板焼き"
  },
  {
    "rank": 82,
    "id": "13161192",
    "name": "神戸牛炉釜炭焼ステーキ IDEA 銀座",
    "url": "https://tabelog.com/tokyo/A1301/A130101/13161192/",
    "image": "https://tblg.k-img.com/restaurant/images/Rvw/341479/320x320_square_7357e1bc874db6bd1621159ba26e33fe.jpg",
    "address": "東京都中央区銀座7-8-15 第2新橋会館 7F",
    "rating": 3.6,
    "ratingCount": 346,
    "lat": 35.669080537917004,
    "lng": 139.7622023831029,
    "year": 2025,
    "award": "2025 ・ 百名店 ステーキ・鉄板焼き 東日本",
    "genre": "ステーキ・鉄板焼き"
  },
  {
    "rank": 83,
    "id": "13002897",
    "name": "麤皮",
    "url": "https://tabelog.com/tokyo/A1314/A131401/13002897/",
    "image": "https://tblg.k-img.com/restaurant/images/Rvw/89426/320x320_rect_89426662.jpg",
    "address": "東京都港区西新橋3-23-11 御成門小田急ビル　１Ｆ",
    "rating": 3.57,
    "ratingCount": 163,
    "lat": 35.66177932872357,
    "lng": 139.75135380419854,
    "year": 2025,
    "award": "2025 ・ 百名店 ステーキ・鉄板焼き 東日本",
    "genre": "ステーキ・鉄板焼き"
  },
  {
    "rank": 84,
    "id": "13175479",
    "name": "ウルフギャング・ステーキハウス 丸の内店",
    "url": "https://tabelog.com/tokyo/A1302/A130201/13175479/",
    "image": "https://tblg.k-img.com/restaurant/images/Rvw/33294/640x640_rect_33294269.jpg",
    "address": "東京都千代田区丸の内2-1-1 丸の内MY PLAZA 明治生命館 B1F",
    "rating": 3.69,
    "ratingCount": 2645,
    "lat": 35.67934363871574,
    "lng": 139.76178652436863,
    "year": 2025,
    "award": "2025 ・ 百名店 ステーキ・鉄板焼き 東日本",
    "genre": "ステーキ・鉄板焼き"
  },
  {
    "rank": 85,
    "id": "23000494",
    "name": "ステーキハウス キッチンリボン",
    "url": "https://tabelog.com/aichi/A2301/A230108/23000494/",
    "image": "https://tblg.k-img.com/restaurant/images/Rvw/122348/640x640_rect_122348899.jpg",
    "address": "愛知県名古屋市昭和区菊園町4-24 菊園ビル　１Ｆ",
    "rating": 4.09,
    "ratingCount": 710,
    "lat": 35.13853585816125,
    "lng": 136.94213295088244,
    "year": 2025,
    "award": "2025 ・ 百名店 ステーキ・鉄板焼き 東日本",
    "genre": "ステーキ・鉄板焼き"
  },
  {
    "rank": 86,
    "id": "3000116",
    "name": "ステーキ・鉄板料理 和かな 盛岡本店",
    "url": "https://tabelog.com/iwate/A0301/A030101/3000116/",
    "image": "https://tblg.k-img.com/restaurant/images/Rvw/98196/320x320_square_98196147.jpg",
    "address": "岩手県盛岡市大沢川原1-3-33",
    "rating": 3.63,
    "ratingCount": 129,
    "lat": 39.69983793579846,
    "lng": 141.1483888228456,
    "year": 2025,
    "award": "2025 ・ 百名店 ステーキ・鉄板焼き 東日本",
    "genre": "ステーキ・鉄板焼き"
  },
  {
    "rank": 87,
    "id": "13220897",
    "name": "FORNO",
    "url": "https://tabelog.com/tokyo/A1307/A130703/13220897/",
    "image": "https://tblg.k-img.com/restaurant/images/Rvw/367177/640x640_rect_e79fe71ec7baefb01af446737a6488f1.jpg",
    "address": "東京都港区西麻布4-11-25 モダンフォルム西麻布パートⅢ 3F",
    "rating": 3.6,
    "ratingCount": 320,
    "lat": 35.659254548566906,
    "lng": 139.7222931592281,
    "year": 2025,
    "award": "2025 ・ 百名店 ステーキ・鉄板焼き 東日本",
    "genre": "ステーキ・鉄板焼き"
  },
  {
    "rank": 88,
    "id": "13130978",
    "name": "トロワフレーシュ",
    "url": "https://tabelog.com/tokyo/A1301/A130103/13130978/",
    "image": "https://tblg.k-img.com/restaurant/images/Rvw/122348/640x640_rect_122348542.jpg",
    "address": "東京都中央区銀座8-2-8 銀座高本ビル 2F",
    "rating": 3.8,
    "ratingCount": 208,
    "lat": 35.66971942872116,
    "lng": 139.75960706427296,
    "year": 2025,
    "award": "2025 ・ 百名店 ステーキ・鉄板焼き 東日本",
    "genre": "ステーキ・鉄板焼き"
  },
  {
    "rank": 89,
    "id": "13002295",
    "name": "嘉門",
    "url": "https://tabelog.com/tokyo/A1301/A130102/13002295/",
    "image": "https://tblg.k-img.com/restaurant/images/Rvw/156182/640x640_rect_156182038.jpg",
    "address": "東京都千代田区内幸町1-1-1 帝国ホテル東京 本館 17F",
    "rating": 3.62,
    "ratingCount": 387,
    "lat": 35.672413478719044,
    "lng": 139.75834929430104,
    "year": 2025,
    "award": "2025 ・ 百名店 ステーキ・鉄板焼き 東日本",
    "genre": "ステーキ・鉄板焼き"
  },
  {
    "rank": 90,
    "id": "13238559",
    "name": "鉄板焼 さざんか",
    "url": "https://tabelog.com/tokyo/A1308/A130802/13238559/",
    "image": "https://tblg.k-img.com/restaurant/images/Rvw/170550/640x640_rect_3c45582b19094a2fe73b11edb2696cac.jpg",
    "address": "東京都港区虎ノ門2-10-4 The Okura Tokyoオークラ プレステージタワー 41F",
    "rating": 3.6,
    "ratingCount": 212,
    "lat": 35.66708552226595,
    "lng": 139.74552308268602,
    "year": 2025,
    "award": "2025 ・ 百名店 ステーキ・鉄板焼き 東日本",
    "genre": "ステーキ・鉄板焼き"
  },
  {
    "rank": 91,
    "id": "13224979",
    "name": "神戸牛炉釜ステーキ GINZA KOKO炉",
    "url": "https://tabelog.com/tokyo/A1301/A130101/13224979/",
    "image": "https://tblg.k-img.com/restaurant/images/Rvw/100886/640x640_rect_100886050.jpg",
    "address": "東京都中央区銀座1-8-7 VORT銀座 B1F",
    "rating": 3.72,
    "ratingCount": 358,
    "lat": 35.67408913791587,
    "lng": 139.768605983149,
    "year": 2025,
    "award": "2025 ・ 百名店 ステーキ・鉄板焼き 東日本",
    "genre": "ステーキ・鉄板焼き"
  },
  {
    "rank": 92,
    "id": "4001116",
    "name": "大胡椒",
    "url": "https://tabelog.com/miyagi/A0401/A040101/4001116/",
    "image": "https://tblg.k-img.com/restaurant/images/Rvw/133154/640x640_rect_133154320.jpg",
    "address": "宮城県仙台市青葉区一番町4-3-18",
    "rating": 3.64,
    "ratingCount": 145,
    "lat": 38.26346373662233,
    "lng": 140.87079310853147,
    "year": 2025,
    "award": "2025 ・ 百名店 ステーキ・鉄板焼き 東日本",
    "genre": "ステーキ・鉄板焼き"
  },
  {
    "rank": 93,
    "id": "13079558",
    "name": "巴里 夕顔",
    "url": "https://tabelog.com/tokyo/A1301/A130101/13079558/",
    "image": "https://tblg.k-img.com/restaurant/images/Rvw/4139/640x640_rect_4139242.jpg",
    "address": "東京都中央区銀座8-8-8 銀座８８８ビル 5Ｆ",
    "rating": 3.68,
    "ratingCount": 388,
    "lat": 35.6681660379173,
    "lng": 139.7612635830943,
    "year": 2025,
    "award": "2025 ・ 百名店 ステーキ・鉄板焼き 東日本",
    "genre": "ステーキ・鉄板焼き"
  },
  {
    "rank": 94,
    "id": "19000363",
    "name": "カフェ＆鉄板レストラン 藤川",
    "url": "https://tabelog.com/yamanashi/A1904/A190402/19000363/",
    "image": "https://tblg.k-img.com/restaurant/images/Rvw/353205/640x640_rect_25166faa372f203b8c16123f2ea4adb6.jpg",
    "address": "山梨県南巨摩郡身延町常葉7052-14",
    "rating": 3.57,
    "ratingCount": 121,
    "lat": 35.42504190846656,
    "lng": 138.4722029127039,
    "year": 2025,
    "award": "2025 ・ 百名店 ステーキ・鉄板焼き 東日本",
    "genre": "ステーキ・鉄板焼き"
  },
  {
    "rank": 95,
    "id": "13021191",
    "name": "鉄板焼き 高見",
    "url": "https://tabelog.com/tokyo/A1303/A130302/13021191/",
    "image": "https://tblg.k-img.com/restaurant/images/Rvw/363963/640x640_rect_c0ca10095b973b1e49adeddb54443d59.jpg",
    "address": "東京都渋谷区広尾3-12-40 広尾ビル 2F",
    "rating": 3.54,
    "ratingCount": 193,
    "lat": 35.6539575687166,
    "lng": 139.7138422741458,
    "year": 2025,
    "award": "2025 ・ 百名店 ステーキ・鉄板焼き 東日本",
    "genre": "ステーキ・鉄板焼き"
  },
  {
    "rank": 96,
    "id": "23063123",
    "name": "ラトリエK",
    "url": "https://tabelog.com/aichi/A2301/A230104/23063123/",
    "image": "https://tblg.k-img.com/restaurant/images/Rvw/350793/640x640_rect_769d1c219d24338ec2190bd279333d83.jpg",
    "address": "愛知県名古屋市東区東桜2-12-22 水谷ビル 2F",
    "rating": 3.61,
    "ratingCount": 75,
    "lat": 35.17116553097504,
    "lng": 136.91600479583707,
    "year": 2025,
    "award": "2025 ・ 百名店 ステーキ・鉄板焼き 東日本",
    "genre": "ステーキ・鉄板焼き"
  },
  {
    "rank": 97,
    "id": "13291175",
    "name": "おちあいろうステーキハウス東京",
    "url": "https://tabelog.com/tokyo/A1307/A130701/13291175/",
    "image": "https://tblg.k-img.com/restaurant/images/Rvw/232390/640x640_rect_2d1f82d4112ffb25af18b9fe2d5277ad.jpg",
    "address": "東京都港区麻布台1-3-1 麻布台ヒルズタワープラザ 3F",
    "rating": 3.61,
    "ratingCount": 409,
    "lat": 35.661623516201146,
    "lng": 139.7403543189876,
    "year": 2025,
    "award": "2025 ・ 百名店 ステーキ・鉄板焼き 東日本",
    "genre": "ステーキ・鉄板焼き"
  },
  {
    "rank": 98,
    "id": "14040830",
    "name": "炭火鉄板焼　杜季",
    "url": "https://tabelog.com/kanagawa/A1410/A141001/14040830/",
    "image": "https://tblg.k-img.com/restaurant/images/Rvw/366551/640x640_rect_4bbab4c472882daac51b42b83f5a39e9.jpg",
    "address": "神奈川県足柄下郡箱根町宮ノ下112-2 エクシブ箱根離宮",
    "rating": 3.63,
    "ratingCount": 95,
    "lat": 35.24426197876893,
    "lng": 139.06112225046502,
    "year": 2025,
    "award": "2025 ・ 百名店 ステーキ・鉄板焼き 東日本",
    "genre": "ステーキ・鉄板焼き"
  },
  {
    "rank": 99,
    "id": "13000220",
    "name": "旬菜ステーキ処 らいむらいと",
    "url": "https://tabelog.com/tokyo/A1309/A130904/13000220/",
    "image": "https://tblg.k-img.com/restaurant/images/Rvw/133228/640x640_rect_133228795.jpg",
    "address": "東京都千代田区九段南3-4-8 パディホームズ一口坂　１Ｆ・B1F",
    "rating": 3.67,
    "ratingCount": 1448,
    "lat": 35.69195673789581,
    "lng": 139.74120858334868,
    "year": 2025,
    "award": "2025 ・ 百名店 ステーキ・鉄板焼き 東日本",
    "genre": "ステーキ・鉄板焼き"
  },
  {
    "rank": 100,
    "id": "13219288",
    "name": "六本木うかい亭",
    "url": "https://tabelog.com/tokyo/A1307/A130701/13219288/",
    "image": "https://tblg.k-img.com/restaurant/images/Rvw/95471/640x640_rect_95471863.jpg",
    "address": "東京都港区六本木6-12-4 六本木ヒルズ 六本木けやき坂通り 2F",
    "rating": 3.64,
    "ratingCount": 252,
    "lat": 35.65895077871892,
    "lng": 139.73109637418415,
    "year": 2025,
    "award": "2025 ・ 百名店 ステーキ・鉄板焼き 東日本",
    "genre": "ステーキ・鉄板焼き"
  }
]