[
  {
    "rank": 1,
    "id": "37000031",
    "name": "池上製麺所",
    "url": "https://tabelog.com/kagawa/A3701/A370101/37000031/",
    "image": "https://tblg.k-img.com/restaurant/images/Rvw/40765/640x640_rect_40765973.jpg",
    "address": "香川県高松市香川町川東下字高須899-1",
    "rating": 3.73,
    "ratingCount": 861,
    "lat": 34.24616516779889,
    "lng": 134.02465656391374,
    "year": 2024,
    "award": "2024 ・ 百名店 うどん 香川",
    "genre": "うどん"
  },
  {
    "rank": 2,
    "id": "37000148",
    "name": "手打ちうどん つるや",
    "url": "https://tabelog.com/kagawa/A3703/A370301/37000148/",
    "image": "https://tblg.k-img.com/restaurant/images/Rvw/19854/640x640_rect_19854044.jpg",
    "address": "香川県観音寺市坂本町3-7-18",
    "rating": 3.7,
    "ratingCount": 563,
    "lat": 34.126983167760734,
    "lng": 133.66713116296054,
    "year": 2024,
    "award": "2024 ・ 百名店 うどん 香川",
    "genre": "うどん"
  },
  {
    "rank": 3,
    "id": "37000251",
    "name": "六車",
    "url": "https://tabelog.com/kagawa/A3704/A370402/37000251/",
    "image": "https://tblg.k-img.com/restaurant/images/Rvw/10939/320x320_square_10939863.jpg",
    "address": "香川県東かがわ市湊6-1",
    "rating": 3.63,
    "ratingCount": 268,
    "lat": 34.246308637097094,
    "lng": 134.35017687252525,
    "year": 2024,
    "award": "2024 ・ 百名店 うどん 香川",
    "genre": "うどん"
  },
  {
    "rank": 4,
    "id": "37009422",
    "name": "手打ちうどん 大蔵",
    "url": "https://tabelog.com/kagawa/A3701/A370101/37009422/",
    "image": "https://tblg.k-img.com/restaurant/images/Rvw/73544/320x320_rect_73544470.jpg",
    "address": "香川県高松市花ノ宮町3-4-12 K&A花ノ宮",
    "rating": 3.83,
    "ratingCount": 292,
    "lat": 34.323791877662984,
    "lng": 134.0465162878561,
    "year": 2024,
    "award": "2024 ・ 百名店 うどん 香川",
    "genre": "うどん"
  },
  {
    "rank": 5,
    "id": "37000080",
    "name": "山越うどん",
    "url": "https://tabelog.com/kagawa/A3702/A370202/37000080/",
    "image": "https://tblg.k-img.com/restaurant/images/Rvw/321649/640x640_rect_5cd6d879d3471fb358105f8311031457.jpg",
    "address": "香川県綾歌郡綾川町羽床上602‐2",
    "rating": 3.84,
    "ratingCount": 2772,
    "lat": 34.225789027781126,
    "lng": 133.92821841377554,
    "year": 2024,
    "award": "2024 ・ 百名店 うどん 香川",
    "genre": "うどん"
  },
  {
    "rank": 6,
    "id": "37008913",
    "name": "麺匠 くすがみ",
    "url": "https://tabelog.com/kagawa/A3701/A370101/37008913/",
    "image": "https://tblg.k-img.com/restaurant/images/Rvw/363172/640x640_rect_fc111c03329d2ee75957e7cd9b5ff09f.jpg",
    "address": "香川県高松市楠上町2-6-36",
    "rating": 3.66,
    "ratingCount": 266,
    "lat": 34.32860548775635,
    "lng": 134.05548358472487,
    "year": 2024,
    "award": "2024 ・ 百名店 うどん 香川",
    "genre": "うどん"
  },
  {
    "rank": 7,
    "id": "37006447",
    "name": "手打ちセルフうどん 海侍 其の壱 飯山店",
    "url": "https://tabelog.com/kagawa/A3702/A370202/37006447/",
    "image": "https://tblg.k-img.com/restaurant/images/Rvw/324351/640x640_rect_a2bfcdfb44fa00ba0c7bc7c11ffb2ab8.jpg",
    "address": "香川県丸亀市飯山町東坂元2710-5",
    "rating": 3.72,
    "ratingCount": 298,
    "lat": 34.269073597735364,
    "lng": 133.870854744253,
    "year": 2024,
    "award": "2024 ・ 百名店 うどん 香川",
    "genre": "うどん"
  },
  {
    "rank": 8,
    "id": "37006950",
    "name": "手打ちうどん 清水屋",
    "url": "https://tabelog.com/kagawa/A3701/A370101/37006950/",
    "image": "https://tblg.k-img.com/restaurant/images/Rvw/361416/640x640_rect_4e18921cc2a68aaa01ddaa77a6b5dfbc.jpg",
    "address": "香川県高松市成合町8",
    "rating": 3.72,
    "ratingCount": 241,
    "lat": 34.2955665977631,
    "lng": 134.01077390442248,
    "year": 2024,
    "award": "2024 ・ 百名店 うどん 香川",
    "genre": "うどん"
  },
  {
    "rank": 9,
    "id": "37000378",
    "name": "マルタニ製麺",
    "url": "https://tabelog.com/kagawa/A3701/A370101/37000378/",
    "image": "https://tblg.k-img.com/restaurant/images/Rvw/366588/640x640_rect_2d9b0e965a87f8731449853b1349b6f7.jpg",
    "address": "香川県高松市円座町1023-1",
    "rating": 3.72,
    "ratingCount": 350,
    "lat": 34.28937193776723,
    "lng": 134.01140131435946,
    "year": 2024,
    "award": "2024 ・ 百名店 うどん 香川",
    "genre": "うどん"
  },
  {
    "rank": 10,
    "id": "37000057",
    "name": "ざいごうどん 本家 わら家",
    "url": "https://tabelog.com/kagawa/A3701/A370101/37000057/",
    "image": "https://tblg.k-img.com/restaurant/images/Rvw/40766/640x640_rect_40766489.jpg",
    "address": "香川県高松市屋島中町91",
    "rating": 3.74,
    "ratingCount": 1193,
    "lat": 34.34375316776354,
    "lng": 134.1082431348409,
    "year": 2024,
    "award": "2024 ・ 百名店 うどん 香川",
    "genre": "うどん"
  },
  {
    "rank": 11,
    "id": "37005730",
    "name": "麺処 綿谷 高松店",
    "url": "https://tabelog.com/kagawa/A3701/A370101/37005730/",
    "image": "https://tblg.k-img.com/restaurant/images/Rvw/18016/640x640_rect_18016498.jpg",
    "address": "香川県高松市南新町8-11",
    "rating": 3.71,
    "ratingCount": 1038,
    "lat": 34.33926252774763,
    "lng": 134.04934810483684,
    "year": 2024,
    "award": "2024 ・ 百名店 うどん 香川",
    "genre": "うどん"
  },
  {
    "rank": 12,
    "id": "37006820",
    "name": "ふる里うどん ",
    "url": "https://tabelog.com/kagawa/A3701/A370101/37006820/",
    "image": "https://tblg.k-img.com/restaurant/images/Rvw/258193/640x640_rect_7c670bede4a1a60f33e36570dde8bb20.jpg",
    "address": "香川県高松市川島東町523-4",
    "rating": 3.87,
    "ratingCount": 404,
    "lat": 34.27567756780435,
    "lng": 134.10066148415856,
    "year": 2024,
    "award": "2024 ・ 百名店 うどん 香川",
    "genre": "うどん"
  },
  {
    "rank": 13,
    "id": "37000224",
    "name": "手打麺や 大島",
    "url": "https://tabelog.com/kagawa/A3701/A370101/37000224/",
    "image": "https://tblg.k-img.com/restaurant/images/Rvw/93356/640x640_rect_93356240.jpg",
    "address": "香川県高松市太田下町3013-1",
    "rating": 3.76,
    "ratingCount": 502,
    "lat": 34.30287913777125,
    "lng": 134.0509478844682,
    "year": 2024,
    "award": "2024 ・ 百名店 うどん 香川",
    "genre": "うどん"
  },
  {
    "rank": 14,
    "id": "37008585",
    "name": "まつばら",
    "url": "https://tabelog.com/kagawa/A3701/A370101/37008585/",
    "image": "https://tblg.k-img.com/restaurant/images/Rvw/336085/640x640_rect_d81446e09f68aecf89ef02b427964e3e.jpg",
    "address": "香川県高松市寺井町1015",
    "rating": 3.8,
    "ratingCount": 339,
    "lat": 34.2763757777805,
    "lng": 134.02715280421717,
    "year": 2024,
    "award": "2024 ・ 百名店 うどん 香川",
    "genre": "うどん"
  },
  {
    "rank": 15,
    "id": "37000134",
    "name": "本格手打 もり家",
    "url": "https://tabelog.com/kagawa/A3701/A370101/37000134/",
    "image": "https://tblg.k-img.com/restaurant/images/Rvw/322838/640x640_rect_db31ade7a73c0c618d8f3df00021f1de.jpg",
    "address": "香川県高松市香川町川内原1575-1",
    "rating": 3.77,
    "ratingCount": 1292,
    "lat": 34.23966920781157,
    "lng": 134.05150749382932,
    "year": 2024,
    "award": "2024 ・ 百名店 うどん 香川",
    "genre": "うどん"
  },
  {
    "rank": 16,
    "id": "37012417",
    "name": "おうどん 瀬戸晴れ",
    "url": "https://tabelog.com/kagawa/A3701/A370101/37012417/",
    "image": "https://tblg.k-img.com/restaurant/images/Rvw/271647/640x640_rect_5873a791deb024b7bb731a4817e3e963.jpg",
    "address": "香川県高松市牟礼町牟礼2694-1",
    "rating": 3.88,
    "ratingCount": 850,
    "lat": 34.34900958776483,
    "lng": 134.12281767488375,
    "year": 2024,
    "award": "2024 ・ 百名店 うどん 香川",
    "genre": "うどん"
  },
  {
    "rank": 17,
    "id": "37008654",
    "name": "うつ海うどん",
    "url": "https://tabelog.com/kagawa/A3701/A370101/37008654/",
    "image": "https://tblg.k-img.com/restaurant/images/Rvw/297047/640x640_rect_4339935e6d0589064fcbd7113f288ad4.jpg",
    "address": "香川県高松市下田井町359-2",
    "rating": 3.77,
    "ratingCount": 485,
    "lat": 34.292947157789534,
    "lng": 134.08855396434151,
    "year": 2024,
    "award": "2024 ・ 百名店 うどん 香川",
    "genre": "うどん"
  },
  {
    "rank": 18,
    "id": "37000012",
    "name": "山下うどん",
    "url": "https://tabelog.com/kagawa/A3703/A370302/37000012/",
    "image": "https://tblg.k-img.com/restaurant/images/Rvw/114682/640x640_rect_114682468.jpg",
    "address": "香川県善通寺市与北町284-1",
    "rating": 3.77,
    "ratingCount": 1296,
    "lat": 34.22988019774334,
    "lng": 133.81773081389431,
    "year": 2024,
    "award": "2024 ・ 百名店 うどん 香川",
    "genre": "うどん"
  },
  {
    "rank": 19,
    "id": "37000152",
    "name": "西端手打 上戸うどん",
    "url": "https://tabelog.com/kagawa/A3703/A370301/37000152/",
    "image": "https://tblg.k-img.com/restaurant/images/Rvw/221112/640x640_rect_8d2693721538d9961f761ce5e7b87f37.jpg",
    "address": "香川県観音寺市豊浜町箕浦974-1",
    "rating": 3.78,
    "ratingCount": 899,
    "lat": 34.048008636990176,
    "lng": 133.61890887103485,
    "year": 2024,
    "award": "2024 ・ 百名店 うどん 香川",
    "genre": "うどん"
  },
  {
    "rank": 20,
    "id": "37000344",
    "name": "大島うどん",
    "url": "https://tabelog.com/kagawa/A3701/A370101/37000344/",
    "image": "https://tblg.k-img.com/restaurant/images/Rvw/154823/640x640_rect_d350c7900f0c0c9d0685c9a115f1e1ba.jpg",
    "address": "香川県高松市太田上町1058",
    "rating": 3.76,
    "ratingCount": 351,
    "lat": 34.30226236776875,
    "lng": 134.04185769446832,
    "year": 2024,
    "award": "2024 ・ 百名店 うどん 香川",
    "genre": "うどん"
  },
  {
    "rank": 21,
    "id": "37000874",
    "name": "手打うどん 麦蔵",
    "url": "https://tabelog.com/kagawa/A3701/A370101/37000874/",
    "image": "https://tblg.k-img.com/restaurant/images/Rvw/165210/640x640_rect_17f5a37265a2e46b8eba7ff053c83004.jpg",
    "address": "香川県高松市福岡町1-482-5",
    "rating": 3.79,
    "ratingCount": 898,
    "lat": 34.34778363694035,
    "lng": 134.06032757375345,
    "year": 2024,
    "award": "2024 ・ 百名店 うどん 香川",
    "genre": "うどん"
  },
  {
    "rank": 22,
    "id": "37000381",
    "name": "ヨコクラうどん",
    "url": "https://tabelog.com/kagawa/A3701/A370101/37000381/",
    "image": "https://tblg.k-img.com/restaurant/images/Rvw/310458/640x640_rect_ff106f7ca4d21367c9a21a623b45c5ab.jpg",
    "address": "香川県高松市鬼無町鬼無136-1",
    "rating": 3.74,
    "ratingCount": 402,
    "lat": 34.31535001774365,
    "lng": 133.98915798463747,
    "year": 2024,
    "award": "2024 ・ 百名店 うどん 香川",
    "genre": "うどん"
  },
  {
    "rank": 23,
    "id": "37005722",
    "name": "空海房",
    "url": "https://tabelog.com/kagawa/A3701/A370101/37005722/",
    "image": "https://tblg.k-img.com/restaurant/images/Rvw/42941/640x640_rect_42941963.jpg",
    "address": "香川県高松市香南町岡199",
    "rating": 3.64,
    "ratingCount": 385,
    "lat": 34.228784427811476,
    "lng": 134.02950152373478,
    "year": 2024,
    "award": "2024 ・ 百名店 うどん 香川",
    "genre": "うどん"
  },
  {
    "rank": 24,
    "id": "37009958",
    "name": "讃岐つけ麺 寒川",
    "url": "https://tabelog.com/kagawa/A3701/A370101/37009958/",
    "image": "https://tblg.k-img.com/restaurant/images/Rvw/188474/640x640_rect_ed95861e18279a1afb28180f3bfaaef9.jpg",
    "address": "香川県高松市鍛冶屋町4-16 SOUGENビル 1F",
    "rating": 3.68,
    "ratingCount": 381,
    "lat": 34.34282543774522,
    "lng": 134.04886667487315,
    "year": 2024,
    "award": "2024 ・ 百名店 うどん 香川",
    "genre": "うどん"
  },
  {
    "rank": 25,
    "id": "37000002",
    "name": "うどん本陣 山田家 讃岐本店",
    "url": "https://tabelog.com/kagawa/A3701/A370101/37000002/",
    "image": "https://tblg.k-img.com/restaurant/images/Rvw/228262/640x640_rect_08cef279ca171e44ab61435c0636a6b1.jpg",
    "address": "香川県高松市牟礼町牟礼3186",
    "rating": 3.74,
    "ratingCount": 1849,
    "lat": 34.35308262776447,
    "lng": 134.12976378492004,
    "year": 2024,
    "award": "2024 ・ 百名店 うどん 香川",
    "genre": "うどん"
  },
  {
    "rank": 26,
    "id": "37000510",
    "name": "かなくま餅",
    "url": "https://tabelog.com/kagawa/A3703/A370301/37000510/",
    "image": "https://tblg.k-img.com/restaurant/images/Rvw/361870/640x640_rect_b4da752d8a653a613d4ac3d666147a15.jpg",
    "address": "香川県観音寺市植田町35-2",
    "rating": 3.69,
    "ratingCount": 222,
    "lat": 34.12438525776842,
    "lng": 133.68610241292097,
    "year": 2024,
    "award": "2024 ・ 百名店 うどん 香川",
    "genre": "うどん"
  },
  {
    "rank": 27,
    "id": "37001256",
    "name": "古奈や",
    "url": "https://tabelog.com/kagawa/A3701/A370101/37001256/",
    "image": "https://tblg.k-img.com/restaurant/images/Rvw/341728/640x640_rect_d02f4f02bea9d653dc47b65131bf0b5f.jpg",
    "address": "香川県高松市勅使町302-7",
    "rating": 3.73,
    "ratingCount": 260,
    "lat": 34.30883494775437,
    "lng": 134.00983857455716,
    "year": 2024,
    "award": "2024 ・ 百名店 うどん 香川",
    "genre": "うどん"
  },
  {
    "rank": 28,
    "id": "37009664",
    "name": "本格手打ちうどん もり",
    "url": "https://tabelog.com/kagawa/A3703/A370303/37009664/",
    "image": "https://tblg.k-img.com/restaurant/images/Rvw/366518/640x640_rect_3c54b53fc283df0c0c856c7aa638bfc7.jpg",
    "address": "香川県三豊市高瀬町下麻678-2",
    "rating": 3.86,
    "ratingCount": 457,
    "lat": 34.17142109775853,
    "lng": 133.7488735333521,
    "year": 2024,
    "award": "2024 ・ 百名店 うどん 香川",
    "genre": "うどん"
  },
  {
    "rank": 29,
    "id": "37000375",
    "name": "ふるかわうどん",
    "url": "https://tabelog.com/kagawa/A3701/A370101/37000375/",
    "image": "https://tblg.k-img.com/restaurant/images/Rvw/357178/640x640_rect_3d437fc4f7e2c39690a96e6af993574d.jpg",
    "address": "香川県高松市木太町5016-1",
    "rating": 3.67,
    "ratingCount": 176,
    "lat": 34.31780889776805,
    "lng": 134.07067795460517,
    "year": 2024,
    "award": "2024 ・ 百名店 うどん 香川",
    "genre": "うどん"
  },
  {
    "rank": 30,
    "id": "37000147",
    "name": "シラカワ",
    "url": "https://tabelog.com/kagawa/A3703/A370303/37000147/",
    "image": "https://tblg.k-img.com/restaurant/images/Rvw/345114/640x640_rect_a426ee0e602fb618a2b7775fb3171af2.jpg",
    "address": "香川県三豊市山本町大野2854-8",
    "rating": 3.67,
    "ratingCount": 247,
    "lat": 34.1230680177797,
    "lng": 133.7188885928847,
    "year": 2024,
    "award": "2024 ・ 百名店 うどん 香川",
    "genre": "うどん"
  },
  {
    "rank": 31,
    "id": "37001224",
    "name": "あづま",
    "url": "https://tabelog.com/kagawa/A3701/A370101/37001224/",
    "image": "https://tblg.k-img.com/restaurant/images/Rvw/222272/640x640_rect_8286c9bfb00bad0d4726149964ca3db7.jpg",
    "address": "香川県高松市前田東町340-1",
    "rating": 3.67,
    "ratingCount": 262,
    "lat": 34.29884026779645,
    "lng": 134.12204499437755,
    "year": 2024,
    "award": "2024 ・ 百名店 うどん 香川",
    "genre": "うどん"
  },
  {
    "rank": 32,
    "id": "37007443",
    "name": "めんや七福  本店",
    "url": "https://tabelog.com/kagawa/A3701/A370101/37007443/",
    "image": "https://tblg.k-img.com/restaurant/images/Rvw/48133/640x640_rect_48133798.jpg",
    "address": "香川県高松市天神前6-10",
    "rating": 3.69,
    "ratingCount": 232,
    "lat": 34.33836267774659,
    "lng": 134.0442651248313,
    "year": 2024,
    "award": "2024 ・ 百名店 うどん 香川",
    "genre": "うどん"
  },
  {
    "rank": 33,
    "id": "37008968",
    "name": "讃岐うどん工房 アイ・スタイル",
    "url": "https://tabelog.com/kagawa/A3701/A370101/37008968/",
    "image": "https://tblg.k-img.com/restaurant/images/Rvw/357413/640x640_rect_07325e1101b5e70b73d8b6dafb2de8fd.jpg",
    "address": "香川県高松市木太町1905-3",
    "rating": 3.63,
    "ratingCount": 167,
    "lat": 34.32488765776442,
    "lng": 134.07339510467477,
    "year": 2024,
    "award": "2024 ・ 百名店 うどん 香川",
    "genre": "うどん"
  },
  {
    "rank": 34,
    "id": "37005339",
    "name": "宮武うどん",
    "url": "https://tabelog.com/kagawa/A3701/A370101/37005339/",
    "image": "https://tblg.k-img.com/restaurant/images/Rvw/211941/640x640_rect_52cc3d671e616abe84a8b1e9a3376d88.jpg",
    "address": "香川県高松市円座町340",
    "rating": 3.78,
    "ratingCount": 785,
    "lat": 34.293875907760224,
    "lng": 133.9983711444141,
    "year": 2024,
    "award": "2024 ・ 百名店 うどん 香川",
    "genre": "うどん"
  },
  {
    "rank": 35,
    "id": "37000244",
    "name": "多田製麺所",
    "url": "https://tabelog.com/kagawa/A3701/A370102/37000244/",
    "image": "https://tblg.k-img.com/restaurant/images/Rvw/356448/640x640_rect_1ceece6225b202c90c74fd894185b130.jpg",
    "address": "香川県木田郡三木町大字池戸2918",
    "rating": 3.64,
    "ratingCount": 240,
    "lat": 34.272813797813775,
    "lng": 134.12452372411295,
    "year": 2024,
    "award": "2024 ・ 百名店 うどん 香川",
    "genre": "うどん"
  },
  {
    "rank": 36,
    "id": "37000026",
    "name": "うどん さか枝",
    "url": "https://tabelog.com/kagawa/A3701/A370101/37000026/",
    "image": "https://tblg.k-img.com/restaurant/images/Rvw/340968/640x640_rect_f6bc180fdf53d7234eedc86f0f815a07.jpg",
    "address": "香川県高松市番町5-2-23",
    "rating": 3.79,
    "ratingCount": 1825,
    "lat": 34.33981563693945,
    "lng": 134.04162887368602,
    "year": 2024,
    "award": "2024 ・ 百名店 うどん 香川",
    "genre": "うどん"
  },
  {
    "rank": 37,
    "id": "37001242",
    "name": "かしむらうどん",
    "url": "https://tabelog.com/kagawa/A3701/A370101/37001242/",
    "image": "https://tblg.k-img.com/restaurant/images/Rvw/287496/640x640_rect_96af1f3915489e8f7e8334aac7375b14.jpg",
    "address": "香川県高松市屋島西町2485-12",
    "rating": 3.66,
    "ratingCount": 168,
    "lat": 34.350634347753186,
    "lng": 134.08947240492355,
    "year": 2024,
    "award": "2024 ・ 百名店 うどん 香川",
    "genre": "うどん"
  },
  {
    "rank": 38,
    "id": "37000015",
    "name": "釜あげうどん 長田 in 香の香",
    "url": "https://tabelog.com/kagawa/A3703/A370302/37000015/",
    "image": "https://tblg.k-img.com/restaurant/images/Rvw/122303/640x640_rect_122303922.jpg",
    "address": "香川県善通寺市金蔵寺町本村1180",
    "rating": 3.85,
    "ratingCount": 3761,
    "lat": 34.25087756771787,
    "lng": 133.7796427841331,
    "year": 2024,
    "award": "2024 ・ 百名店 うどん 香川",
    "genre": "うどん"
  },
  {
    "rank": 39,
    "id": "37007004",
    "name": "あやうた製麺",
    "url": "https://tabelog.com/kagawa/A3702/A370202/37007004/",
    "image": "https://tblg.k-img.com/restaurant/images/Rvw/295343/640x640_rect_2066f52fc635a2fd66e16a587407d58e.jpg",
    "address": "香川県丸亀市綾歌町岡田西1785",
    "rating": 3.7,
    "ratingCount": 267,
    "lat": 34.23236756774942,
    "lng": 133.84179719390258,
    "year": 2024,
    "award": "2024 ・ 百名店 うどん 香川",
    "genre": "うどん"
  },
  {
    "rank": 40,
    "id": "37005468",
    "name": "うどん屋 まつはま",
    "url": "https://tabelog.com/kagawa/A3701/A370101/37005468/",
    "image": "https://tblg.k-img.com/restaurant/images/Rvw/358883/640x640_rect_c940fbcfca2725809d070ae132ed9c42.jpg",
    "address": "香川県高松市元山町308-1",
    "rating": 3.7,
    "ratingCount": 190,
    "lat": 34.312763227777864,
    "lng": 134.09143250453965,
    "year": 2024,
    "award": "2024 ・ 百名店 うどん 香川",
    "genre": "うどん"
  },
  {
    "rank": 41,
    "id": "37000140",
    "name": "三嶋製麺所",
    "url": "https://tabelog.com/kagawa/A3703/A370302/37000140/",
    "image": "https://tblg.k-img.com/restaurant/images/Rvw/271645/640x640_rect_92221ae23b67d733b7d96416e02455d8.jpg",
    "address": "香川県仲多度郡まんのう町川東276",
    "rating": 3.77,
    "ratingCount": 632,
    "lat": 34.1419831278449,
    "lng": 133.9613585829058,
    "year": 2024,
    "award": "2024 ・ 百名店 うどん 香川",
    "genre": "うどん"
  },
  {
    "rank": 42,
    "id": "37008648",
    "name": "手打ちうどん ひさ枝",
    "url": "https://tabelog.com/kagawa/A3701/A370101/37008648/",
    "image": "https://tblg.k-img.com/restaurant/images/Rvw/366589/640x640_rect_9106caa6ee9fc4cc8fd56da039716f00.jpg",
    "address": "香川県高松市郷東町796-53",
    "rating": 3.76,
    "ratingCount": 578,
    "lat": 34.353559357726226,
    "lng": 134.01063508500835,
    "year": 2024,
    "award": "2024 ・ 百名店 うどん 香川",
    "genre": "うどん"
  },
  {
    "rank": 43,
    "id": "37000233",
    "name": "本格手打うどん はゆか",
    "url": "https://tabelog.com/kagawa/A3702/A370202/37000233/",
    "image": "https://tblg.k-img.com/restaurant/images/Rvw/311206/640x640_rect_294ac8940fbaa8757de63470991db5e2.jpg",
    "address": "香川県綾歌郡綾川町羽床下2222-5",
    "rating": 3.84,
    "ratingCount": 1058,
    "lat": 34.23239245776948,
    "lng": 133.90482832385865,
    "year": 2024,
    "award": "2024 ・ 百名店 うどん 香川",
    "genre": "うどん"
  },
  {
    "rank": 44,
    "id": "37008190",
    "name": "三好うどん",
    "url": "https://tabelog.com/kagawa/A3703/A370303/37008190/",
    "image": "https://tblg.k-img.com/restaurant/images/Rvw/336085/640x640_rect_aacf804533ca2f57392cbe40385cbbeb.jpg",
    "address": "香川県三豊市高瀬町比地1583-1",
    "rating": 3.8,
    "ratingCount": 499,
    "lat": 34.1823468377336,
    "lng": 133.6923284335021,
    "year": 2024,
    "award": "2024 ・ 百名店 うどん 香川",
    "genre": "うどん"
  },
  {
    "rank": 45,
    "id": "37001376",
    "name": "手打ちうどん 歩",
    "url": "https://tabelog.com/kagawa/A3702/A370202/37001376/",
    "image": "https://tblg.k-img.com/restaurant/images/Rvw/336469/640x640_rect_a6fa1a8ac2155462797fb62e30ff7ba5.jpg",
    "address": "香川県丸亀市飯野町東二484",
    "rating": 3.7,
    "ratingCount": 326,
    "lat": 34.2650692777269,
    "lng": 133.83629152423674,
    "year": 2024,
    "award": "2024 ・ 百名店 うどん 香川",
    "genre": "うどん"
  },
  {
    "rank": 46,
    "id": "37000242",
    "name": "手打十段 うどんバカ一代",
    "url": "https://tabelog.com/kagawa/A3701/A370101/37000242/",
    "image": "https://tblg.k-img.com/restaurant/images/Rvw/310141/640x640_rect_d1b905ff8739ba86e0024a903803f300.jpg",
    "address": "香川県高松市多賀町1-6-7",
    "rating": 3.79,
    "ratingCount": 5185,
    "lat": 34.33675012775216,
    "lng": 134.058546184805,
    "year": 2024,
    "award": "2024 ・ 百名店 うどん 香川",
    "genre": "うどん"
  },
  {
    "rank": 47,
    "id": "37001522",
    "name": "滝音",
    "url": "https://tabelog.com/kagawa/A3701/A370102/37001522/",
    "image": "https://tblg.k-img.com/restaurant/images/Rvw/222272/640x640_rect_a2dd090b4c24a858205de70cf6941204.jpg",
    "address": "香川県木田郡三木町大字上高岡266-1",
    "rating": 3.66,
    "ratingCount": 287,
    "lat": 34.25292956783096,
    "lng": 134.13881365390208,
    "year": 2024,
    "award": "2024 ・ 百名店 うどん 香川",
    "genre": "うどん"
  },
  {
    "rank": 48,
    "id": "37000044",
    "name": "手打ちうどん 鶴丸",
    "url": "https://tabelog.com/kagawa/A3701/A370101/37000044/",
    "image": "https://tblg.k-img.com/restaurant/images/Rvw/274636/640x640_rect_0c4783d92660cb7936a33cab8129d9b5.jpg",
    "address": "香川県高松市古馬場町9-34",
    "rating": 3.75,
    "ratingCount": 1728,
    "lat": 34.34238854774662,
    "lng": 134.05240500486627,
    "year": 2024,
    "award": "2024 ・ 百名店 うどん 香川",
    "genre": "うどん"
  },
  {
    "rank": 49,
    "id": "37000384",
    "name": "うどんの田",
    "url": "https://tabelog.com/kagawa/A3701/A370101/37000384/",
    "image": "https://tblg.k-img.com/restaurant/images/Rvw/177903/640x640_rect_5feb7bfbd4c0c6add75bd29bce2e8095.jpg",
    "address": "香川県高松市寺井町38-1",
    "rating": 3.75,
    "ratingCount": 365,
    "lat": 34.28264472777914,
    "lng": 134.0354006742747,
    "year": 2024,
    "award": "2024 ・ 百名店 うどん 香川",
    "genre": "うどん"
  },
  {
    "rank": 50,
    "id": "37001355",
    "name": "とらや",
    "url": "https://tabelog.com/kagawa/A3702/A370201/37001355/",
    "image": "https://tblg.k-img.com/restaurant/images/Rvw/365716/640x640_rect_d9da16b1c310799edc527f71062903ff.jpg",
    "address": "香川県坂出市沖の浜1-4",
    "rating": 3.72,
    "ratingCount": 214,
    "lat": 34.32442817769145,
    "lng": 133.84337698483137,
    "year": 2024,
    "award": "2024 ・ 百名店 うどん 香川",
    "genre": "うどん"
  },
  {
    "rank": 51,
    "id": "37000040",
    "name": "中西うどん",
    "url": "https://tabelog.com/kagawa/A3701/A370101/37000040/",
    "image": "https://tblg.k-img.com/restaurant/images/Rvw/311429/640x640_rect_96f9eaabad20e5d94fd520f4d6e73205.jpg",
    "address": "香川県高松市鹿角町899-3",
    "rating": 3.78,
    "ratingCount": 909,
    "lat": 34.30236303392931,
    "lng": 134.02920149024908,
    "year": 2024,
    "award": "2024 ・ 百名店 うどん 香川",
    "genre": "うどん"
  },
  {
    "rank": 52,
    "id": "37004775",
    "name": "本格手打うどん 麺むすび",
    "url": "https://tabelog.com/kagawa/A3701/A370101/37004775/",
    "image": "https://tblg.k-img.com/restaurant/images/Rvw/42191/640x640_rect_42191425.jpg",
    "address": "香川県高松市多肥下町949",
    "rating": 3.74,
    "ratingCount": 370,
    "lat": 34.30652863962157,
    "lng": 134.05757977497672,
    "year": 2024,
    "award": "2024 ・ 百名店 うどん 香川",
    "genre": "うどん"
  },
  {
    "rank": 53,
    "id": "37000135",
    "name": "中村うどん",
    "url": "https://tabelog.com/kagawa/A3702/A370202/37000135/",
    "image": "https://tblg.k-img.com/restaurant/images/Rvw/67746/640x640_rect_67746005.jpg",
    "address": "香川県丸亀市土器町東9-283 CLOVER SHOEIビル1F",
    "rating": 3.81,
    "ratingCount": 1330,
    "lat": 34.300406537695245,
    "lng": 133.80737735461398,
    "year": 2024,
    "award": "2024 ・ 百名店 うどん 香川",
    "genre": "うどん"
  },
  {
    "rank": 54,
    "id": "37002062",
    "name": "誠うどん",
    "url": "https://tabelog.com/kagawa/A3701/A370101/37002062/",
    "image": "https://tblg.k-img.com/restaurant/images/Rvw/7602/640x640_rect_7602377.jpg",
    "address": "香川県高松市亀岡町17-14",
    "rating": 3.64,
    "ratingCount": 230,
    "lat": 34.3361745377471,
    "lng": 134.0415145148111,
    "year": 2024,
    "award": "2024 ・ 百名店 うどん 香川",
    "genre": "うどん"
  },
  {
    "rank": 55,
    "id": "37005861",
    "name": "手打ちうどんますや",
    "url": "https://tabelog.com/kagawa/A3701/A370101/37005861/",
    "image": "https://tblg.k-img.com/restaurant/images/Rvw/280966/640x640_rect_fb5288adea14c59c0f83c512ce587374.jpg",
    "address": "香川県高松市春日町1743-2",
    "rating": 3.83,
    "ratingCount": 401,
    "lat": 34.33734135776322,
    "lng": 134.09446627478582,
    "year": 2024,
    "award": "2024 ・ 百名店 うどん 香川",
    "genre": "うどん"
  },
  {
    "rank": 56,
    "id": "37000131",
    "name": "饂飩家 五右衛門",
    "url": "https://tabelog.com/kagawa/A3701/A370101/37000131/",
    "image": "https://tblg.k-img.com/restaurant/images/Rvw/42814/640x640_rect_42814003.jpg",
    "address": "香川県高松市古馬場町13-15 ＡＩビル １Ｆ",
    "rating": 3.64,
    "ratingCount": 563,
    "lat": 34.34215286774661,
    "lng": 134.05190265486425,
    "year": 2024,
    "award": "2024 ・ 百名店 うどん 香川",
    "genre": "うどん"
  },
  {
    "rank": 57,
    "id": "37000033",
    "name": "松下製麺所",
    "url": "https://tabelog.com/kagawa/A3701/A370101/37000033/",
    "image": "https://tblg.k-img.com/restaurant/images/Rvw/220555/640x640_rect_65745ffd5da9b869c8ea2ff1520ce36b.jpg",
    "address": "香川県高松市中野町2-2",
    "rating": 3.75,
    "ratingCount": 1228,
    "lat": 34.33502468774891,
    "lng": 134.04491692479712,
    "year": 2024,
    "award": "2024 ・ 百名店 うどん 香川",
    "genre": "うどん"
  },
  {
    "rank": 58,
    "id": "37000128",
    "name": "宮川製麺所",
    "url": "https://tabelog.com/kagawa/A3703/A370302/37000128/",
    "image": "https://tblg.k-img.com/restaurant/images/Rvw/22291/640x640_rect_22291854.jpg",
    "address": "香川県善通寺市中村町1-1-20",
    "rating": 3.75,
    "ratingCount": 765,
    "lat": 34.231446377727764,
    "lng": 133.7719466239422,
    "year": 2024,
    "award": "2024 ・ 百名店 うどん 香川",
    "genre": "うどん"
  },
  {
    "rank": 59,
    "id": "37000034",
    "name": "川福 本店",
    "url": "https://tabelog.com/kagawa/A3701/A370101/37000034/",
    "image": "https://tblg.k-img.com/restaurant/images/Rvw/365195/640x640_rect_724a3d7b4ed8a4dfd81f2c3d5614401c.jpg",
    "address": "香川県高松市大工町2-1",
    "rating": 3.67,
    "ratingCount": 716,
    "lat": 34.344905167744884,
    "lng": 134.05195832489198,
    "year": 2024,
    "award": "2024 ・ 百名店 うどん 香川",
    "genre": "うどん"
  },
  {
    "rank": 60,
    "id": "37011173",
    "name": "いけこうどん",
    "url": "https://tabelog.com/kagawa/A3702/A370202/37011173/",
    "image": "https://tblg.k-img.com/restaurant/images/Rvw/212175/320x320_rect_c267b5b6a045886db9366492f22d9c11.jpg",
    "address": "香川県仲多度郡多度津町西浜11-18",
    "rating": 3.72,
    "ratingCount": 264,
    "lat": 34.27147166769364,
    "lng": 133.74461223436566,
    "year": 2024,
    "award": "2024 ・ 百名店 うどん 香川",
    "genre": "うどん"
  },
  {
    "rank": 61,
    "id": "37000142",
    "name": "手打うどん 三徳",
    "url": "https://tabelog.com/kagawa/A3701/A370101/37000142/",
    "image": "https://tblg.k-img.com/restaurant/images/Rvw/15193/640x640_rect_15193094.jpg",
    "address": "香川県高松市林町390-1",
    "rating": 3.75,
    "ratingCount": 566,
    "lat": 34.29269291778346,
    "lng": 134.06899409435266,
    "year": 2024,
    "award": "2024 ・ 百名店 うどん 香川",
    "genre": "うどん"
  },
  {
    "rank": 62,
    "id": "37000136",
    "name": "飯野屋",
    "url": "https://tabelog.com/kagawa/A3702/A370202/37000136/",
    "image": "https://tblg.k-img.com/restaurant/images/Rvw/365868/640x640_rect_751149b227930b8b4549cfccaddbcc34.jpg",
    "address": "香川県丸亀市飯野町東二1888-1",
    "rating": 3.64,
    "ratingCount": 274,
    "lat": 34.2809274477141,
    "lng": 133.82772568440294,
    "year": 2024,
    "award": "2024 ・ 百名店 うどん 香川",
    "genre": "うどん"
  },
  {
    "rank": 63,
    "id": "37000143",
    "name": "須崎食料品店",
    "url": "https://tabelog.com/kagawa/A3703/A370303/37000143/",
    "image": "https://tblg.k-img.com/restaurant/images/Rvw/121182/640x640_rect_121182284.jpg",
    "address": "香川県三豊市高瀬町上麻3778",
    "rating": 4.23,
    "ratingCount": 2100,
    "lat": 34.17513635776277,
    "lng": 133.76956039337512,
    "year": 2024,
    "award": "2024 ・ 百名店 うどん 香川",
    "genre": "うどん"
  },
  {
    "rank": 64,
    "id": "37000020",
    "name": "山下うどん",
    "url": "https://tabelog.com/kagawa/A3702/A370201/37000020/",
    "image": "https://tblg.k-img.com/restaurant/images/Rvw/42847/640x640_rect_42847414.jpg",
    "address": "香川県坂出市加茂町147-1",
    "rating": 3.76,
    "ratingCount": 753,
    "lat": 34.29985517773138,
    "lng": 133.91971750452964,
    "year": 2024,
    "award": "2024 ・ 百名店 うどん 香川",
    "genre": "うどん"
  },
  {
    "rank": 65,
    "id": "37008978",
    "name": "いなもく",
    "url": "https://tabelog.com/kagawa/A3702/A370202/37008978/",
    "image": "https://tblg.k-img.com/restaurant/images/Rvw/194186/640x640_rect_b8e7239d17f7b5264f4c5f2c2bca29cf.jpg",
    "address": "香川県綾歌郡綾川町枌所西甲1420-3",
    "rating": 3.72,
    "ratingCount": 231,
    "lat": 34.19932063700966,
    "lng": 133.98191807230876,
    "year": 2024,
    "award": "2024 ・ 百名店 うどん 香川",
    "genre": "うどん"
  },
  {
    "rank": 66,
    "id": "37000004",
    "name": "元祖しょうゆうどん 小縣家",
    "url": "https://tabelog.com/kagawa/A3703/A370302/37000004/",
    "image": "https://tblg.k-img.com/restaurant/images/Rvw/110617/640x640_rect_8dbb2445dbe9dffd3fdd6759a500b70c.jpg",
    "address": "香川県仲多度郡まんのう町吉野1298-2",
    "rating": 3.68,
    "ratingCount": 577,
    "lat": 34.185375497784754,
    "lng": 133.85900575341586,
    "year": 2024,
    "award": "2024 ・ 百名店 うどん 香川",
    "genre": "うどん"
  },
  {
    "rank": 67,
    "id": "37000005",
    "name": "長田うどん",
    "url": "https://tabelog.com/kagawa/A3703/A370302/37000005/",
    "image": "https://tblg.k-img.com/restaurant/images/Rvw/321462/640x640_rect_02a2e02ca10116884bf03a7b972461e8.jpg",
    "address": "香川県仲多度郡まんのう町吉野1290-1",
    "rating": 3.75,
    "ratingCount": 585,
    "lat": 34.185121787784446,
    "lng": 133.8575503734143,
    "year": 2024,
    "award": "2024 ・ 百名店 うどん 香川",
    "genre": "うどん"
  },
  {
    "rank": 68,
    "id": "37010831",
    "name": "准手打ちな 満福うどん",
    "url": "https://tabelog.com/kagawa/A3702/A370202/37010831/",
    "image": "https://tblg.k-img.com/restaurant/images/Rvw/241627/640x640_rect_30560ef715622e86d6346fa71bf7dcec.jpg",
    "address": "香川県丸亀市飯山町東坂元3626-1",
    "rating": 3.64,
    "ratingCount": 73,
    "lat": 34.26956448351946,
    "lng": 133.8795437627463,
    "year": 2024,
    "award": "2024 ・ 百名店 うどん 香川",
    "genre": "うどん"
  },
  {
    "rank": 69,
    "id": "37007679",
    "name": "うどん職人さぬき麺之介",
    "url": "https://tabelog.com/kagawa/A3701/A370101/37007679/",
    "image": "https://tblg.k-img.com/restaurant/images/Rvw/54002/640x640_rect_54002005.jpg",
    "address": "香川県高松市瓦町1-7-3 平川ビル 1F",
    "rating": 3.63,
    "ratingCount": 892,
    "lat": 34.34102779774763,
    "lng": 134.0528385948522,
    "year": 2024,
    "award": "2024 ・ 百名店 うどん 香川",
    "genre": "うどん"
  },
  {
    "rank": 70,
    "id": "37000074",
    "name": "本格手打うどん おか泉",
    "url": "https://tabelog.com/kagawa/A3702/A370202/37000074/",
    "image": "https://tblg.k-img.com/restaurant/images/Rvw/67946/320x320_rect_67946139.jpg",
    "address": "香川県綾歌郡宇多津町浜八番丁129-10",
    "rating": 3.79,
    "ratingCount": 1970,
    "lat": 34.30929944769394,
    "lng": 133.82100496469423,
    "year": 2024,
    "award": "2024 ・ 百名店 うどん 香川",
    "genre": "うどん"
  },
  {
    "rank": 71,
    "id": "37000722",
    "name": "手打ちうどん むさし",
    "url": "https://tabelog.com/kagawa/A3703/A370302/37000722/",
    "image": "https://tblg.k-img.com/restaurant/images/Rvw/363544/640x640_rect_bdc45ee55cd9d4898239f6f0bf947e37.jpg",
    "address": "香川県仲多度郡琴平町五條637-2 小出ビル　１Ｆ",
    "rating": 3.67,
    "ratingCount": 403,
    "lat": 34.18988723777223,
    "lng": 133.82869649348265,
    "year": 2024,
    "award": "2024 ・ 百名店 うどん 香川",
    "genre": "うどん"
  },
  {
    "rank": 72,
    "id": "37000289",
    "name": "麺処 綿谷 丸亀店",
    "url": "https://tabelog.com/kagawa/A3702/A370202/37000289/",
    "image": "https://tblg.k-img.com/restaurant/images/Rvw/204809/640x640_rect_aa25b7ce39d4b70db27892e00f471bec.jpg",
    "address": "香川県丸亀市北平山町2-6-18",
    "rating": 3.78,
    "ratingCount": 1289,
    "lat": 34.29632098769427,
    "lng": 133.79616791458054,
    "year": 2024,
    "award": "2024 ・ 百名店 うどん 香川",
    "genre": "うどん"
  },
  {
    "rank": 73,
    "id": "37009661",
    "name": "うどん おかだ",
    "url": "https://tabelog.com/kagawa/A3702/A370202/37009661/",
    "image": "https://tblg.k-img.com/restaurant/images/Rvw/345579/640x640_rect_54a393beada8ff6b9f9edb2984ed6c19.jpg",
    "address": "香川県丸亀市飯野町東二623-1",
    "rating": 3.71,
    "ratingCount": 263,
    "lat": 34.26444439772634,
    "lng": 133.83328214423256,
    "year": 2024,
    "award": "2024 ・ 百名店 うどん 香川",
    "genre": "うどん"
  },
  {
    "rank": 74,
    "id": "37000070",
    "name": "まえばうどん",
    "url": "https://tabelog.com/kagawa/A3702/A370202/37000070/",
    "image": "https://tblg.k-img.com/restaurant/images/Rvw/363866/640x640_rect_c5e20c13c05f6f92ef1227ad21bad7f5.jpg",
    "address": "香川県丸亀市綾歌町栗熊東420-2",
    "rating": 3.71,
    "ratingCount": 247,
    "lat": 34.23564625776031,
    "lng": 133.88250863390718,
    "year": 2024,
    "award": "2024 ・ 百名店 うどん 香川",
    "genre": "うどん"
  },
  {
    "rank": 75,
    "id": "37000536",
    "name": "野口製麺",
    "url": "https://tabelog.com/kagawa/A3701/A370101/37000536/",
    "image": "https://tblg.k-img.com/restaurant/images/Rvw/335328/640x640_rect_0765c43ea53a1fdaa43b1b4cd4af4617.jpg",
    "address": "香川県高松市上福岡町1286",
    "rating": 3.66,
    "ratingCount": 115,
    "lat": 34.33313019775521,
    "lng": 134.06090287476678,
    "year": 2024,
    "award": "2024 ・ 百名店 うどん 香川",
    "genre": "うどん"
  },
  {
    "rank": 76,
    "id": "37000684",
    "name": "吉本食品",
    "url": "https://tabelog.com/kagawa/A3704/A370402/37000684/",
    "image": "https://tblg.k-img.com/restaurant/images/Rvw/54622/640x640_rect_54622437.jpg",
    "address": "香川県東かがわ市三本松608",
    "rating": 3.76,
    "ratingCount": 444,
    "lat": 34.25055756789643,
    "lng": 134.3396930337373,
    "year": 2024,
    "award": "2024 ・ 百名店 うどん 香川",
    "genre": "うどん"
  },
  {
    "rank": 77,
    "id": "37007722",
    "name": "釜揚げうどん岡じま 丸亀店",
    "url": "https://tabelog.com/kagawa/A3702/A370202/37007722/",
    "image": "https://tblg.k-img.com/restaurant/images/Rvw/233415/640x640_rect_efab1520908347f7a112ee9f303c0655.jpg",
    "address": "香川県丸亀市塩屋町3-11-24",
    "rating": 3.68,
    "ratingCount": 344,
    "lat": 34.28653604769426,
    "lng": 133.77660657449542,
    "year": 2024,
    "award": "2024 ・ 百名店 うどん 香川",
    "genre": "うどん"
  },
  {
    "rank": 78,
    "id": "37005010",
    "name": "まいどまいど",
    "url": "https://tabelog.com/kagawa/A3702/A370201/37005010/",
    "image": "https://tblg.k-img.com/restaurant/images/Rvw/366276/640x640_rect_768605f05371104181c8fbb91d2b34e7.jpg",
    "address": "香川県坂出市川津町45-5",
    "rating": 3.68,
    "ratingCount": 223,
    "lat": 34.28273688772134,
    "lng": 133.85406414440274,
    "year": 2024,
    "award": "2024 ・ 百名店 うどん 香川",
    "genre": "うどん"
  },
  {
    "rank": 79,
    "id": "37000027",
    "name": "植田うどん",
    "url": "https://tabelog.com/kagawa/A3701/A370101/37000027/",
    "image": "https://tblg.k-img.com/restaurant/images/Rvw/365622/640x640_rect_fa860f8fbf51a6398e4f02961267a739.jpg",
    "address": "香川県高松市内町1-8",
    "rating": 3.66,
    "ratingCount": 635,
    "lat": 34.346903677743086,
    "lng": 134.05031227491332,
    "year": 2024,
    "award": "2024 ・ 百名店 うどん 香川",
    "genre": "うどん"
  },
  {
    "rank": 80,
    "id": "37001543",
    "name": "麺処まはろ",
    "url": "https://tabelog.com/kagawa/A3704/A370401/37001543/",
    "image": "https://tblg.k-img.com/restaurant/images/Rvw/9582/640x640_rect_9582603.jpg",
    "address": "香川県さぬき市寒川町神前3970",
    "rating": 3.7,
    "ratingCount": 319,
    "lat": 34.29029863702722,
    "lng": 134.21847917306192,
    "year": 2024,
    "award": "2024 ・ 百名店 うどん 香川",
    "genre": "うどん"
  },
  {
    "rank": 81,
    "id": "37006884",
    "name": "しんぺいうどん",
    "url": "https://tabelog.com/kagawa/A3701/A370101/37006884/",
    "image": "https://tblg.k-img.com/restaurant/images/Rvw/302594/640x640_rect_a768fdf75a63b29a5f8f334ee13832f5.jpg",
    "address": "香川県高松市田町13-6",
    "rating": 3.63,
    "ratingCount": 299,
    "lat": 34.33824163694283,
    "lng": 134.0491248736649,
    "year": 2024,
    "award": "2024 ・ 百名店 うどん 香川",
    "genre": "うどん"
  },
  {
    "rank": 82,
    "id": "37000007",
    "name": "山内うどん店",
    "url": "https://tabelog.com/kagawa/A3703/A370302/37000007/",
    "image": "https://tblg.k-img.com/restaurant/images/Rvw/232205/640x640_rect_0216558df5b402d184102421128fbe0c.jpg",
    "address": "香川県仲多度郡まんのう町十郷字大口1010",
    "rating": 3.83,
    "ratingCount": 1170,
    "lat": 34.13704684780613,
    "lng": 133.82975886294818,
    "year": 2024,
    "award": "2024 ・ 百名店 うどん 香川",
    "genre": "うどん"
  },
  {
    "rank": 83,
    "id": "37000016",
    "name": "日の出製麺所",
    "url": "https://tabelog.com/kagawa/A3702/A370201/37000016/",
    "image": "https://tblg.k-img.com/restaurant/images/Rvw/271646/640x640_rect_9e1b060e771940a1caa29ab5cf1caf41.jpg",
    "address": "香川県坂出市富士見町1-8-5",
    "rating": 3.87,
    "ratingCount": 2485,
    "lat": 34.31036296770256,
    "lng": 133.85017186468454,
    "year": 2024,
    "award": "2024 ・ 百名店 うどん 香川",
    "genre": "うどん"
  },
  {
    "rank": 84,
    "id": "37000077",
    "name": "手打うどん たむら",
    "url": "https://tabelog.com/kagawa/A3702/A370202/37000077/",
    "image": "https://tblg.k-img.com/restaurant/images/Rvw/209289/640x640_rect_624e0118d77f89f0c764c2ff55b90e1d.jpg",
    "address": "香川県綾歌郡綾川町陶1090-3",
    "rating": 3.82,
    "ratingCount": 1051,
    "lat": 34.26650410775753,
    "lng": 133.93532319418185,
    "year": 2024,
    "award": "2024 ・ 百名店 うどん 香川",
    "genre": "うどん"
  },
  {
    "rank": 85,
    "id": "37000019",
    "name": "讃岐うどん がもう",
    "url": "https://tabelog.com/kagawa/A3702/A370201/37000019/",
    "image": "https://tblg.k-img.com/restaurant/images/Rvw/121817/640x640_rect_121817213.jpg",
    "address": "香川県坂出市加茂町420-1",
    "rating": 3.89,
    "ratingCount": 2950,
    "lat": 34.304975387726586,
    "lng": 133.91488409458472,
    "year": 2024,
    "award": "2024 ・ 百名店 うどん 香川",
    "genre": "うどん"
  },
  {
    "rank": 86,
    "id": "37000011",
    "name": "谷川米穀店",
    "url": "https://tabelog.com/kagawa/A3703/A370302/37000011/",
    "image": "https://tblg.k-img.com/restaurant/images/Rvw/122410/640x640_rect_122410470.jpg",
    "address": "香川県仲多度郡まんのう町川東1490",
    "rating": 3.85,
    "ratingCount": 1340,
    "lat": 34.11136968786913,
    "lng": 133.97636724258606,
    "year": 2024,
    "award": "2024 ・ 百名店 うどん 香川",
    "genre": "うどん"
  },
  {
    "rank": 87,
    "id": "37001023",
    "name": "手打うどん 風月",
    "url": "https://tabelog.com/kagawa/A3701/A370101/37001023/",
    "image": "https://tblg.k-img.com/restaurant/images/Rvw/77124/640x640_rect_34fb1bd20c6a79a6cfda45230c9c5081.jpg",
    "address": "香川県高松市紺屋町4-13 中井ビル１F",
    "rating": 3.74,
    "ratingCount": 701,
    "lat": 34.34488797101364,
    "lng": 134.0474591271397,
    "year": 2024,
    "award": "2024 ・ 百名店 うどん 香川",
    "genre": "うどん"
  },
  {
    "rank": 88,
    "id": "37005702",
    "name": "やなぎ屋 西大浜店",
    "url": "https://tabelog.com/kagawa/A3702/A370201/37005702/",
    "image": "https://tblg.k-img.com/restaurant/images/Rvw/360857/640x640_rect_771712face8c9910ace2be421ea343c5.jpg",
    "address": "香川県坂出市西大浜北2-48-22",
    "rating": 3.71,
    "ratingCount": 524,
    "lat": 34.322144447692814,
    "lng": 133.8430858548085,
    "year": 2024,
    "award": "2024 ・ 百名店 うどん 香川",
    "genre": "うどん"
  },
  {
    "rank": 89,
    "id": "37008415",
    "name": "山とも",
    "url": "https://tabelog.com/kagawa/A3702/A370202/37008415/",
    "image": "https://tblg.k-img.com/restaurant/images/Rvw/361222/640x640_rect_0b48ba23b41932b71f205f402ba4b294.jpg",
    "address": "香川県丸亀市土器町東9-194",
    "rating": 3.71,
    "ratingCount": 295,
    "lat": 34.29864020769739,
    "lng": 133.81056768459388,
    "year": 2024,
    "award": "2024 ・ 百名店 うどん 香川",
    "genre": "うどん"
  },
  {
    "rank": 90,
    "id": "37000240",
    "name": "白川うどん",
    "url": "https://tabelog.com/kagawa/A3703/A370302/37000240/",
    "image": "https://tblg.k-img.com/restaurant/images/Rvw/7226/320x320_rect_6bd8c030dfc20d913aa4e18336297583.jpg",
    "address": "香川県善通寺市櫛梨町500-1",
    "rating": 3.73,
    "ratingCount": 430,
    "lat": 34.224382237741956,
    "lng": 133.8024321938495,
    "year": 2024,
    "award": "2024 ・ 百名店 うどん 香川",
    "genre": "うどん"
  },
  {
    "rank": 91,
    "id": "37001209",
    "name": "うどん 一福",
    "url": "https://tabelog.com/kagawa/A3701/A370101/37001209/",
    "image": "https://tblg.k-img.com/restaurant/images/Rvw/310734/640x640_rect_eb249a971f2f46c98b3d4354e5680ba5.jpg",
    "address": "香川県高松市国分寺町新居169-1",
    "rating": 3.79,
    "ratingCount": 1402,
    "lat": 34.30804390774388,
    "lng": 133.97532716457337,
    "year": 2024,
    "award": "2024 ・ 百名店 うどん 香川",
    "genre": "うどん"
  },
  {
    "rank": 92,
    "id": "37000068",
    "name": "なかむら",
    "url": "https://tabelog.com/kagawa/A3702/A370202/37000068/",
    "image": "https://tblg.k-img.com/restaurant/images/Rvw/259907/640x640_rect_0831a5a43ca664a73c418405fcef7c55.jpg",
    "address": "香川県丸亀市飯山町西坂元1373-3",
    "rating": 3.77,
    "ratingCount": 1131,
    "lat": 34.26045168772967,
    "lng": 133.83576063419048,
    "year": 2024,
    "award": "2024 ・ 百名店 うどん 香川",
    "genre": "うどん"
  },
  {
    "rank": 93,
    "id": "37000048",
    "name": "讃岐うどん 上原屋本店",
    "url": "https://tabelog.com/kagawa/A3701/A370101/37000048/",
    "image": "https://tblg.k-img.com/restaurant/images/Rvw/215878/640x640_rect_9c6431f10c37b74f6e2008e0ba77ee35.jpg",
    "address": "香川県高松市栗林町1-18-8",
    "rating": 3.78,
    "ratingCount": 1339,
    "lat": 34.32712643775408,
    "lng": 134.045393614717,
    "year": 2024,
    "award": "2024 ・ 百名店 うどん 香川",
    "genre": "うどん"
  },
  {
    "rank": 94,
    "id": "37000049",
    "name": "手打うどん はりや",
    "url": "https://tabelog.com/kagawa/A3701/A370101/37000049/",
    "image": "https://tblg.k-img.com/restaurant/images/Rvw/159913/640x640_rect_159913453.jpg",
    "address": "香川県高松市郷東町587-174",
    "rating": 3.82,
    "ratingCount": 583,
    "lat": 34.34936294773032,
    "lng": 134.0151588849628,
    "year": 2024,
    "award": "2024 ・ 百名店 うどん 香川",
    "genre": "うどん"
  },
  {
    "rank": 95,
    "id": "37000564",
    "name": "手打ちうどん 上田",
    "url": "https://tabelog.com/kagawa/A3701/A370101/37000564/",
    "image": "https://tblg.k-img.com/restaurant/images/Rvw/310732/640x640_rect_133c8554bb734ad3d3c65e72c1faadaf.jpg",
    "address": "香川県高松市太田上町763-3",
    "rating": 3.72,
    "ratingCount": 285,
    "lat": 34.29999927386435,
    "lng": 134.04624110051444,
    "year": 2024,
    "award": "2024 ・ 百名店 うどん 香川",
    "genre": "うどん"
  },
  {
    "rank": 96,
    "id": "37000100",
    "name": "手打うどん　源内",
    "url": "https://tabelog.com/kagawa/A3704/A370401/37000100/",
    "image": "https://tblg.k-img.com/restaurant/images/Rvw/53747/640x640_rect_53747179.jpg",
    "address": "香川県さぬき市志度1597-10",
    "rating": 3.69,
    "ratingCount": 467,
    "lat": 34.321406077805555,
    "lng": 134.19562953455392,
    "year": 2024,
    "award": "2024 ・ 百名店 うどん 香川",
    "genre": "うどん"
  },
  {
    "rank": 97,
    "id": "37000141",
    "name": "岡製麺所",
    "url": "https://tabelog.com/kagawa/A3702/A370202/37000141/",
    "image": "https://tblg.k-img.com/restaurant/images/Rvw/359065/640x640_rect_7394d9ca6c9c410f1b86ccb501408d81.jpg",
    "address": "香川県綾歌郡綾川町山田上甲1949-8",
    "rating": 3.69,
    "ratingCount": 213,
    "lat": 34.21483864780344,
    "lng": 133.97644064363112,
    "year": 2024,
    "award": "2024 ・ 百名店 うどん 香川",
    "genre": "うどん"
  },
  {
    "rank": 98,
    "id": "37006622",
    "name": "カマ喜ri",
    "url": "https://tabelog.com/kagawa/A3703/A370301/37006622/",
    "image": "https://tblg.k-img.com/restaurant/images/Rvw/255101/640x640_rect_19be3509947e3024322d34a656f94d1d.jpg",
    "address": "香川県観音寺市柞田町甲46-3",
    "rating": 3.82,
    "ratingCount": 629,
    "lat": 34.11275437883594,
    "lng": 133.67665866548913,
    "year": 2024,
    "award": "2024 ・ 百名店 うどん 香川",
    "genre": "うどん"
  },
  {
    "rank": 99,
    "id": "37004606",
    "name": "純手打うどん よしや",
    "url": "https://tabelog.com/kagawa/A3702/A370202/37004606/",
    "image": "https://tblg.k-img.com/restaurant/images/Rvw/343987/640x640_rect_33a60b8d202463cee7224fdd2f7ef418.jpg",
    "address": "香川県丸亀市飯野町東二343-1",
    "rating": 3.8,
    "ratingCount": 1400,
    "lat": 34.26575215772721,
    "lng": 133.838623524242,
    "year": 2024,
    "award": "2024 ・ 百名店 うどん 香川",
    "genre": "うどん"
  },
  {
    "rank": 100,
    "id": "37000051",
    "name": "竹清 本店",
    "url": "https://tabelog.com/kagawa/A3701/A370101/37000051/",
    "image": "https://tblg.k-img.com/restaurant/images/Rvw/4779/640x640_rect_4779944.jpg",
    "address": "香川県高松市亀岡町2-23",
    "rating": 3.64,
    "ratingCount": 1225,
    "lat": 34.33811863694075,
    "lng": 134.04231687366843,
    "year": 2024,
    "award": "2024 ・ 百名店 うどん 香川",
    "genre": "うどん"
  }
]