[
  {
    "rank": 1,
    "id": "27145022",
    "name": "瀧川",
    "url": "https://tabelog.com/osaka/A2701/A270101/27145022/",
    "image": "https://tblg.k-img.com/restaurant/images/Rvw/335675/640x640_rect_6447d174c1776b809e52ffed77702c31.jpg",
    "address": "大阪府大阪市北区西天満4-7-7 サン・システム西天満ガストロプラザ 6F",
    "rating": 4.09,
    "ratingCount": 46,
    "lat": 34.69663313798387,
    "lng": 135.50385307742704,
    "year": 2025,
    "award": "2025 ・ 百名店 焼肉 西日本",
    "genre": "焼肉"
  },
  {
    "rank": 2,
    "id": "47001010",
    "name": "炭火焼肉 やまもと",
    "url": "https://tabelog.com/okinawa/A4705/A470501/47001010/",
    "image": "https://tblg.k-img.com/restaurant/images/Rvw/133364/640x640_rect_133364720.jpg",
    "address": "沖縄県石垣市浜崎町2-5-18",
    "rating": 3.63,
    "ratingCount": 1040,
    "lat": 24.341495110944727,
    "lng": 124.14975867078944,
    "year": 2025,
    "award": "2025 ・ 百名店 焼肉 西日本",
    "genre": "焼肉"
  },
  {
    "rank": 3,
    "id": "47000337",
    "name": "満味",
    "url": "https://tabelog.com/okinawa/A4702/A470201/47000337/",
    "image": "https://tblg.k-img.com/restaurant/images/Rvw/323990/640x640_rect_3ef233ec6ed37696261df8cf7c49bd27.jpg",
    "address": "沖縄県名護市伊差川251番地",
    "rating": 3.65,
    "ratingCount": 417,
    "lat": 26.605556546338125,
    "lng": 128.00088873822813,
    "year": 2025,
    "award": "2025 ・ 百名店 焼肉 西日本",
    "genre": "焼肉"
  },
  {
    "rank": 5,
    "id": "28048060",
    "name": "肉料理　樹",
    "url": "https://tabelog.com/hyogo/A2804/A280404/28048060/",
    "image": "https://tblg.k-img.com/restaurant/images/Rvw/62152/320x320_rect_62152804.jpg",
    "address": "兵庫県西脇市高田井町322-1",
    "rating": 3.78,
    "ratingCount": 125,
    "lat": 34.99088233681965,
    "lng": 134.96389617961594,
    "year": 2025,
    "award": "2025 ・ 百名店 焼肉 西日本",
    "genre": "焼肉"
  },
  {
    "rank": 6,
    "id": "27079111",
    "name": "つねちゃん",
    "url": "https://tabelog.com/osaka/A2705/A270501/27079111/",
    "image": "https://tblg.k-img.com/restaurant/images/Rvw/278120/640x640_rect_f507540788aaddb796693b8f5da90dcf.jpg",
    "address": "大阪府堺市堺区御陵通4-7 和伸ビル 1F",
    "rating": 4.19,
    "ratingCount": 263,
    "lat": 34.565469286178924,
    "lng": 135.47347554065786,
    "year": 2025,
    "award": "2025 ・ 百名店 焼肉 西日本",
    "genre": "焼肉"
  },
  {
    "rank": 7,
    "id": "27094644",
    "name": "焼肉 どて",
    "url": "https://tabelog.com/osaka/A2701/A270103/27094644/",
    "image": "https://tblg.k-img.com/restaurant/images/Rvw/57992/640x640_rect_57992214.jpg",
    "address": "大阪府大阪市北区西天満5-10-3 瀧本ビル 1F",
    "rating": 3.62,
    "ratingCount": 241,
    "lat": 34.69845620798381,
    "lng": 135.50728726744302,
    "year": 2025,
    "award": "2025 ・ 百名店 焼肉 西日本",
    "genre": "焼肉"
  },
  {
    "rank": 8,
    "id": "34003287",
    "name": "ホルモン料理専門處 利根屋",
    "url": "https://tabelog.com/hiroshima/A3401/A340110/34003287/",
    "image": "https://tblg.k-img.com/restaurant/images/Rvw/172261/640x640_rect_1d0b3fe755dad44e7e90d9780525e3ce.jpg",
    "address": "広島県広島市中区銀山町15-1",
    "rating": 3.65,
    "ratingCount": 363,
    "lat": 34.390638597211264,
    "lng": 132.46758188646453,
    "year": 2025,
    "award": "2025 ・ 百名店 焼肉 西日本",
    "genre": "焼肉"
  },
  {
    "rank": 9,
    "id": "27119987",
    "name": "京洛焼肉 ぽめ",
    "url": "https://tabelog.com/osaka/A2701/A270201/27119987/",
    "image": "https://tblg.k-img.com/restaurant/images/Rvw/281009/640x640_rect_dd0baf96c6e7d5f280eade526935611b.jpg",
    "address": "大阪府大阪市中央区東心斎橋2-1-25 大優ビル 1F",
    "rating": 4.08,
    "ratingCount": 546,
    "lat": 34.67182803719477,
    "lng": 135.50549317601357,
    "year": 2025,
    "award": "2025 ・ 百名店 焼肉 西日本",
    "genre": "焼肉"
  },
  {
    "rank": 10,
    "id": "45003654",
    "name": "ビーフクックくらぞの",
    "url": "https://tabelog.com/miyazaki/A4503/A450304/45003654/",
    "image": "https://tblg.k-img.com/restaurant/images/Rvw/229064/640x640_rect_587e6d56c7f29522458da743426b3e3b.jpg",
    "address": "宮崎県小林市北西方4047-1",
    "rating": 3.71,
    "ratingCount": 90,
    "lat": 32.02305012823947,
    "lng": 130.9745106035963,
    "year": 2025,
    "award": "2025 ・ 百名店 焼肉 西日本",
    "genre": "焼肉"
  },
  {
    "rank": 11,
    "id": "27011178",
    "name": "板前焼肉 一斗 天下茶屋本店",
    "url": "https://tabelog.com/osaka/A2701/A270406/27011178/",
    "image": "https://tblg.k-img.com/restaurant/images/Rvw/74618/640x640_rect_74618401.jpg",
    "address": "大阪府大阪市西成区天下茶屋東1-23-18",
    "rating": 3.66,
    "ratingCount": 457,
    "lat": 34.64229846801787,
    "lng": 135.50223074687935,
    "year": 2025,
    "award": "2025 ・ 百名店 焼肉 西日本",
    "genre": "焼肉"
  },
  {
    "rank": 12,
    "id": "27023459",
    "name": "焼肉 かっぱ梶岡",
    "url": "https://tabelog.com/osaka/A2706/A270601/27023459/",
    "image": "https://tblg.k-img.com/restaurant/images/Rvw/342440/640x640_rect_7ee7e6fb272ddd75825c366d07657357.jpg",
    "address": "大阪府豊中市豊南町東3-5-23",
    "rating": 3.76,
    "ratingCount": 286,
    "lat": 34.74947446794415,
    "lng": 135.48449475797432,
    "year": 2025,
    "award": "2025 ・ 百名店 焼肉 西日本",
    "genre": "焼肉"
  },
  {
    "rank": 13,
    "id": "28042651",
    "name": "オカダ食品株式会社",
    "url": "https://tabelog.com/hyogo/A2801/A280102/28042651/",
    "image": "https://tblg.k-img.com/restaurant/images/Rvw/241335/640x640_rect_7d2d57f3649953972976f00be0a00894.jpg",
    "address": "兵庫県神戸市中央区楠町1-3-10 2F",
    "rating": 3.64,
    "ratingCount": 251,
    "lat": 34.68470136160664,
    "lng": 135.1774121390306,
    "year": 2025,
    "award": "2025 ・ 百名店 焼肉 西日本",
    "genre": "焼肉"
  },
  {
    "rank": 14,
    "id": "28001406",
    "name": "味楽園",
    "url": "https://tabelog.com/hyogo/A2803/A280304/28001406/",
    "image": "https://tblg.k-img.com/restaurant/images/Rvw/3160/640x640_rect_3160296.jpg",
    "address": "兵庫県尼崎市南竹谷町2-1",
    "rating": 3.64,
    "ratingCount": 461,
    "lat": 34.717513967939176,
    "lng": 135.40516986770712,
    "year": 2025,
    "award": "2025 ・ 百名店 焼肉 西日本",
    "genre": "焼肉"
  },
  {
    "rank": 15,
    "id": "27142133",
    "name": "焼肉・ホルモン 踊ル",
    "url": "https://tabelog.com/osaka/A2701/A270107/27142133/",
    "image": "https://tblg.k-img.com/restaurant/images/Rvw/353598/640x640_rect_e7b5f430bd8509f727c17ead8dfc358e.jpg",
    "address": "大阪府大阪市都島区片町2-5-7 ロッソ京橋 2F",
    "rating": 3.72,
    "ratingCount": 225,
    "lat": 34.696540557992854,
    "lng": 135.53188447740644,
    "year": 2025,
    "award": "2025 ・ 百名店 焼肉 西日本",
    "genre": "焼肉"
  },
  {
    "rank": 16,
    "id": "40001664",
    "name": "大東園 本店",
    "url": "https://tabelog.com/fukuoka/A4001/A400101/40001664/",
    "image": "https://tblg.k-img.com/restaurant/images/Rvw/319191/320x320_rect_5969affd40d735bad8776253513f08d5.jpg",
    "address": "福岡県福岡市博多区上川端町1-1-1",
    "rating": 3.65,
    "ratingCount": 767,
    "lat": 33.592779636257816,
    "lng": 130.41144486868495,
    "year": 2025,
    "award": "2025 ・ 百名店 焼肉 西日本",
    "genre": "焼肉"
  },
  {
    "rank": 17,
    "id": "27057397",
    "name": "Matasaburo",
    "url": "https://tabelog.com/osaka/A2701/A270404/27057397/",
    "image": "https://tblg.k-img.com/restaurant/images/Rvw/153010/640x640_rect_153010225.jpg",
    "address": "大阪府大阪市住吉区長居2-13-13 R HOTEL RE. OSAKA NAGAI PARK 1F",
    "rating": 3.84,
    "ratingCount": 689,
    "lat": 34.612175618040396,
    "lng": 135.51291569656755,
    "year": 2025,
    "award": "2025 ・ 百名店 焼肉 西日本",
    "genre": "焼肉"
  },
  {
    "rank": 18,
    "id": "46007597",
    "name": "地鶏の里 永楽荘",
    "url": "https://tabelog.com/kagoshima/A4603/A460301/46007597/",
    "image": "https://tblg.k-img.com/restaurant/images/Rvw/273954/640x640_rect_ca321dcac0d883f18e7bc311f3fb4712.jpg",
    "address": "鹿児島県霧島市隼人町松永3766",
    "rating": 3.73,
    "ratingCount": 498,
    "lat": 31.784565837516837,
    "lng": 130.75870345017688,
    "year": 2025,
    "award": "2025 ・ 百名店 焼肉 西日本",
    "genre": "焼肉"
  },
  {
    "rank": 19,
    "id": "29010073",
    "name": "焼肉 三日月",
    "url": "https://tabelog.com/nara/A2903/A290302/29010073/",
    "image": "https://tblg.k-img.com/restaurant/images/Rvw/282821/640x640_rect_25f650d024890396e1585acb97eb2cda.jpg",
    "address": "奈良県橿原市縄手町31-1 綿松第2ビル1F",
    "rating": 3.76,
    "ratingCount": 375,
    "lat": 34.50545113739456,
    "lng": 135.80099087412583,
    "year": 2025,
    "award": "2025 ・ 百名店 焼肉 西日本",
    "genre": "焼肉"
  },
  {
    "rank": 20,
    "id": "27001305",
    "name": "肉匠なか田 本店",
    "url": "https://tabelog.com/osaka/A2701/A270202/27001305/",
    "image": "https://tblg.k-img.com/restaurant/images/Rvw/331964/640x640_rect_ad88b939eb3b15154f36bd528168406b.jpg",
    "address": "大阪府大阪市中央区難波1-7-16 現代こいさんビル 5F",
    "rating": 3.69,
    "ratingCount": 444,
    "lat": 34.6680936371957,
    "lng": 135.500966475979,
    "year": 2025,
    "award": "2025 ・ 百名店 焼肉 西日本",
    "genre": "焼肉"
  },
  {
    "rank": 21,
    "id": "28035865",
    "name": "炭焼塩ホルモン『あ』神戸酒場",
    "url": "https://tabelog.com/hyogo/A2801/A280101/28035865/",
    "image": "https://tblg.k-img.com/restaurant/images/Rvw/315274/640x640_rect_b7756b4013ba48f192f68eb3ee470a1a.jpg",
    "address": "兵庫県神戸市中央区下山手通1-3-12 ゼウスタウンビル 1F",
    "rating": 3.84,
    "ratingCount": 243,
    "lat": 34.69411003708059,
    "lng": 135.19140837645875,
    "year": 2025,
    "award": "2025 ・ 百名店 焼肉 西日本",
    "genre": "焼肉"
  },
  {
    "rank": 22,
    "id": "27145528",
    "name": "배고파 ",
    "url": "https://tabelog.com/osaka/A2701/A270201/27145528/",
    "image": "https://tblg.k-img.com/restaurant/images/Rvw/315601/640x640_rect_fba8c6b88e6b0d10e857ef6739a85f02.jpg",
    "address": "大阪府大阪市西区北堀江1-2-16",
    "rating": 3.76,
    "ratingCount": 144,
    "lat": 34.67270162841401,
    "lng": 135.49707333783905,
    "year": 2025,
    "award": "2025 ・ 百名店 焼肉 西日本",
    "genre": "焼肉"
  },
  {
    "rank": 23,
    "id": "27023411",
    "name": "焼肉かつらぎ",
    "url": "https://tabelog.com/osaka/A2705/A270501/27023411/",
    "image": "https://tblg.k-img.com/restaurant/images/Rvw/339635/640x640_rect_48010d7530c0d7c1abcf8f16f2819767.jpg",
    "address": "大阪府堺市北区北長尾町1丁7-14",
    "rating": 3.75,
    "ratingCount": 538,
    "lat": 34.576904037253065,
    "lng": 135.49922547505912,
    "year": 2025,
    "award": "2025 ・ 百名店 焼肉 西日本",
    "genre": "焼肉"
  },
  {
    "rank": 24,
    "id": "26036373",
    "name": "りきちゃん 祇園店",
    "url": "https://tabelog.com/kyoto/A2601/A260301/26036373/",
    "image": "https://tblg.k-img.com/restaurant/images/Rvw/167743/640x640_rect_b137226444cb5b4a884f200e8c7b7d36.jpg",
    "address": "京都府京都市東山区祇園町南側572-10",
    "rating": 3.64,
    "ratingCount": 229,
    "lat": 35.003485737069816,
    "lng": 135.774536879175,
    "year": 2025,
    "award": "2025 ・ 百名店 焼肉 西日本",
    "genre": "焼肉"
  },
  {
    "rank": 25,
    "id": "28002221",
    "name": "やきにく ポッサムチプ",
    "url": "https://tabelog.com/hyogo/A2801/A280109/28002221/",
    "image": "https://tblg.k-img.com/restaurant/images/Rvw/291724/640x640_rect_7850015a9cd4eecda6d682e1b6db46eb.jpg",
    "address": "兵庫県神戸市兵庫区駅南通1-2-20",
    "rating": 3.66,
    "ratingCount": 337,
    "lat": 34.66661293708937,
    "lng": 135.16411727620016,
    "year": 2025,
    "award": "2025 ・ 百名店 焼肉 西日本",
    "genre": "焼肉"
  },
  {
    "rank": 26,
    "id": "47027432",
    "name": "虎壱精肉店",
    "url": "https://tabelog.com/okinawa/A4705/A470501/47027432/",
    "image": "https://tblg.k-img.com/restaurant/images/Rvw/348755/640x640_rect_0409668e9e5bcd5a72a8d6fc0bd365d9.jpg",
    "address": "沖縄県石垣市真栄里204-68",
    "rating": 3.67,
    "ratingCount": 366,
    "lat": 24.332743870957454,
    "lng": 124.17226440068528,
    "year": 2025,
    "award": "2025 ・ 百名店 焼肉 西日本",
    "genre": "焼肉"
  },
  {
    "rank": 27,
    "id": "27006074",
    "name": "さつま",
    "url": "https://tabelog.com/osaka/A2701/A270101/27006074/",
    "image": "https://tblg.k-img.com/restaurant/images/Rvw/293920/640x640_rect_1eb1a59dc7288c89d52e4dff4b504722.jpg",
    "address": "大阪府大阪市北区堂島1丁目1-21 GOTS北新地ビル３号館 1階",
    "rating": 3.73,
    "ratingCount": 846,
    "lat": 34.69640953717753,
    "lng": 135.50036897626546,
    "year": 2025,
    "award": "2025 ・ 百名店 焼肉 西日本",
    "genre": "焼肉"
  },
  {
    "rank": 28,
    "id": "18000442",
    "name": "韓国厨房セナラ",
    "url": "https://tabelog.com/fukui/A1801/A180101/18000442/",
    "image": "https://tblg.k-img.com/restaurant/images/Rvw/324096/640x640_rect_853ef9b1962210ae5a108cb0ae45ac26.jpg",
    "address": "福井県福井市開発3丁目2509",
    "rating": 3.73,
    "ratingCount": 165,
    "lat": 36.081958736534425,
    "lng": 136.24423528973935,
    "year": 2025,
    "award": "2025 ・ 百名店 焼肉 西日本",
    "genre": "焼肉"
  },
  {
    "rank": 29,
    "id": "27023069",
    "name": "宗寿苑",
    "url": "https://tabelog.com/osaka/A2701/A270401/27023069/",
    "image": "https://tblg.k-img.com/restaurant/images/Rvw/271789/640x640_rect_907b94b0011a401521ed09bd05a4bc54.jpg",
    "address": "大阪府大阪市此花区酉島1-14-17 光マンション 1F",
    "rating": 3.7,
    "ratingCount": 247,
    "lat": 34.68469823716672,
    "lng": 135.44306927618732,
    "year": 2025,
    "award": "2025 ・ 百名店 焼肉 西日本",
    "genre": "焼肉"
  },
  {
    "rank": 30,
    "id": "26035839",
    "name": "焼肉やまちゃん",
    "url": "https://tabelog.com/kyoto/A2601/A260201/26035839/",
    "image": "https://tblg.k-img.com/restaurant/images/Rvw/188270/640x640_rect_5b9fee930f59ce57e84316f176f685a1.jpg",
    "address": "京都府京都市中京区蛸屋町157-11",
    "rating": 3.79,
    "ratingCount": 211,
    "lat": 35.006114937065455,
    "lng": 135.76606907920748,
    "year": 2025,
    "award": "2025 ・ 百名店 焼肉 西日本",
    "genre": "焼肉"
  },
  {
    "rank": 31,
    "id": "40000044",
    "name": "泰元 本館",
    "url": "https://tabelog.com/fukuoka/A4001/A400104/40000044/",
    "image": "https://tblg.k-img.com/restaurant/images/Rvw/351146/640x640_rect_6f964ad6647a2f45660cae37c20177bb.jpg",
    "address": "福岡県福岡市中央区舞鶴3-1-8",
    "rating": 3.68,
    "ratingCount": 233,
    "lat": 33.59024171705776,
    "lng": 130.38932860983658,
    "year": 2025,
    "award": "2025 ・ 百名店 焼肉 西日本",
    "genre": "焼肉"
  },
  {
    "rank": 32,
    "id": "26028368",
    "name": "焼肉矢澤 京都",
    "url": "https://tabelog.com/kyoto/A2601/A260201/26028368/",
    "image": "https://tblg.k-img.com/restaurant/images/Rvw/220696/640x640_rect_feadd5068430d8a0a08fd363afdb8c59.jpg",
    "address": "京都府京都市下京区神明町243 雅綾小路ビル 1F",
    "rating": 3.73,
    "ratingCount": 418,
    "lat": 35.0023267599441,
    "lng": 135.7616509384506,
    "year": 2025,
    "award": "2025 ・ 百名店 焼肉 西日本",
    "genre": "焼肉"
  },
  {
    "rank": 33,
    "id": "31001933",
    "name": "まつやホルモン店",
    "url": "https://tabelog.com/tottori/A3101/A310101/31001933/",
    "image": "https://tblg.k-img.com/restaurant/images/Rvw/140865/640x640_rect_140865031.jpg",
    "address": "鳥取県鳥取市吉方温泉4-432",
    "rating": 3.7,
    "ratingCount": 352,
    "lat": 35.49107689707626,
    "lng": 134.2382775763388,
    "year": 2025,
    "award": "2025 ・ 百名店 焼肉 西日本",
    "genre": "焼肉"
  },
  {
    "rank": 34,
    "id": "24001944",
    "name": "焼肉 八廣",
    "url": "https://tabelog.com/mie/A2401/A240101/24001944/",
    "image": "https://tblg.k-img.com/restaurant/images/Rvw/281764/640x640_rect_984660ad1ec081cc9587fdd76a3d8849.jpg",
    "address": "三重県津市久居野村町571-15",
    "rating": 3.74,
    "ratingCount": 268,
    "lat": 34.67580601831088,
    "lng": 136.489139886526,
    "year": 2025,
    "award": "2025 ・ 百名店 焼肉 西日本",
    "genre": "焼肉"
  },
  {
    "rank": 35,
    "id": "28066225",
    "name": "焼肉ホルモン こぷ",
    "url": "https://tabelog.com/hyogo/A2801/A280101/28066225/",
    "image": "https://tblg.k-img.com/restaurant/images/Rvw/363138/640x640_rect_6934e58833cba5a7191e5a60dd4e01f9.jpg",
    "address": "兵庫県神戸市中央区北長狭通1-20-13 キングストンビル 4F",
    "rating": 3.65,
    "ratingCount": 187,
    "lat": 34.694552999766756,
    "lng": 135.19277809104716,
    "year": 2025,
    "award": "2025 ・ 百名店 焼肉 西日本",
    "genre": "焼肉"
  },
  {
    "rank": 36,
    "id": "27052134",
    "name": "生ホルモン処 おさむちゃん。",
    "url": "https://tabelog.com/osaka/A2705/A270501/27052134/",
    "image": "https://tblg.k-img.com/restaurant/images/Rvw/120937/640x640_rect_120937045.jpg",
    "address": "大阪府堺市西区鳳北町8-33-4",
    "rating": 4.2,
    "ratingCount": 316,
    "lat": 34.54218529806768,
    "lng": 135.4590078158984,
    "year": 2025,
    "award": "2025 ・ 百名店 焼肉 西日本",
    "genre": "焼肉"
  },
  {
    "rank": 37,
    "id": "40009760",
    "name": "焼肉のMr.青木",
    "url": "https://tabelog.com/fukuoka/A4007/A400702/40009760/",
    "image": "https://tblg.k-img.com/restaurant/images/Rvw/348015/640x640_rect_40d5f3ed98c1274d683733aeaa429d1f.jpg",
    "address": "福岡県飯塚市鶴三緒一本木1117-1",
    "rating": 4.08,
    "ratingCount": 336,
    "lat": 33.626101777134515,
    "lng": 130.70189146997973,
    "year": 2025,
    "award": "2025 ・ 百名店 焼肉 西日本",
    "genre": "焼肉"
  },
  {
    "rank": 38,
    "id": "29013800",
    "name": "きみや ",
    "url": "https://tabelog.com/nara/A2901/A290102/29013800/",
    "image": "https://tblg.k-img.com/restaurant/images/Rvw/344529/640x640_rect_50341a2a3d227956828e1482e65b2452.jpg",
    "address": "奈良県生駒市鹿畑町64-1",
    "rating": 4.01,
    "ratingCount": 202,
    "lat": 34.72926805002517,
    "lng": 135.74669182002293,
    "year": 2025,
    "award": "2025 ・ 百名店 焼肉 西日本",
    "genre": "焼肉"
  },
  {
    "rank": 39,
    "id": "27135008",
    "name": "焼肉三日月 天神橋店",
    "url": "https://tabelog.com/osaka/A2701/A270103/27135008/",
    "image": "https://tblg.k-img.com/restaurant/images/Rvw/271992/640x640_rect_e4045fc47e7868b6237d5c0fbe2d0a5c.jpg",
    "address": "大阪府大阪市北区天神橋3-5-14 六箱横丁",
    "rating": 3.75,
    "ratingCount": 316,
    "lat": 34.70076033797432,
    "lng": 135.51169814831653,
    "year": 2025,
    "award": "2025 ・ 百名店 焼肉 西日本",
    "genre": "焼肉"
  },
  {
    "rank": 40,
    "id": "27144498",
    "name": "焼肉藤もと 梅田お初天神店",
    "url": "https://tabelog.com/osaka/A2701/A270101/27144498/",
    "image": "https://tblg.k-img.com/restaurant/images/Rvw/262751/640x640_rect_780f176c38e3ddad684f741c7387f778.jpg",
    "address": "大阪府大阪市北区曽根崎2-8-9 八幸ビル 1F",
    "rating": 3.59,
    "ratingCount": 455,
    "lat": 34.69968207555038,
    "lng": 135.50085180988222,
    "year": 2025,
    "award": "2025 ・ 百名店 焼肉 西日本",
    "genre": "焼肉"
  },
  {
    "rank": 41,
    "id": "24001878",
    "name": "焼肉 すっきゃねん",
    "url": "https://tabelog.com/mie/A2402/A240203/24001878/",
    "image": "https://tblg.k-img.com/restaurant/images/Rvw/359859/640x640_rect_c27579458d4d85aae9fbdfec111ed2df.jpg",
    "address": "三重県桑名市大福681",
    "rating": 3.87,
    "ratingCount": 249,
    "lat": 35.055280068135936,
    "lng": 136.69660779021362,
    "year": 2025,
    "award": "2025 ・ 百名店 焼肉 西日本",
    "genre": "焼肉"
  },
  {
    "rank": 42,
    "id": "27000791",
    "name": "安兵衛",
    "url": "https://tabelog.com/osaka/A2701/A270401/27000791/",
    "image": "https://tblg.k-img.com/restaurant/images/Rvw/198907/640x640_rect_3b39607a63c4afbb2e4aa4410e6b5548.jpg",
    "address": "大阪府大阪市此花区西九条3-11-18",
    "rating": 3.73,
    "ratingCount": 547,
    "lat": 34.68298523717537,
    "lng": 135.46683887615336,
    "year": 2025,
    "award": "2025 ・ 百名店 焼肉 西日本",
    "genre": "焼肉"
  },
  {
    "rank": 43,
    "id": "27034895",
    "name": "半蔵",
    "url": "https://tabelog.com/osaka/A2701/A270201/27034895/",
    "image": "https://tblg.k-img.com/restaurant/images/Rvw/165917/640x640_rect_f9506b5298f05daa540f6760e57ad79e.jpg",
    "address": "大阪府大阪市西区新町2-17-3",
    "rating": 3.68,
    "ratingCount": 126,
    "lat": 34.67732104799222,
    "lng": 135.49157492724055,
    "year": 2025,
    "award": "2025 ・ 百名店 焼肉 西日本",
    "genre": "焼肉"
  },
  {
    "rank": 44,
    "id": "40060764",
    "name": "焼肉ホルモン人生大ちゃん",
    "url": "https://tabelog.com/fukuoka/A4001/A400201/40060764/",
    "image": "https://tblg.k-img.com/restaurant/images/Rvw/178545/640x640_rect_0958ee75bb7bceaebaa7be04bc5c4790.jpg",
    "address": "福岡県福岡市東区馬出2-4-3",
    "rating": 3.64,
    "ratingCount": 176,
    "lat": 33.61073443624898,
    "lng": 130.41952576886064,
    "year": 2025,
    "award": "2025 ・ 百名店 焼肉 西日本",
    "genre": "焼肉"
  },
  {
    "rank": 45,
    "id": "26006491",
    "name": "肉料理 荒川",
    "url": "https://tabelog.com/kyoto/A2601/A260201/26006491/",
    "image": "https://tblg.k-img.com/restaurant/images/Rvw/350461/640x640_rect_55edad3b8443f3039f1600799df2b1ff.jpg",
    "address": "京都府京都市中京区西木屋町通四条上る紙屋町372-4",
    "rating": 3.78,
    "ratingCount": 298,
    "lat": 35.004620327873084,
    "lng": 135.77022238035124,
    "year": 2025,
    "award": "2025 ・ 百名店 焼肉 西日本",
    "genre": "焼肉"
  },
  {
    "rank": 46,
    "id": "27128492",
    "name": "焼肉ホルモン 万千",
    "url": "https://tabelog.com/osaka/A2701/A270201/27128492/",
    "image": "https://tblg.k-img.com/restaurant/images/Rvw/187687/640x640_rect_df4ef85e7b9dc8e2816bba44da837488.jpg",
    "address": "大阪府大阪市中央区島之内2-13-9 第一右田ビル 1F",
    "rating": 3.71,
    "ratingCount": 295,
    "lat": 34.67119527800108,
    "lng": 135.50716020716774,
    "year": 2025,
    "award": "2025 ・ 百名店 焼肉 西日本",
    "genre": "焼肉"
  },
  {
    "rank": 47,
    "id": "28028299",
    "name": "炭焼肉　石田屋。 Hanare",
    "url": "https://tabelog.com/hyogo/A2801/A280101/28028299/",
    "image": "https://tblg.k-img.com/restaurant/images/Rvw/26391/640x640_rect_26391888.jpg",
    "address": "兵庫県神戸市中央区北長狭通1-21-2 TAKAIビル 7F",
    "rating": 3.68,
    "ratingCount": 333,
    "lat": 34.69416853708091,
    "lng": 135.19251547645862,
    "year": 2025,
    "award": "2025 ・ 百名店 焼肉 西日本",
    "genre": "焼肉"
  },
  {
    "rank": 48,
    "id": "27003344",
    "name": "ソウル",
    "url": "https://tabelog.com/osaka/A2701/A270202/27003344/",
    "image": "https://tblg.k-img.com/restaurant/images/Rvw/48473/640x640_rect_48473978.jpg",
    "address": "大阪府大阪市浪速区元町2-7-24",
    "rating": 3.7,
    "ratingCount": 658,
    "lat": 34.66206074376104,
    "lng": 135.49638557962345,
    "year": 2025,
    "award": "2025 ・ 百名店 焼肉 西日本",
    "genre": "焼肉"
  },
  {
    "rank": 49,
    "id": "27135358",
    "name": "焼肉ホルモンうちだ",
    "url": "https://tabelog.com/osaka/A2701/A270101/27135358/",
    "image": "https://tblg.k-img.com/restaurant/images/Rvw/283263/640x640_rect_a24e99fe73ecb7215d12b3ec468b2fcd.jpg",
    "address": "大阪府大阪市北区堂山町17-3 イーグルビル 1F",
    "rating": 3.59,
    "ratingCount": 359,
    "lat": 34.70382623717343,
    "lng": 135.502275676339,
    "year": 2025,
    "award": "2025 ・ 百名店 焼肉 西日本",
    "genre": "焼肉"
  },
  {
    "rank": 50,
    "id": "27113560",
    "name": "奈良きみや 別邸 柘榴",
    "url": "https://tabelog.com/osaka/A2701/A270101/27113560/",
    "image": "https://tblg.k-img.com/restaurant/images/Rvw/155330/640x640_rect_155330883.jpg",
    "address": "大阪府大阪市北区西天満2-7-19 西宝ビル 1F",
    "rating": 3.79,
    "ratingCount": 366,
    "lat": 34.69631103717801,
    "lng": 135.50168897626352,
    "year": 2025,
    "award": "2025 ・ 百名店 焼肉 西日本",
    "genre": "焼肉"
  },
  {
    "rank": 51,
    "id": "27145724",
    "name": "北新地 三日月",
    "url": "https://tabelog.com/osaka/A2701/A270101/27145724/",
    "image": "https://tblg.k-img.com/restaurant/images/Rvw/275768/640x640_rect_228ea918fae3613c69790f30ffa9d022.jpg",
    "address": "大阪府大阪市北区堂島1-3-31 堂島ビル 5F",
    "rating": 3.72,
    "ratingCount": 103,
    "lat": 34.69680102798193,
    "lng": 135.49808503743276,
    "year": 2025,
    "award": "2025 ・ 百名店 焼肉 西日本",
    "genre": "焼肉"
  },
  {
    "rank": 52,
    "id": "44000462",
    "name": "焼肉 一力",
    "url": "https://tabelog.com/oita/A4402/A440202/44000462/",
    "image": "https://tblg.k-img.com/restaurant/images/Rvw/359693/640x640_rect_f5cd7b0c50edb7aa2efec0de470ab4aa.jpg",
    "address": "大分県別府市駅前本町6-37",
    "rating": 3.65,
    "ratingCount": 429,
    "lat": 33.280118217609164,
    "lng": 131.5022966359239,
    "year": 2025,
    "award": "2025 ・ 百名店 焼肉 西日本",
    "genre": "焼肉"
  },
  {
    "rank": 53,
    "id": "27000564",
    "name": "空 鶴橋総本店",
    "url": "https://tabelog.com/osaka/A2701/A270205/27000564/",
    "image": "https://tblg.k-img.com/restaurant/images/Rvw/125611/640x640_rect_125611349.jpg",
    "address": "大阪府大阪市天王寺区下味原町1-10",
    "rating": 3.68,
    "ratingCount": 2498,
    "lat": 34.66566851801166,
    "lng": 135.52938183709634,
    "year": 2025,
    "award": "2025 ・ 百名店 焼肉 西日本",
    "genre": "焼肉"
  },
  {
    "rank": 54,
    "id": "26000080",
    "name": "アジェ 松原本店",
    "url": "https://tabelog.com/kyoto/A2601/A260201/26000080/",
    "image": "https://tblg.k-img.com/restaurant/images/Rvw/57767/640x640_rect_c6c9370d4a941174d528167d20726407.jpg",
    "address": "京都府京都市下京区西木屋町通松原上ル東側 美松会館　１Ｆ",
    "rating": 3.69,
    "ratingCount": 695,
    "lat": 34.99916869787593,
    "lng": 135.76826280029755,
    "year": 2025,
    "award": "2025 ・ 百名店 焼肉 西日本",
    "genre": "焼肉"
  },
  {
    "rank": 55,
    "id": "27120592",
    "name": "ホルモン 長岡",
    "url": "https://tabelog.com/osaka/A2701/A270103/27120592/",
    "image": "https://tblg.k-img.com/restaurant/images/Rvw/324003/640x640_rect_10cbd2c136aff56b10d55281c51eedd9.jpg",
    "address": "大阪府大阪市北区黒崎町1-2 2F",
    "rating": 3.63,
    "ratingCount": 294,
    "lat": 34.70647303717403,
    "lng": 135.50943147636073,
    "year": 2025,
    "award": "2025 ・ 百名店 焼肉 西日本",
    "genre": "焼肉"
  },
  {
    "rank": 56,
    "id": "27002139",
    "name": "大番",
    "url": "https://tabelog.com/osaka/A2701/A270101/27002139/",
    "image": "https://tblg.k-img.com/restaurant/images/Rvw/5952/640x640_rect_5952162.jpg",
    "address": "大阪府大阪市北区曽根崎新地1-5-4 スプレッドビル　１Ｆ",
    "rating": 3.68,
    "ratingCount": 278,
    "lat": 34.697748637175756,
    "lng": 135.49749087628095,
    "year": 2025,
    "award": "2025 ・ 百名店 焼肉 西日本",
    "genre": "焼肉"
  },
  {
    "rank": 57,
    "id": "27135559",
    "name": "焼肉 フトロ",
    "url": "https://tabelog.com/osaka/A2701/A270101/27135559/",
    "image": "https://tblg.k-img.com/restaurant/images/Rvw/350843/640x640_rect_edc244c34b9bfa680066846cd7d21a5b.jpg",
    "address": "大阪府大阪市北区曽根崎新地1-1-9 ZENビル 1F",
    "rating": 3.74,
    "ratingCount": 225,
    "lat": 34.696634297875704,
    "lng": 135.500163138337,
    "year": 2025,
    "award": "2025 ・ 百名店 焼肉 西日本",
    "genre": "焼肉"
  },
  {
    "rank": 58,
    "id": "29001942",
    "name": "焼肉八七",
    "url": "https://tabelog.com/nara/A2901/A290101/29001942/",
    "image": "https://tblg.k-img.com/restaurant/images/Rvw/4508/640x640_rect_4508642.jpg",
    "address": "奈良県奈良市横井1-713-1",
    "rating": 3.62,
    "ratingCount": 196,
    "lat": 34.65548293730945,
    "lng": 135.83295247561892,
    "year": 2025,
    "award": "2025 ・ 百名店 焼肉 西日本",
    "genre": "焼肉"
  },
  {
    "rank": 59,
    "id": "40005186",
    "name": "力飯店",
    "url": "https://tabelog.com/fukuoka/A4001/A400103/40005186/",
    "image": "https://tblg.k-img.com/restaurant/images/Rvw/24862/640x640_rect_24862651.jpg",
    "address": "福岡県福岡市中央区西中洲12-21",
    "rating": 3.68,
    "ratingCount": 222,
    "lat": 33.59120583625637,
    "lng": 130.4037989686744,
    "year": 2025,
    "award": "2025 ・ 百名店 焼肉 西日本",
    "genre": "焼肉"
  },
  {
    "rank": 60,
    "id": "27128792",
    "name": "くく はなれ",
    "url": "https://tabelog.com/osaka/A2705/A270501/27128792/",
    "image": "https://tblg.k-img.com/restaurant/images/Rvw/366233/640x640_rect_847a72ea7ba532a18db7b48799a10d05.jpg",
    "address": "大阪府-堺市堺区南三国ヶ丘町3-4-13 1F",
    "rating": 3.62,
    "ratingCount": 123,
    "lat": 34.57255223805826,
    "lng": 135.4899881761834,
    "year": 2025,
    "award": "2025 ・ 百名店 焼肉 西日本",
    "genre": "焼肉"
  },
  {
    "rank": 61,
    "id": "27000561",
    "name": "万正",
    "url": "https://tabelog.com/osaka/A2701/A270205/27000561/",
    "image": "https://tblg.k-img.com/restaurant/images/Rvw/121925/640x640_rect_121925015.jpg",
    "address": "大阪府大阪市生野区桃谷3-3-2",
    "rating": 3.75,
    "ratingCount": 891,
    "lat": 34.662023578016075,
    "lng": 135.53596980705493,
    "year": 2025,
    "award": "2025 ・ 百名店 焼肉 西日本",
    "genre": "焼肉"
  },
  {
    "rank": 62,
    "id": "27003798",
    "name": "同心亭",
    "url": "https://tabelog.com/osaka/A2701/A270304/27003798/",
    "image": "https://tblg.k-img.com/restaurant/images/Rvw/173357/640x640_rect_1eeb871feabcf626a3637adb83952e9c.jpg",
    "address": "大阪府大阪市北区同心2-15-25",
    "rating": 3.77,
    "ratingCount": 380,
    "lat": 34.70300708798409,
    "lng": 135.517262757482,
    "year": 2025,
    "award": "2025 ・ 百名店 焼肉 西日本",
    "genre": "焼肉"
  },
  {
    "rank": 63,
    "id": "27133700",
    "name": "黒毛和牛ヘレ肉専門店 炭火焼肉 りきちゃん 北浜店",
    "url": "https://tabelog.com/osaka/A2701/A270102/27133700/",
    "image": "https://tblg.k-img.com/restaurant/images/Rvw/203930/640x640_rect_87305bb16d16f5d1ae4a1d6322a810ce.jpg",
    "address": "大阪府大阪市中央区今橋1-7-19 北浜ビルディング B1F",
    "rating": 3.66,
    "ratingCount": 259,
    "lat": 34.69016833718362,
    "lng": 135.5070475761977,
    "year": 2025,
    "award": "2025 ・ 百名店 焼肉 西日本",
    "genre": "焼肉"
  },
  {
    "rank": 64,
    "id": "40002803",
    "name": "焼肉 多牛 駅南店",
    "url": "https://tabelog.com/fukuoka/A4001/A400101/40002803/",
    "image": "https://tblg.k-img.com/restaurant/images/Rvw/344271/640x640_rect_00cafb3eeaedc057d1541aea1aefef43.jpg",
    "address": "福岡県福岡市博多区博多駅南1-5-3 西園ビル　１Ｆ・２Ｆ",
    "rating": 3.67,
    "ratingCount": 404,
    "lat": 33.58565383626626,
    "lng": 130.42375436860434,
    "year": 2025,
    "award": "2025 ・ 百名店 焼肉 西日本",
    "genre": "焼肉"
  },
  {
    "rank": 65,
    "id": "43008422",
    "name": "焼肉すどう 熊本本店",
    "url": "https://tabelog.com/kumamoto/A4301/A430101/43008422/",
    "image": "https://tblg.k-img.com/restaurant/images/Rvw/144033/640x640_rect_144033947.jpg",
    "address": "熊本県熊本市中央区上通町4-10 トラヤビル 3F",
    "rating": 3.63,
    "ratingCount": 192,
    "lat": 32.804533836853686,
    "lng": 130.71049886051333,
    "year": 2025,
    "award": "2025 ・ 百名店 焼肉 西日本",
    "genre": "焼肉"
  },
  {
    "rank": 66,
    "id": "27002291",
    "name": "万両 南森町店",
    "url": "https://tabelog.com/osaka/A2701/A270103/27002291/",
    "image": "https://tblg.k-img.com/restaurant/images/Rvw/35738/640x640_rect_35738826.jpg",
    "address": "大阪府大阪市北区南森町1-2-14 ロイヤルハイツ　１Ｆ",
    "rating": 3.63,
    "ratingCount": 1532,
    "lat": 34.69630813718056,
    "lng": 135.5097016762579,
    "year": 2025,
    "award": "2025 ・ 百名店 焼肉 西日本",
    "genre": "焼肉"
  },
  {
    "rank": 67,
    "id": "27005087",
    "name": "多平",
    "url": "https://tabelog.com/osaka/A2701/A270202/27005087/",
    "image": "https://tblg.k-img.com/restaurant/images/Rvw/95914/640x640_rect_6e7bf5dc395eeecbc7ea335e858578ab.jpg",
    "address": "大阪府大阪市浪速区難波中1-15-3",
    "rating": 3.68,
    "ratingCount": 1108,
    "lat": 34.664145008003274,
    "lng": 135.4999847471016,
    "year": 2025,
    "award": "2025 ・ 百名店 焼肉 西日本",
    "genre": "焼肉"
  },
  {
    "rank": 68,
    "id": "27090232",
    "name": "京松蘭 本店",
    "url": "https://tabelog.com/osaka/A2701/A270107/27090232/",
    "image": "https://tblg.k-img.com/restaurant/images/Rvw/287375/640x640_rect_0aae95dd6450f67e7e44a1e4a60852bb.jpg",
    "address": "大阪府大阪市都島区片町2-11-22 京橋ROOBO 4F",
    "rating": 3.75,
    "ratingCount": 554,
    "lat": 34.695954437187496,
    "lng": 135.53078897623953,
    "year": 2025,
    "award": "2025 ・ 百名店 焼肉 西日本",
    "genre": "焼肉"
  },
  {
    "rank": 69,
    "id": "27023255",
    "name": "焼肉政ちゃん",
    "url": "https://tabelog.com/osaka/A2701/A270406/27023255/",
    "image": "https://tblg.k-img.com/restaurant/images/Rvw/208444/640x640_rect_28a5b222db869dfbc81fedad6c19714d.jpg",
    "address": "大阪府大阪市西成区鶴見橋3-8-21",
    "rating": 3.85,
    "ratingCount": 104,
    "lat": 34.64636563720497,
    "lng": 135.48670687576956,
    "year": 2025,
    "award": "2025 ・ 百名店 焼肉 西日本",
    "genre": "焼肉"
  },
  {
    "rank": 70,
    "id": "28005344",
    "name": "きらく",
    "url": "https://tabelog.com/hyogo/A2801/A280103/28005344/",
    "image": "https://tblg.k-img.com/restaurant/images/Rvw/333977/640x640_rect_7948f74fcfab0a9019a7f30a83bc2c07.jpg",
    "address": "兵庫県神戸市中央区吾妻通り5-4-5",
    "rating": 3.63,
    "ratingCount": 203,
    "lat": 34.69794215788734,
    "lng": 135.2033419676509,
    "year": 2025,
    "award": "2025 ・ 百名店 焼肉 西日本",
    "genre": "焼肉"
  },
  {
    "rank": 71,
    "id": "28000918",
    "name": "満月",
    "url": "https://tabelog.com/hyogo/A2801/A280102/28000918/",
    "image": "https://tblg.k-img.com/restaurant/images/Rvw/326448/640x640_rect_476995649872178c2415f8df23a36efb.jpg",
    "address": "兵庫県神戸市中央区下山手通8-7-3",
    "rating": 3.73,
    "ratingCount": 567,
    "lat": 34.68530720788769,
    "lng": 135.17925489754018,
    "year": 2025,
    "award": "2025 ・ 百名店 焼肉 西日本",
    "genre": "焼肉"
  },
  {
    "rank": 72,
    "id": "27011099",
    "name": "北新地やまがた屋",
    "url": "https://tabelog.com/osaka/A2701/A270101/27011099/",
    "image": "https://tblg.k-img.com/restaurant/images/Rvw/364754/640x640_rect_6bb8ca82a1b9b6e8ecb811786498a03a.jpg",
    "address": "大阪府大阪市北区堂島1-5-5 エスパス北新地25 3Ｆ",
    "rating": 3.77,
    "ratingCount": 180,
    "lat": 34.69599342367613,
    "lng": 135.49665831649352,
    "year": 2025,
    "award": "2025 ・ 百名店 焼肉 西日本",
    "genre": "焼肉"
  },
  {
    "rank": 73,
    "id": "27008433",
    "name": "和牛の紀楽",
    "url": "https://tabelog.com/osaka/A2701/A270104/27008433/",
    "image": "https://tblg.k-img.com/restaurant/images/Rvw/288663/640x640_rect_a815d7c5ac0ff106ad1ac410c971ddbf.jpg",
    "address": "大阪府大阪市北区天満2-12-7",
    "rating": 3.7,
    "ratingCount": 145,
    "lat": 34.694819537183854,
    "lng": 135.5170344762377,
    "year": 2025,
    "award": "2025 ・ 百名店 焼肉 西日本",
    "genre": "焼肉"
  },
  {
    "rank": 74,
    "id": "40000120",
    "name": "玄風館 千代店",
    "url": "https://tabelog.com/fukuoka/A4001/A400106/40000120/",
    "image": "https://tblg.k-img.com/restaurant/images/Rvw/53244/640x640_rect_53244218.jpg",
    "address": "福岡県福岡市博多区千代3-48-9",
    "rating": 3.67,
    "ratingCount": 304,
    "lat": 33.60460230705521,
    "lng": 130.40997195996718,
    "year": 2025,
    "award": "2025 ・ 百名店 焼肉 西日本",
    "genre": "焼肉"
  },
  {
    "rank": 75,
    "id": "27078442",
    "name": "飛牛",
    "url": "https://tabelog.com/osaka/A2701/A270101/27078442/",
    "image": "https://tblg.k-img.com/restaurant/images/Rvw/243160/640x640_rect_aa0af765dc5d84a6132269acf90e18e9.jpg",
    "address": "大阪府大阪市北区堂島1-1-20 パールプラザビル 5F",
    "rating": 3.7,
    "ratingCount": 130,
    "lat": 34.696383017982825,
    "lng": 135.50008773742715,
    "year": 2025,
    "award": "2025 ・ 百名店 焼肉 西日本",
    "genre": "焼肉"
  },
  {
    "rank": 76,
    "id": "27130497",
    "name": "和牛料理 一石三鳥",
    "url": "https://tabelog.com/osaka/A2701/A270108/27130497/",
    "image": "https://tblg.k-img.com/restaurant/images/Rvw/208315/320x320_rect_eb76deb787859bcc7b07cd4618d6c967.jpg",
    "address": "大阪府大阪市福島区福島3-5-19 N3フクシマ 3F",
    "rating": 3.72,
    "ratingCount": 547,
    "lat": 34.692487637175105,
    "lng": 135.48493777623662,
    "year": 2025,
    "award": "2025 ・ 百名店 焼肉 西日本",
    "genre": "焼肉"
  },
  {
    "rank": 77,
    "id": "27086935",
    "name": "和牛 まつした 上通り店",
    "url": "https://tabelog.com/osaka/A2701/A270101/27086935/",
    "image": "https://tblg.k-img.com/restaurant/images/Rvw/347359/640x640_rect_d45242d14745e0cd700075c687a8e05d.jpg",
    "address": "大阪府大阪市北区曽根崎新地1-3-30 北新地幸田ビル2F",
    "rating": 3.69,
    "ratingCount": 371,
    "lat": 34.697500582595026,
    "lng": 135.49674096368534,
    "year": 2025,
    "award": "2025 ・ 百名店 焼肉 西日本",
    "genre": "焼肉"
  },
  {
    "rank": 78,
    "id": "34029605",
    "name": "和牛lab K",
    "url": "https://tabelog.com/hiroshima/A3401/A340103/34029605/",
    "image": "https://tblg.k-img.com/restaurant/images/Rvw/179088/640x640_rect_6f68b60092b322abd43c6ab77841ab65.jpg",
    "address": "広島県広島市西区三篠町3-12-5 西村ビル 1F",
    "rating": 4.17,
    "ratingCount": 205,
    "lat": 34.41575193638557,
    "lng": 132.45386297556607,
    "year": 2025,
    "award": "2025 ・ 百名店 焼肉 西日本",
    "genre": "焼肉"
  },
  {
    "rank": 79,
    "id": "28042195",
    "name": "焼肉・ホルモンバル　Bovin",
    "url": "https://tabelog.com/hyogo/A2801/A280101/28042195/",
    "image": "https://tblg.k-img.com/restaurant/images/Rvw/63001/640x640_rect_63001515.jpg",
    "address": "兵庫県神戸市中央区下山手通1-5-3 ひがしもん異人館　2F",
    "rating": 3.65,
    "ratingCount": 436,
    "lat": 34.69531879873096,
    "lng": 135.1911199561961,
    "year": 2025,
    "award": "2025 ・ 百名店 焼肉 西日本",
    "genre": "焼肉"
  },
  {
    "rank": 80,
    "id": "27099728",
    "name": "京松蘭 南森町",
    "url": "https://tabelog.com/osaka/A2701/A270104/27099728/",
    "image": "https://tblg.k-img.com/restaurant/images/Rvw/297381/640x640_rect_27d973fb93d3476f9fed4f1260b32c98.jpg",
    "address": "大阪府大阪市北区天神橋3-2-2 NAGAYA200 1F",
    "rating": 3.65,
    "ratingCount": 181,
    "lat": 34.6985984863629,
    "lng": 135.51137431921265,
    "year": 2025,
    "award": "2025 ・ 百名店 焼肉 西日本",
    "genre": "焼肉"
  },
  {
    "rank": 81,
    "id": "27146988",
    "name": "焼肉うしごろ 梅田店",
    "url": "https://tabelog.com/osaka/A2701/A270101/27146988/",
    "image": "https://tblg.k-img.com/restaurant/images/Rvw/286705/640x640_rect_78a28069bb22065275053900fb27efdf.jpg",
    "address": "大阪府大阪市北区大深町5-1 うめきたグリーンプレイス 3F 305区画",
    "rating": 3.66,
    "ratingCount": 610,
    "lat": 34.70369440797608,
    "lng": 135.49346693750564,
    "year": 2025,
    "award": "2025 ・ 百名店 焼肉 西日本",
    "genre": "焼肉"
  },
  {
    "rank": 82,
    "id": "26001035",
    "name": "江畑",
    "url": "https://tabelog.com/kyoto/A2601/A260501/26001035/",
    "image": "https://tblg.k-img.com/restaurant/images/Rvw/74856/640x640_rect_74856357.jpg",
    "address": "京都府京都市上京区六軒町通下ル長者町東側四番町148-1",
    "rating": 3.7,
    "ratingCount": 500,
    "lat": 35.02310079785215,
    "lng": 135.7413254005582,
    "year": 2025,
    "award": "2025 ・ 百名店 焼肉 西日本",
    "genre": "焼肉"
  },
  {
    "rank": 83,
    "id": "41000391",
    "name": "ドライブイン鳥 伊万里店",
    "url": "https://tabelog.com/saga/A4102/A410202/41000391/",
    "image": "https://tblg.k-img.com/restaurant/images/Rvw/25576/640x640_rect_25576103.jpg",
    "address": "佐賀県伊万里市大坪町甲1384-2",
    "rating": 3.53,
    "ratingCount": 421,
    "lat": 33.287175917095084,
    "lng": 129.90214076711686,
    "year": 2025,
    "award": "2025 ・ 百名店 焼肉 西日本",
    "genre": "焼肉"
  },
  {
    "rank": 84,
    "id": "47007248",
    "name": "肉の変態集団 疾風ホルモン 久茂地本店",
    "url": "https://tabelog.com/okinawa/A4701/A470101/47007248/",
    "image": "https://tblg.k-img.com/restaurant/images/Rvw/180244/640x640_rect_5f54577a7df00e98a1a07862823cc014.jpg",
    "address": "沖縄県那覇市久茂地2-6-2 久茂地ガーデンビル　２Ｆ",
    "rating": 3.68,
    "ratingCount": 297,
    "lat": 26.216417640072994,
    "lng": 127.68054279609116,
    "year": 2025,
    "award": "2025 ・ 百名店 焼肉 西日本",
    "genre": "焼肉"
  },
  {
    "rank": 85,
    "id": "27108934",
    "name": "りきちゃん 大阪豊中店",
    "url": "https://tabelog.com/osaka/A2706/A270601/27108934/",
    "image": "https://tblg.k-img.com/restaurant/images/Rvw/255127/640x640_rect_c81163098175037361ca14b3dfe92085.jpg",
    "address": "大阪府豊中市螢池中町4-3-13",
    "rating": 3.68,
    "ratingCount": 176,
    "lat": 34.79649463709693,
    "lng": 135.44691287731388,
    "year": 2025,
    "award": "2025 ・ 百名店 焼肉 西日本",
    "genre": "焼肉"
  },
  {
    "rank": 86,
    "id": "27015353",
    "name": "和牛懐石 但馬屋 梅田",
    "url": "https://tabelog.com/osaka/A2701/A270101/27015353/",
    "image": "https://tblg.k-img.com/restaurant/images/Rvw/101800/640x640_rect_101800416.jpg",
    "address": "大阪府大阪市北区太融寺町8-2",
    "rating": 3.62,
    "ratingCount": 414,
    "lat": 34.70133043798045,
    "lng": 135.50247217747543,
    "year": 2025,
    "award": "2025 ・ 百名店 焼肉 西日本",
    "genre": "焼肉"
  },
  {
    "rank": 87,
    "id": "28054986",
    "name": "焼肉bue",
    "url": "https://tabelog.com/hyogo/A2801/A280103/28054986/",
    "image": "https://tblg.k-img.com/restaurant/images/Rvw/112719/640x640_rect_112719704.jpg",
    "address": "兵庫県神戸市中央区加納町2-9-1 ヤマウラ77ビル 1F",
    "rating": 3.66,
    "ratingCount": 239,
    "lat": 34.70148023707687,
    "lng": 135.19441477653112,
    "year": 2025,
    "award": "2025 ・ 百名店 焼肉 西日本",
    "genre": "焼肉"
  },
  {
    "rank": 88,
    "id": "27128757",
    "name": "きたん 韻",
    "url": "https://tabelog.com/osaka/A2701/A270202/27128757/",
    "image": "https://tblg.k-img.com/restaurant/images/Rvw/194046/640x640_rect_6a6c32dce16cc984687b11664daa9e87.jpg",
    "address": "大阪府大阪市中央区道頓堀1-7-12 1F",
    "rating": 3.77,
    "ratingCount": 195,
    "lat": 34.66822313719609,
    "lng": 135.5024308759793,
    "year": 2025,
    "award": "2025 ・ 百名店 焼肉 西日本",
    "genre": "焼肉"
  },
  {
    "rank": 89,
    "id": "28058167",
    "name": "肉料理 二月九日",
    "url": "https://tabelog.com/hyogo/A2804/A280403/28058167/",
    "image": "https://tblg.k-img.com/restaurant/images/Rvw/334949/640x640_rect_7e2146c5d9436a6cc8575dae979c2404.jpg",
    "address": "兵庫県加東市南山4-4-18",
    "rating": 3.86,
    "ratingCount": 129,
    "lat": 34.893114077719765,
    "lng": 135.0663897997183,
    "year": 2025,
    "award": "2025 ・ 百名店 焼肉 西日本",
    "genre": "焼肉"
  },
  {
    "rank": 90,
    "id": "45006886",
    "name": "板前焼肉 英",
    "url": "https://tabelog.com/miyazaki/A4504/A450402/45006886/",
    "image": "https://tblg.k-img.com/restaurant/images/Rvw/367127/640x640_rect_849875faf2ee607ccd7da64d65fde21f.jpg",
    "address": "宮崎県児湯郡川南町大字川南17702-45",
    "rating": 3.76,
    "ratingCount": 35,
    "lat": 32.19188371830819,
    "lng": 131.52698881491443,
    "year": 2025,
    "award": "2025 ・ 百名店 焼肉 西日本",
    "genre": "焼肉"
  },
  {
    "rank": 91,
    "id": "28043971",
    "name": "雄三郎",
    "url": "https://tabelog.com/hyogo/A2801/A280101/28043971/",
    "image": "https://tblg.k-img.com/restaurant/images/Rvw/344315/640x640_rect_c4614e78ff942d1e8806d8a6990f37b5.jpg",
    "address": "兵庫県神戸市中央区加納町3-12-7",
    "rating": 3.85,
    "ratingCount": 143,
    "lat": 34.69812053707844,
    "lng": 135.19260887649847,
    "year": 2025,
    "award": "2025 ・ 百名店 焼肉 西日本",
    "genre": "焼肉"
  },
  {
    "rank": 92,
    "id": "44002995",
    "name": "焼肉井とう",
    "url": "https://tabelog.com/oita/A4401/A440105/44002995/",
    "image": "https://tblg.k-img.com/restaurant/images/Rvw/194114/640x640_rect_6f4b29756628b61caf901118d8433546.jpg",
    "address": "大分県佐伯市駅前2-2-17",
    "rating": 4.07,
    "ratingCount": 176,
    "lat": 32.972380367932644,
    "lng": 131.90429042253365,
    "year": 2025,
    "award": "2025 ・ 百名店 焼肉 西日本",
    "genre": "焼肉"
  },
  {
    "rank": 93,
    "id": "36001271",
    "name": "食楽園",
    "url": "https://tabelog.com/tokushima/A3601/A360101/36001271/",
    "image": "https://tblg.k-img.com/restaurant/images/Rvw/311344/640x640_rect_2d9a7446b1cc19cc9066b32cf29145d9.jpg",
    "address": "徳島県徳島市南仲之町1-8",
    "rating": 3.67,
    "ratingCount": 104,
    "lat": 34.065947688080705,
    "lng": 134.55012986172505,
    "year": 2025,
    "award": "2025 ・ 百名店 焼肉 西日本",
    "genre": "焼肉"
  },
  {
    "rank": 94,
    "id": "40043061",
    "name": "焼肉すどう 春吉",
    "url": "https://tabelog.com/fukuoka/A4001/A400103/40043061/",
    "image": "https://tblg.k-img.com/restaurant/images/Rvw/79607/640x640_rect_79607595.jpg",
    "address": "福岡県福岡市中央区春吉3-11-19 1F",
    "rating": 3.92,
    "ratingCount": 459,
    "lat": 33.58967764430496,
    "lng": 130.40611686705438,
    "year": 2025,
    "award": "2025 ・ 百名店 焼肉 西日本",
    "genre": "焼肉"
  },
  {
    "rank": 95,
    "id": "26004181",
    "name": "藤むら",
    "url": "https://tabelog.com/kyoto/A2601/A260101/26004181/",
    "image": "https://tblg.k-img.com/restaurant/images/Rvw/33342/640x640_rect_33342906.jpg",
    "address": "京都府京都市下京区仏光寺通油小路西入ル",
    "rating": 3.66,
    "ratingCount": 285,
    "lat": 35.001286722737774,
    "lng": 135.7531522477065,
    "year": 2025,
    "award": "2025 ・ 百名店 焼肉 西日本",
    "genre": "焼肉"
  },
  {
    "rank": 96,
    "id": "26006045",
    "name": "はつだ",
    "url": "https://tabelog.com/kyoto/A2601/A260303/26006045/",
    "image": "https://tblg.k-img.com/restaurant/images/Rvw/345842/640x640_rect_de5c5ba70a8f3c6756411fdd7b764aef.jpg",
    "address": "京都府京都市左京区山端柳ヶ坪町17-3",
    "rating": 3.62,
    "ratingCount": 216,
    "lat": 35.04886115785103,
    "lng": 135.78919764078483,
    "year": 2025,
    "award": "2025 ・ 百名店 焼肉 西日本",
    "genre": "焼肉"
  },
  {
    "rank": 97,
    "id": "24000073",
    "name": "一升びん 本店",
    "url": "https://tabelog.com/mie/A2401/A240102/24000073/",
    "image": "https://tblg.k-img.com/restaurant/images/Rvw/73808/320x320_rect_73808949.jpg",
    "address": "三重県松阪市南町232-3",
    "rating": 3.73,
    "ratingCount": 1221,
    "lat": 34.56920643758733,
    "lng": 136.53349807425636,
    "year": 2025,
    "award": "2025 ・ 百名店 焼肉 西日本",
    "genre": "焼肉"
  },
  {
    "rank": 98,
    "id": "42000340",
    "name": "大阪屋 浜町店",
    "url": "https://tabelog.com/nagasaki/A4201/A420101/42000340/",
    "image": "https://tblg.k-img.com/restaurant/images/Rvw/131575/640x640_rect_131575317.jpg",
    "address": "長崎県長崎市浜町11-11",
    "rating": 3.85,
    "ratingCount": 213,
    "lat": 32.74355993662809,
    "lng": 129.8805128604792,
    "year": 2025,
    "award": "2025 ・ 百名店 焼肉 西日本",
    "genre": "焼肉"
  },
  {
    "rank": 99,
    "id": "27088182",
    "name": "万両 肥後橋店",
    "url": "https://tabelog.com/osaka/A2701/A270102/27088182/",
    "image": "https://tblg.k-img.com/restaurant/images/Rvw/91099/640x640_rect_91099731.jpg",
    "address": "大阪府大阪市西区土佐堀1-6-10 土佐堀トキワビル 1Ｆ",
    "rating": 3.65,
    "ratingCount": 728,
    "lat": 34.69017203717895,
    "lng": 135.49237787620805,
    "year": 2025,
    "award": "2025 ・ 百名店 焼肉 西日本",
    "genre": "焼肉"
  },
  {
    "rank": 100,
    "id": "28054589",
    "name": "焼肉ぜん",
    "url": "https://tabelog.com/hyogo/A2801/A280101/28054589/",
    "image": "https://tblg.k-img.com/restaurant/images/Rvw/215776/640x640_rect_0535cfeab053a364333ce1deedb88331.jpg",
    "address": "兵庫県神戸市中央区中山手通2-21-14",
    "rating": 3.73,
    "ratingCount": 264,
    "lat": 34.695760857884196,
    "lng": 135.18913828763883,
    "year": 2025,
    "award": "2025 ・ 百名店 焼肉 西日本",
    "genre": "焼肉"
  }
]