[
  {
    "rank": 1,
    "id": "26003707",
    "name": "キッチンパパ",
    "url": "https://tabelog.com/kyoto/A2601/A260501/26003707/",
    "image": "https://tblg.k-img.com/restaurant/images/Rvw/127115/640x640_rect_127115186.jpg",
    "address": "京都府京都市上京区上立売通千本東入姥ヶ西町591",
    "rating": 3.67,
    "ratingCount": 487,
    "lat": 35.03249833784655,
    "lng": 135.74246064065235,
    "year": 2025,
    "award": "2025 ・ 百名店 洋食 西日本",
    "genre": "洋食"
  },
  {
    "rank": 2,
    "id": "27118018",
    "name": "洋食 泉",
    "url": "https://tabelog.com/osaka/A2701/A270101/27118018/",
    "image": "https://tblg.k-img.com/restaurant/images/Rvw/332457/640x640_rect_50a714c2398b3c2a80d151fe066e9cc2.jpg",
    "address": "大阪府大阪市北区西天満4-9-20 東興ビル 1F",
    "rating": 3.97,
    "ratingCount": 250,
    "lat": 34.697219477983495,
    "lng": 135.503845747433,
    "year": 2025,
    "award": "2025 ・ 百名店 洋食 西日本",
    "genre": "洋食"
  },
  {
    "rank": 3,
    "id": "41000144",
    "name": "ももや",
    "url": "https://tabelog.com/saga/A4102/A410201/41000144/",
    "image": "https://tblg.k-img.com/restaurant/images/Rvw/16396/640x640_rect_16396213.jpg",
    "address": "佐賀県唐津市西浜町2-19",
    "rating": 3.54,
    "ratingCount": 116,
    "lat": 33.4572352370064,
    "lng": 129.9628073087921,
    "year": 2025,
    "award": "2025 ・ 百名店 洋食 西日本",
    "genre": "洋食"
  },
  {
    "rank": 4,
    "id": "27113674",
    "name": "洋食 手嶋",
    "url": "https://tabelog.com/osaka/A2701/A270201/27113674/",
    "image": "https://tblg.k-img.com/restaurant/images/Rvw/366653/640x640_rect_9bb316939f977cb7bcb6398f59bda2e5.jpg",
    "address": "大阪府大阪市西区新町1-22-22",
    "rating": 3.62,
    "ratingCount": 262,
    "lat": 34.67669094799372,
    "lng": 135.49498805723184,
    "year": 2025,
    "award": "2025 ・ 百名店 洋食 西日本",
    "genre": "洋食"
  },
  {
    "rank": 5,
    "id": "28000394",
    "name": "グリル末松",
    "url": "https://tabelog.com/hyogo/A2801/A280101/28000394/",
    "image": "https://tblg.k-img.com/restaurant/images/Rvw/263151/640x640_rect_c526e26b56c488b88ace53a782c68125.jpg",
    "address": "兵庫県神戸市中央区加納町2-1-9",
    "rating": 3.69,
    "ratingCount": 1141,
    "lat": 34.699108807883476,
    "lng": 135.19356539766954,
    "year": 2025,
    "award": "2025 ・ 百名店 洋食 西日本",
    "genre": "洋食"
  },
  {
    "rank": 6,
    "id": "27090972",
    "name": "サル食堂 本町本店",
    "url": "https://tabelog.com/osaka/A2701/A270106/27090972/",
    "image": "https://tblg.k-img.com/restaurant/images/Rvw/305891/640x640_rect_ee7e62155e19f40fba07cc686ee97e7b.jpg",
    "address": "大阪府大阪市中央区備後町4-3-4 大阪タイガービル 1F",
    "rating": 3.6,
    "ratingCount": 1339,
    "lat": 34.68543371798936,
    "lng": 135.49877841731745,
    "year": 2025,
    "award": "2025 ・ 百名店 洋食 西日本",
    "genre": "洋食"
  },
  {
    "rank": 7,
    "id": "26000009",
    "name": "グリル 小宝",
    "url": "https://tabelog.com/kyoto/A2601/A260301/26000009/",
    "image": "https://tblg.k-img.com/restaurant/images/Rvw/229513/640x640_rect_d9952600e9f9990c29d6db7e6e5d0bff.jpg",
    "address": "京都府京都市左京区岡崎北御所町46",
    "rating": 3.59,
    "ratingCount": 1170,
    "lat": 35.01585770787059,
    "lng": 135.78477576045458,
    "year": 2025,
    "award": "2025 ・ 百名店 洋食 西日本",
    "genre": "洋食"
  },
  {
    "rank": 8,
    "id": "27099803",
    "name": "洋食 Matsushita",
    "url": "https://tabelog.com/osaka/A2701/A270201/27099803/",
    "image": "https://tblg.k-img.com/restaurant/images/Rvw/357924/640x640_rect_5ef58249f93e701811687739e01d3a4f.jpg",
    "address": "大阪府大阪市中央区東心斎橋1-9-13 プライブ心斎橋ビル 2F",
    "rating": 3.61,
    "ratingCount": 143,
    "lat": 34.67448171799811,
    "lng": 135.50440946720286,
    "year": 2025,
    "award": "2025 ・ 百名店 洋食 西日本",
    "genre": "洋食"
  },
  {
    "rank": 9,
    "id": "28031154",
    "name": "グリル一平 三宮店",
    "url": "https://tabelog.com/hyogo/A2801/A280101/28031154/",
    "image": "https://tblg.k-img.com/restaurant/images/Rvw/236984/640x640_rect_5c5406d1efbad176771bd0a94eca0123.jpg",
    "address": "兵庫県神戸市中央区琴ノ緒町5-5-26 サンハイツ三宮1F",
    "rating": 3.68,
    "ratingCount": 1848,
    "lat": 34.69594223708057,
    "lng": 135.1950004764748,
    "year": 2025,
    "award": "2025 ・ 百名店 洋食 西日本",
    "genre": "洋食"
  },
  {
    "rank": 10,
    "id": "26001870",
    "name": "洋食の店　みしな",
    "url": "https://tabelog.com/kyoto/A2601/A260301/26001870/",
    "image": "https://tblg.k-img.com/restaurant/images/Rvw/250175/640x640_rect_d85dd1e4f4b42b4b03190f7f20e95930.jpg",
    "address": "京都府京都市東山区桝屋町357",
    "rating": 3.76,
    "ratingCount": 367,
    "lat": 34.998221517356335,
    "lng": 135.78065612576805,
    "year": 2025,
    "award": "2025 ・ 百名店 洋食 西日本",
    "genre": "洋食"
  },
  {
    "rank": 11,
    "id": "24012692",
    "name": "洋食屋 ポルコ",
    "url": "https://tabelog.com/mie/A2402/A240202/24012692/",
    "image": "https://tblg.k-img.com/restaurant/images/Rvw/363738/640x640_rect_0b143130f02f8053e47ecb6ec6f9f27b.jpg",
    "address": "三重県鈴鹿市算所3-9-38 豊永ビル 1F",
    "rating": 3.65,
    "ratingCount": 96,
    "lat": 34.87518959820237,
    "lng": 136.54604431850007,
    "year": 2025,
    "award": "2025 ・ 百名店 洋食 西日本",
    "genre": "洋食"
  },
  {
    "rank": 12,
    "id": "27127433",
    "name": "大衆食堂 瓦町ブラン",
    "url": "https://tabelog.com/osaka/A2701/A270102/27127433/",
    "image": "https://tblg.k-img.com/restaurant/images/Rvw/361474/640x640_rect_fc3ca5040ec4b35b9a6ae820586be1d9.jpg",
    "address": "大阪府大阪市北区西天満4-7-10 昭和ビル",
    "rating": 3.67,
    "ratingCount": 153,
    "lat": 34.696874527983745,
    "lng": 135.5039547674294,
    "year": 2025,
    "award": "2025 ・ 百名店 洋食 西日本",
    "genre": "洋食"
  },
  {
    "rank": 13,
    "id": "28032504",
    "name": "神戸トルコライス",
    "url": "https://tabelog.com/hyogo/A2801/A280102/28032504/",
    "image": "https://tblg.k-img.com/restaurant/images/Rvw/188684/640x640_rect_8984a2ddac2a2fbbc709667c8f619c58.jpg",
    "address": "兵庫県神戸市兵庫区荒田町3丁目42-12",
    "rating": 3.67,
    "ratingCount": 497,
    "lat": 34.68644040788377,
    "lng": 135.16919888755865,
    "year": 2025,
    "award": "2025 ・ 百名店 洋食 西日本",
    "genre": "洋食"
  },
  {
    "rank": 14,
    "id": "28041503",
    "name": "洋食SAEKI",
    "url": "https://tabelog.com/hyogo/A2801/A280103/28041503/",
    "image": "https://tblg.k-img.com/restaurant/images/Rvw/260907/640x640_rect_48adfc662ef0c02aa04b75989b4f2f41.jpg",
    "address": "兵庫県神戸市灘区岩屋北町5-2-13 SIハイツ岩屋 1F",
    "rating": 3.61,
    "ratingCount": 886,
    "lat": 34.70398937788748,
    "lng": 135.21585671770322,
    "year": 2025,
    "award": "2025 ・ 百名店 洋食 西日本",
    "genre": "洋食"
  },
  {
    "rank": 15,
    "id": "27101388",
    "name": "洋食ビストロ Awano",
    "url": "https://tabelog.com/osaka/A2701/A270102/27101388/",
    "image": "https://tblg.k-img.com/restaurant/images/Rvw/315756/640x640_rect_72c3d3460ea58e1c5bc74c8a798d5dbf.jpg",
    "address": "大阪府大阪市中央区備後町1-2-12 兼一ビル 1F",
    "rating": 3.52,
    "ratingCount": 307,
    "lat": 34.685279737187216,
    "lng": 135.50859617614725,
    "year": 2025,
    "award": "2025 ・ 百名店 洋食 西日本",
    "genre": "洋食"
  },
  {
    "rank": 16,
    "id": "27012753",
    "name": "ゴメンネJIRO",
    "url": "https://tabelog.com/osaka/A2701/A270103/27012753/",
    "image": "https://tblg.k-img.com/restaurant/images/Rvw/120411/640x640_rect_75582dabdac3ab1d5a485045017acea6.jpg",
    "address": "大阪府大阪市北区池田町8-9",
    "rating": 3.77,
    "ratingCount": 661,
    "lat": 34.70737962798002,
    "lng": 135.51318515752902,
    "year": 2025,
    "award": "2025 ・ 百名店 洋食 西日本",
    "genre": "洋食"
  },
  {
    "rank": 17,
    "id": "26036338",
    "name": "洋食堂 すずき",
    "url": "https://tabelog.com/kyoto/A2601/A260203/26036338/",
    "image": "https://tblg.k-img.com/restaurant/images/Rvw/360936/640x640_rect_62f99ea23a3adabab9e0f5c841047d75.jpg",
    "address": "京都府京都市中京区俵屋町207",
    "rating": 3.75,
    "ratingCount": 108,
    "lat": 35.01103534786266,
    "lng": 135.7502583704301,
    "year": 2025,
    "award": "2025 ・ 百名店 洋食 西日本",
    "genre": "洋食"
  },
  {
    "rank": 18,
    "id": "26033759",
    "name": "プチレストラン ないとう",
    "url": "https://tabelog.com/kyoto/A2601/A260202/26033759/",
    "image": "https://tblg.k-img.com/restaurant/images/Rvw/143196/640x640_rect_143196777.jpg",
    "address": "京都府京都市中京区尾張町217 サンロータス池治 1F",
    "rating": 3.71,
    "ratingCount": 124,
    "lat": 35.01322733706076,
    "lng": 135.76554217927972,
    "year": 2025,
    "award": "2025 ・ 百名店 洋食 西日本",
    "genre": "洋食"
  },
  {
    "rank": 19,
    "id": "28056372",
    "name": "グリル一平 元町店",
    "url": "https://tabelog.com/hyogo/A2801/A280102/28056372/",
    "image": "https://tblg.k-img.com/restaurant/images/Rvw/211445/640x640_rect_0a6961ef67aef48532b6318eda7073a1.jpg",
    "address": "兵庫県神戸市中央区元町通2-3-2 ジェムビル B1F",
    "rating": 3.65,
    "ratingCount": 683,
    "lat": 34.688400337082925,
    "lng": 135.18734937640397,
    "year": 2025,
    "award": "2025 ・ 百名店 洋食 西日本",
    "genre": "洋食"
  },
  {
    "rank": 20,
    "id": "26040120",
    "name": "洋食堂 のろ",
    "url": "https://tabelog.com/kyoto/A2601/A260202/26040120/",
    "image": "https://tblg.k-img.com/restaurant/images/Rvw/234391/640x640_rect_01d7d9ce18b2f094ecb0ff6430dc64dd.jpg",
    "address": "京都府京都市中京区玉蔵町115-1 WAKOビル 1F",
    "rating": 3.73,
    "ratingCount": 116,
    "lat": 35.007227737867204,
    "lng": 135.7569479703869,
    "year": 2025,
    "award": "2025 ・ 百名店 洋食 西日本",
    "genre": "洋食"
  },
  {
    "rank": 21,
    "id": "27013033",
    "name": "いずみバーグ",
    "url": "https://tabelog.com/osaka/A2701/A270401/27013033/",
    "image": "https://tblg.k-img.com/restaurant/images/Rvw/36222/640x640_rect_36222582.jpg",
    "address": "大阪府大阪市西区千代崎2-8-9",
    "rating": 3.51,
    "ratingCount": 751,
    "lat": 34.674084237184466,
    "lng": 135.47765727605585,
    "year": 2025,
    "award": "2025 ・ 百名店 洋食 西日本",
    "genre": "洋食"
  },
  {
    "rank": 22,
    "id": "27003946",
    "name": "れすとらん 源ちゃん",
    "url": "https://tabelog.com/osaka/A2701/A270201/27003946/",
    "image": "https://tblg.k-img.com/restaurant/images/Rvw/310164/640x640_rect_cf646259073951274ffed6ddfb09efb6.jpg",
    "address": "大阪府大阪市中央区南船場2-3-17 ヴェルデ南船場　１F",
    "rating": 3.5,
    "ratingCount": 402,
    "lat": 34.676115787997425,
    "lng": 135.50549984721863,
    "year": 2025,
    "award": "2025 ・ 百名店 洋食 西日本",
    "genre": "洋食"
  },
  {
    "rank": 23,
    "id": "28030631",
    "name": "洋食とワインのお店 土筆苑",
    "url": "https://tabelog.com/hyogo/A2803/A280301/28030631/",
    "image": "https://tblg.k-img.com/restaurant/images/Rvw/239750/640x640_rect_c06383b2ffa60d37232965a5e121f68d.jpg",
    "address": "兵庫県西宮市高松町11-2-102",
    "rating": 3.55,
    "ratingCount": 477,
    "lat": 34.74463265696377,
    "lng": 135.35799670280275,
    "year": 2025,
    "award": "2025 ・ 百名店 洋食 西日本",
    "genre": "洋食"
  },
  {
    "rank": 24,
    "id": "24000085",
    "name": "東洋軒 本店",
    "url": "https://tabelog.com/mie/A2401/A240101/24000085/",
    "image": "https://tblg.k-img.com/restaurant/images/Rvw/9476/320x320_rect_9476530.jpg",
    "address": "三重県津市丸之内29-17",
    "rating": 3.78,
    "ratingCount": 411,
    "lat": 34.71718923748554,
    "lng": 136.5089919757683,
    "year": 2025,
    "award": "2025 ・ 百名店 洋食 西日本",
    "genre": "洋食"
  },
  {
    "rank": 25,
    "id": "27015175",
    "name": "ワインちゃん 瓦・町・路・地",
    "url": "https://tabelog.com/osaka/A2701/A270106/27015175/",
    "image": "https://tblg.k-img.com/restaurant/images/Rvw/19701/640x640_rect_19701056.jpg",
    "address": "大阪府大阪市中央区瓦町3-2-3",
    "rating": 3.55,
    "ratingCount": 422,
    "lat": 34.68590323718496,
    "lng": 135.50272047615766,
    "year": 2025,
    "award": "2025 ・ 百名店 洋食 西日本",
    "genre": "洋食"
  },
  {
    "rank": 26,
    "id": "45009812",
    "name": "イワナガ食堂",
    "url": "https://tabelog.com/miyazaki/A4501/A450101/45009812/",
    "image": "https://tblg.k-img.com/restaurant/images/Rvw/192952/640x640_rect_2a4b21c5eb4e10b42feeb6763d3583ad.jpg",
    "address": "宮崎県宮崎市橘通東3-3-7 福田ビル 1F",
    "rating": 3.94,
    "ratingCount": 169,
    "lat": 31.91483650845135,
    "lng": 131.42401812218816,
    "year": 2025,
    "award": "2025 ・ 百名店 洋食 西日本",
    "genre": "洋食"
  },
  {
    "rank": 27,
    "id": "27059987",
    "name": "御堂筋 ロッヂ",
    "url": "https://tabelog.com/osaka/A2701/A270201/27059987/",
    "image": "https://tblg.k-img.com/restaurant/images/Rvw/210479/640x640_rect_31357f80d0a7b695edb537be50ac0a0a.jpg",
    "address": "大阪府大阪市中央区南船場4-3-11 大阪豊田ビル B1F",
    "rating": 3.66,
    "ratingCount": 772,
    "lat": 34.676181387995584,
    "lng": 135.49983165722327,
    "year": 2025,
    "award": "2025 ・ 百名店 洋食 西日本",
    "genre": "洋食"
  },
  {
    "rank": 28,
    "id": "28068684",
    "name": "洋食 GURa",
    "url": "https://tabelog.com/hyogo/A2801/A280102/28068684/",
    "image": "https://tblg.k-img.com/restaurant/images/Rvw/362271/640x640_rect_c1ef14f4e4ed0296d6ce079c32f3fd23.jpg",
    "address": "兵庫県神戸市中央区下山手通4-13-1",
    "rating": 3.59,
    "ratingCount": 291,
    "lat": 34.69275184788515,
    "lng": 135.18613064761053,
    "year": 2025,
    "award": "2025 ・ 百名店 洋食 西日本",
    "genre": "洋食"
  },
  {
    "rank": 29,
    "id": "45000012",
    "name": "味のおぐら 本店",
    "url": "https://tabelog.com/miyazaki/A4501/A450101/45000012/",
    "image": "https://tblg.k-img.com/restaurant/images/Rvw/115234/640x640_rect_115234307.jpg",
    "address": "宮崎県宮崎市橘通東3-4-24",
    "rating": 3.53,
    "ratingCount": 2127,
    "lat": 31.915887608450582,
    "lng": 131.42370218219898,
    "year": 2025,
    "award": "2025 ・ 百名店 洋食 西日本",
    "genre": "洋食"
  },
  {
    "rank": 30,
    "id": "28004183",
    "name": "グラタンのお店 どつぼどーる",
    "url": "https://tabelog.com/hyogo/A2803/A280303/28004183/",
    "image": "https://tblg.k-img.com/restaurant/images/Rvw/351299/640x640_rect_84c1ad8ee986cd96401adefb814305c2.jpg",
    "address": "兵庫県宝塚市逆瀬川1-13-27 トヨタビル 1F",
    "rating": 3.56,
    "ratingCount": 288,
    "lat": 34.79826544787115,
    "lng": 135.35261389855964,
    "year": 2025,
    "award": "2025 ・ 百名店 洋食 西日本",
    "genre": "洋食"
  },
  {
    "rank": 31,
    "id": "28000531",
    "name": "欧風料理 もん",
    "url": "https://tabelog.com/hyogo/A2801/A280101/28000531/",
    "image": "https://tblg.k-img.com/restaurant/images/Rvw/346427/640x640_rect_4f042801c8f1d438838a91c07ead4d6c.jpg",
    "address": "兵庫県神戸市中央区北長狭通2-12-12",
    "rating": 3.7,
    "ratingCount": 1803,
    "lat": 34.69274673708143,
    "lng": 135.1912855764451,
    "year": 2025,
    "award": "2025 ・ 百名店 洋食 西日本",
    "genre": "洋食"
  },
  {
    "rank": 32,
    "id": "28001012",
    "name": "マルシェ",
    "url": "https://tabelog.com/hyogo/A2801/A280102/28001012/",
    "image": "https://tblg.k-img.com/restaurant/images/Rvw/188640/640x640_rect_ef3879fb87beb00171a76ac3b2ae6678.jpg",
    "address": "兵庫県神戸市中央区下山手通6-4-6 タイコーマンション　１Ｆ",
    "rating": 3.62,
    "ratingCount": 645,
    "lat": 34.68935589463171,
    "lng": 135.17917983347613,
    "year": 2025,
    "award": "2025 ・ 百名店 洋食 西日本",
    "genre": "洋食"
  },
  {
    "rank": 33,
    "id": "39000034",
    "name": "ハングリーベア",
    "url": "https://tabelog.com/kochi/A3901/A390101/39000034/",
    "image": "https://tblg.k-img.com/restaurant/images/Rvw/361997/640x640_rect_aad53cd88fa0fef8a0fc0126702456e1.jpg",
    "address": "高知県高知市幸崎13",
    "rating": 3.62,
    "ratingCount": 101,
    "lat": 33.54311780808622,
    "lng": 133.52477104716274,
    "year": 2025,
    "award": "2025 ・ 百名店 洋食 西日本",
    "genre": "洋食"
  },
  {
    "rank": 34,
    "id": "30007386",
    "name": "とんかつ荘 フジマル",
    "url": "https://tabelog.com/wakayama/A3001/A300101/30007386/",
    "image": "https://tblg.k-img.com/restaurant/images/Rvw/354159/640x640_rect_f829c428e66f5a38f338ebc47f4890a7.jpg",
    "address": "和歌山県和歌山市十番丁52 土谷ビル 1F",
    "rating": 3.57,
    "ratingCount": 271,
    "lat": 34.231197437369765,
    "lng": 135.17621137179358,
    "year": 2025,
    "award": "2025 ・ 百名店 洋食 西日本",
    "genre": "洋食"
  },
  {
    "rank": 35,
    "id": "28035325",
    "name": "洋食クアトロ",
    "url": "https://tabelog.com/hyogo/A2801/A280102/28035325/",
    "image": "https://tblg.k-img.com/restaurant/images/Rvw/14639/640x640_rect_14639802.jpg",
    "address": "兵庫県神戸市中央区元町通3-12-3 日国ビル 1F",
    "rating": 3.68,
    "ratingCount": 1063,
    "lat": 34.688482137082424,
    "lng": 135.18592847640576,
    "year": 2025,
    "award": "2025 ・ 百名店 洋食 西日本",
    "genre": "洋食"
  },
  {
    "rank": 36,
    "id": "27112174",
    "name": "勘之助",
    "url": "https://tabelog.com/osaka/A2701/A270108/27112174/",
    "image": "https://tblg.k-img.com/restaurant/images/Rvw/298767/640x640_rect_e30570df6d39bc274471793d77f418f9.jpg",
    "address": "大阪府大阪市福島区福島3-8-10",
    "rating": 3.58,
    "ratingCount": 292,
    "lat": 34.69354823717458,
    "lng": 135.48535207624707,
    "year": 2025,
    "award": "2025 ・ 百名店 洋食 西日本",
    "genre": "洋食"
  },
  {
    "rank": 37,
    "id": "26002516",
    "name": "グリル デミ",
    "url": "https://tabelog.com/kyoto/A2601/A260202/26002516/",
    "image": "https://tblg.k-img.com/restaurant/images/Rvw/8017/640x640_rect_8017498.jpg",
    "address": "京都府京都市中京区両替町夷川通室町東入ル巴町80 パルマビル　１Ｆ",
    "rating": 3.54,
    "ratingCount": 661,
    "lat": 35.0148170355087,
    "lng": 135.75849451440556,
    "year": 2025,
    "award": "2025 ・ 百名店 洋食 西日本",
    "genre": "洋食"
  },
  {
    "rank": 38,
    "id": "43004614",
    "name": "新木村",
    "url": "https://tabelog.com/kumamoto/A4304/A430401/43004614/",
    "image": "https://tblg.k-img.com/restaurant/images/Rvw/345244/640x640_rect_d016c0400c2cd80ee15912aeaec78111.jpg",
    "address": "熊本県八代市本町2-5-41",
    "rating": 3.65,
    "ratingCount": 82,
    "lat": 32.50319163701012,
    "lng": 130.6007388575464,
    "year": 2025,
    "award": "2025 ・ 百名店 洋食 西日本",
    "genre": "洋食"
  },
  {
    "rank": 39,
    "id": "42007256",
    "name": "キッチン すずたとうげ",
    "url": "https://tabelog.com/nagasaki/A4204/A420402/42007256/",
    "image": "https://tblg.k-img.com/restaurant/images/Rvw/323986/640x640_rect_8083e1c73b57ff0ffaddba03cc8b4709.jpg",
    "address": "長崎県大村市中里町418-7",
    "rating": 3.5,
    "ratingCount": 67,
    "lat": 32.886242997382595,
    "lng": 130.0053592029947,
    "year": 2025,
    "award": "2025 ・ 百名店 洋食 西日本",
    "genre": "洋食"
  },
  {
    "rank": 40,
    "id": "44013927",
    "name": "都ハンバーグ",
    "url": "https://tabelog.com/oita/A4401/A440101/44013927/",
    "image": "https://tblg.k-img.com/restaurant/images/Rvw/366926/640x640_rect_d22afe2bfec5caa5de40d97159699bec.jpg",
    "address": "大分県大分市都町1-1-5 親和ビル 2F",
    "rating": 3.59,
    "ratingCount": 99,
    "lat": 33.23941677269971,
    "lng": 131.60662088618363,
    "year": 2025,
    "award": "2025 ・ 百名店 洋食 西日本",
    "genre": "洋食"
  },
  {
    "rank": 41,
    "id": "28050672",
    "name": "洋食むーしゃむーしゃ",
    "url": "https://tabelog.com/hyogo/A2803/A280301/28050672/",
    "image": "https://tblg.k-img.com/restaurant/images/Rvw/361512/640x640_rect_1a708ca33bbb08056c35b17d08e08372.jpg",
    "address": "兵庫県西宮市高松町16-22",
    "rating": 3.5,
    "ratingCount": 438,
    "lat": 34.74566064790679,
    "lng": 135.35959890802337,
    "year": 2025,
    "award": "2025 ・ 百名店 洋食 西日本",
    "genre": "洋食"
  },
  {
    "rank": 42,
    "id": "26000943",
    "name": "はふう 本店",
    "url": "https://tabelog.com/kyoto/A2601/A260202/26000943/",
    "image": "https://tblg.k-img.com/restaurant/images/Rvw/265963/640x640_rect_4e881fea6683d3e7db5514d0560576ea.jpg",
    "address": "京都府京都市中京区麩屋町通夷川上ル笹屋町471-1",
    "rating": 3.59,
    "ratingCount": 756,
    "lat": 35.01542136786476,
    "lng": 135.7656179204636,
    "year": 2025,
    "award": "2025 ・ 百名店 洋食 西日本",
    "genre": "洋食"
  },
  {
    "rank": 43,
    "id": "25000136",
    "name": "手作りハンバーグアペゼ",
    "url": "https://tabelog.com/shiga/A2502/A250201/25000136/",
    "image": "https://tblg.k-img.com/restaurant/images/Rvw/271850/640x640_rect_2c0ee5bcad2a3ceef0aedf97c55374fb.jpg",
    "address": "滋賀県草津市追分南5-11-10",
    "rating": 3.45,
    "ratingCount": 117,
    "lat": 34.99156713713819,
    "lng": 135.96548487892076,
    "year": 2025,
    "award": "2025 ・ 百名店 洋食 西日本",
    "genre": "洋食"
  },
  {
    "rank": 44,
    "id": "45000889",
    "name": "らんぷ亭",
    "url": "https://tabelog.com/miyazaki/A4501/A450101/45000889/",
    "image": "https://tblg.k-img.com/restaurant/images/Rvw/170957/640x640_rect_689900cad467dbc3419129089f14668e.jpg",
    "address": "宮崎県宮崎市中央通8-16 第２三輪ビル　中２Ｆ",
    "rating": 4,
    "ratingCount": 357,
    "lat": 31.91397453764546,
    "lng": 131.42068305102,
    "year": 2025,
    "award": "2025 ・ 百名店 洋食 西日本",
    "genre": "洋食"
  },
  {
    "rank": 45,
    "id": "24000063",
    "name": "洋食屋牛銀",
    "url": "https://tabelog.com/mie/A2401/A240102/24000063/",
    "image": "https://tblg.k-img.com/restaurant/images/Rvw/123816/640x640_rect_123816834.jpg",
    "address": "三重県松阪市魚町1618 牛銀本店隣",
    "rating": 3.71,
    "ratingCount": 678,
    "lat": 34.57913336838482,
    "lng": 136.52852636552188,
    "year": 2025,
    "award": "2025 ・ 百名店 洋食 西日本",
    "genre": "洋食"
  },
  {
    "rank": 46,
    "id": "30000448",
    "name": "味一",
    "url": "https://tabelog.com/wakayama/A3001/A300101/30000448/",
    "image": "https://tblg.k-img.com/restaurant/images/Rvw/362171/640x640_rect_0bea169f79e132c77a0eb6fa622722d2.jpg",
    "address": "和歌山県和歌山市杉ノ馬場2-31",
    "rating": 3.48,
    "ratingCount": 245,
    "lat": 34.23753863736322,
    "lng": 135.16829707186318,
    "year": 2025,
    "award": "2025 ・ 百名店 洋食 西日本",
    "genre": "洋食"
  },
  {
    "rank": 47,
    "id": "45011705",
    "name": "平家の郷 新別府店",
    "url": "https://tabelog.com/miyazaki/A4501/A450101/45011705/",
    "image": "https://tblg.k-img.com/restaurant/images/Rvw/344964/640x640_rect_5c64422b98b1ac9961140e8bad2febe9.jpg",
    "address": "宮崎県宮崎市新別府町土田541-3",
    "rating": 3.56,
    "ratingCount": 65,
    "lat": 31.927100754826732,
    "lng": 131.45395849884864,
    "year": 2025,
    "award": "2025 ・ 百名店 洋食 西日本",
    "genre": "洋食"
  },
  {
    "rank": 48,
    "id": "40017105",
    "name": "サフラン",
    "url": "https://tabelog.com/fukuoka/A4008/A400806/40017105/",
    "image": "https://tblg.k-img.com/restaurant/images/Rvw/345716/640x640_rect_43c562fbc303c322913cfdcfc9eff849.jpg",
    "address": "福岡県柳川市三橋町蒲船津121-2",
    "rating": 3.67,
    "ratingCount": 159,
    "lat": 33.163802127341405,
    "lng": 130.42953007550096,
    "year": 2025,
    "award": "2025 ・ 百名店 洋食 西日本",
    "genre": "洋食"
  },
  {
    "rank": 49,
    "id": "45003540",
    "name": "GRILL 爛漫",
    "url": "https://tabelog.com/miyazaki/A4501/A450101/45003540/",
    "image": "https://tblg.k-img.com/restaurant/images/Rvw/366401/640x640_rect_e497f491d8b3333ae7dac081e5d5347b.jpg",
    "address": "宮崎県宮崎市中央通6-3 ウエストビル 1F",
    "rating": 3.77,
    "ratingCount": 390,
    "lat": 31.91525723764472,
    "lng": 131.4208922510328,
    "year": 2025,
    "award": "2025 ・ 百名店 洋食 西日本",
    "genre": "洋食"
  },
  {
    "rank": 50,
    "id": "40006396",
    "name": "ボンバーキッチン 薬院本店",
    "url": "https://tabelog.com/fukuoka/A4001/A400104/40006396/",
    "image": "https://tblg.k-img.com/restaurant/images/Rvw/171402/640x640_rect_0dc6668f040db56b790ced1d010e5d20.jpg",
    "address": "福岡県福岡市中央区薬院2-2-18",
    "rating": 3.56,
    "ratingCount": 393,
    "lat": 33.58208700706517,
    "lng": 130.3963329797493,
    "year": 2025,
    "award": "2025 ・ 百名店 洋食 西日本",
    "genre": "洋食"
  },
  {
    "rank": 51,
    "id": "28002214",
    "name": "ビストロ 卓",
    "url": "https://tabelog.com/hyogo/A2801/A280102/28002214/",
    "image": "https://tblg.k-img.com/restaurant/images/Rvw/347566/640x640_rect_fb524385f1ef3f36b6a8f828867dddf1.jpg",
    "address": "兵庫県神戸市中央区海岸通4-4-5 八千代ビル　１Ｆ",
    "rating": 3.57,
    "ratingCount": 135,
    "lat": 34.68565249526248,
    "lng": 135.1845270599008,
    "year": 2025,
    "award": "2025 ・ 百名店 洋食 西日本",
    "genre": "洋食"
  },
  {
    "rank": 52,
    "id": "29007516",
    "name": "ゆき亭",
    "url": "https://tabelog.com/nara/A2901/A290101/29007516/",
    "image": "https://tblg.k-img.com/restaurant/images/Rvw/71560/640x640_rect_71560731.jpg",
    "address": "奈良県奈良市高御門町4-1",
    "rating": 3.51,
    "ratingCount": 278,
    "lat": 34.67748833809965,
    "lng": 135.82924222700555,
    "year": 2025,
    "award": "2025 ・ 百名店 洋食 西日本",
    "genre": "洋食"
  },
  {
    "rank": 53,
    "id": "39000346",
    "name": "コックドール",
    "url": "https://tabelog.com/kochi/A3901/A390101/39000346/",
    "image": "https://tblg.k-img.com/restaurant/images/Rvw/317649/640x640_rect_826a8e36593d2a6c82f2b7a57e09d8b1.jpg",
    "address": "高知県高知市帯屋町1-13-13",
    "rating": 3.74,
    "ratingCount": 232,
    "lat": 33.56009575807971,
    "lng": 133.53817641732482,
    "year": 2025,
    "award": "2025 ・ 百名店 洋食 西日本",
    "genre": "洋食"
  },
  {
    "rank": 54,
    "id": "40064441",
    "name": "玉子物語 エッグストーリー",
    "url": "https://tabelog.com/fukuoka/A4004/A400401/40064441/",
    "image": "https://tblg.k-img.com/restaurant/images/Rvw/348873/640x640_rect_3b36411a2ac3529422bdf6f987b6f755.jpg",
    "address": "福岡県北九州市小倉北区浅野2-1-34",
    "rating": 3.61,
    "ratingCount": 147,
    "lat": 33.88826126702443,
    "lng": 130.87905044250357,
    "year": 2025,
    "award": "2025 ・ 百名店 洋食 西日本",
    "genre": "洋食"
  },
  {
    "rank": 55,
    "id": "40006197",
    "name": "グリル千",
    "url": "https://tabelog.com/fukuoka/A4001/A400105/40006197/",
    "image": "https://tblg.k-img.com/restaurant/images/Rvw/30799/640x640_rect_30799696.jpg",
    "address": "福岡県福岡市中央区笹丘1丁目35-10",
    "rating": 3.67,
    "ratingCount": 198,
    "lat": 33.56742070706834,
    "lng": 130.37703295961467,
    "year": 2025,
    "award": "2025 ・ 百名店 洋食 西日本",
    "genre": "洋食"
  },
  {
    "rank": 56,
    "id": "27070293",
    "name": "四ツ橋カフェ",
    "url": "https://tabelog.com/osaka/A2701/A270201/27070293/",
    "image": "https://tblg.k-img.com/restaurant/images/Rvw/211797/640x640_rect_b44f543f0c11654debe322c54363c140.jpg",
    "address": "大阪府大阪市西区新町1丁目9-17 ジェイ四ツ橋ビル １Ｆ",
    "rating": 3.58,
    "ratingCount": 455,
    "lat": 34.6774533371882,
    "lng": 135.496055776077,
    "year": 2025,
    "award": "2025 ・ 百名店 洋食 西日本",
    "genre": "洋食"
  },
  {
    "rank": 57,
    "id": "27001308",
    "name": "重亭",
    "url": "https://tabelog.com/osaka/A2701/A270202/27001308/",
    "image": "https://tblg.k-img.com/restaurant/images/Rvw/351651/640x640_rect_c67e7be8ef830e791cbdbfd7a165ad91.jpg",
    "address": "大阪府大阪市中央区難波3-1-30",
    "rating": 3.67,
    "ratingCount": 1463,
    "lat": 34.666223818002656,
    "lng": 135.502208117121,
    "year": 2025,
    "award": "2025 ・ 百名店 洋食 西日本",
    "genre": "洋食"
  },
  {
    "rank": 58,
    "id": "29000658",
    "name": "つよしのコロッケ本舗",
    "url": "https://tabelog.com/nara/A2901/A290102/29000658/",
    "image": "https://tblg.k-img.com/restaurant/images/Rvw/364777/640x640_rect_b533a1c30f7cf24f424e3e4995ef2346.jpg",
    "address": "奈良県奈良市学園大和町1-1-1",
    "rating": 3.58,
    "ratingCount": 221,
    "lat": 34.68770674806692,
    "lng": 135.74684062716653,
    "year": 2025,
    "award": "2025 ・ 百名店 洋食 西日本",
    "genre": "洋食"
  },
  {
    "rank": 59,
    "id": "26001680",
    "name": "グリル＆コーヒー はせがわ",
    "url": "https://tabelog.com/kyoto/A2601/A260503/26001680/",
    "image": "https://tblg.k-img.com/restaurant/images/Rvw/187052/640x640_rect_f469b09d28e9056ec1ad461902f0d86e.jpg",
    "address": "京都府京都市北区小山下内河原町68",
    "rating": 3.66,
    "ratingCount": 939,
    "lat": 35.04391768784536,
    "lng": 135.76153421075426,
    "year": 2025,
    "award": "2025 ・ 百名店 洋食 西日本",
    "genre": "洋食"
  },
  {
    "rank": 60,
    "id": "42007008",
    "name": "プリムローズ",
    "url": "https://tabelog.com/nagasaki/A4201/A420101/42007008/",
    "image": "https://tblg.k-img.com/restaurant/images/Rvw/57604/640x640_rect_57604641.jpg",
    "address": "長崎県長崎市古川町3-3 若喜屋ビル 2F",
    "rating": 3.59,
    "ratingCount": 279,
    "lat": 32.746780636625864,
    "lng": 129.87991786051214,
    "year": 2025,
    "award": "2025 ・ 百名店 洋食 西日本",
    "genre": "洋食"
  },
  {
    "rank": 61,
    "id": "26026540",
    "name": "洋食 おがた",
    "url": "https://tabelog.com/kyoto/A2601/A260202/26026540/",
    "image": "https://tblg.k-img.com/restaurant/images/Rvw/236769/640x640_rect_b989951deb21a25a5c6fd330aa9b8b99.jpg",
    "address": "京都府京都市中京区柳馬場押小路上ル等持寺町32-1",
    "rating": 4.04,
    "ratingCount": 561,
    "lat": 35.01247068786614,
    "lng": 135.7640526404349,
    "year": 2025,
    "award": "2025 ・ 百名店 洋食 西日本",
    "genre": "洋食"
  },
  {
    "rank": 62,
    "id": "27011458",
    "name": "味の店 一番",
    "url": "https://tabelog.com/osaka/A2705/A270501/27011458/",
    "image": "https://tblg.k-img.com/restaurant/images/Rvw/123107/640x640_rect_123107283.jpg",
    "address": "大阪府堺市北区中百舌鳥町6-882-3",
    "rating": 3.54,
    "ratingCount": 732,
    "lat": 34.552961458075224,
    "lng": 135.50418746597558,
    "year": 2025,
    "award": "2025 ・ 百名店 洋食 西日本",
    "genre": "洋食"
  },
  {
    "rank": 63,
    "id": "27122769",
    "name": "ニク サングルマン",
    "url": "https://tabelog.com/osaka/A2701/A270103/27122769/",
    "image": "https://tblg.k-img.com/restaurant/images/Rvw/276546/640x640_rect_ae3bfd999d8cc3da15a5cb91476c3cb7.jpg",
    "address": "大阪府大阪市北区天神橋3-10-8 与力町スカイハイツ 102",
    "rating": 3.56,
    "ratingCount": 827,
    "lat": 34.701980977983176,
    "lng": 135.51233895747512,
    "year": 2025,
    "award": "2025 ・ 百名店 洋食 西日本",
    "genre": "洋食"
  },
  {
    "rank": 64,
    "id": "26006119",
    "name": "コリス",
    "url": "https://tabelog.com/kyoto/A2601/A260301/26006119/",
    "image": "https://tblg.k-img.com/restaurant/images/Rvw/366926/640x640_rect_72c9e9c131391f9127e6bcf599690dea.jpg",
    "address": "京都府京都市東山区松原通大和大路東入2丁目轆轤町101",
    "rating": 3.91,
    "ratingCount": 234,
    "lat": 34.99763817787881,
    "lng": 135.7742811502779,
    "year": 2025,
    "award": "2025 ・ 百名店 洋食 西日本",
    "genre": "洋食"
  },
  {
    "rank": 65,
    "id": "27084692",
    "name": "ニューとん助",
    "url": "https://tabelog.com/osaka/A2701/A270404/27084692/",
    "image": "https://tblg.k-img.com/restaurant/images/Rvw/87411/640x640_rect_87411320.jpg",
    "address": "大阪府大阪市住之江区中加賀屋3-1-22",
    "rating": 3.63,
    "ratingCount": 405,
    "lat": 34.61678733802739,
    "lng": 135.48127363663633,
    "year": 2025,
    "award": "2025 ・ 百名店 洋食 西日本",
    "genre": "洋食"
  },
  {
    "rank": 66,
    "id": "26000658",
    "name": "グリルフレンチ",
    "url": "https://tabelog.com/kyoto/A2601/A260203/26000658/",
    "image": "https://tblg.k-img.com/restaurant/images/Rvw/121182/640x640_rect_121182420.jpg",
    "address": "京都府京都市中京区小川通御池上ル下古城町377",
    "rating": 3.92,
    "ratingCount": 647,
    "lat": 35.01200275786328,
    "lng": 135.7541216104371,
    "year": 2025,
    "award": "2025 ・ 百名店 洋食 西日本",
    "genre": "洋食"
  },
  {
    "rank": 67,
    "id": "27000886",
    "name": "グリルばらの木",
    "url": "https://tabelog.com/osaka/A2701/A270201/27000886/",
    "image": "https://tblg.k-img.com/restaurant/images/Rvw/259385/640x640_rect_0f56ae3fa5beae507e4a08a3376caeb4.jpg",
    "address": "大阪府大阪市中央区東心斎橋1-16-14 ばらの木ビル　１Ｆ",
    "rating": 3.7,
    "ratingCount": 517,
    "lat": 34.67207890799911,
    "lng": 135.5027268971798,
    "year": 2025,
    "award": "2025 ・ 百名店 洋食 西日本",
    "genre": "洋食"
  },
  {
    "rank": 68,
    "id": "27000884",
    "name": "乃呂",
    "url": "https://tabelog.com/osaka/A2701/A270201/27000884/",
    "image": "https://tblg.k-img.com/restaurant/images/Rvw/131240/320x320_square_131240338.jpg",
    "address": "大阪府大阪市中央区東心斎橋1-16-10",
    "rating": 3.53,
    "ratingCount": 113,
    "lat": 34.67206263719388,
    "lng": 135.50316617601754,
    "year": 2025,
    "award": "2025 ・ 百名店 洋食 西日本",
    "genre": "洋食"
  },
  {
    "rank": 69,
    "id": "28000847",
    "name": "伊藤グリル",
    "url": "https://tabelog.com/hyogo/A2801/A280102/28000847/",
    "image": "https://tblg.k-img.com/restaurant/images/Rvw/6037/640x640_rect_6037229.jpg",
    "address": "兵庫県神戸市中央区元町通1-6-6 イクシマビル　２Ｆ",
    "rating": 3.68,
    "ratingCount": 464,
    "lat": 34.68844063708313,
    "lng": 135.18807627640385,
    "year": 2025,
    "award": "2025 ・ 百名店 洋食 西日本",
    "genre": "洋食"
  },
  {
    "rank": 70,
    "id": "26031131",
    "name": "とくら 京都三条店",
    "url": "https://tabelog.com/kyoto/A2601/A260202/26031131/",
    "image": "https://tblg.k-img.com/restaurant/images/Rvw/344307/640x640_rect_488e9071f95b5136bfcb2e6243d71ece.jpg",
    "address": "京都府京都市中京区桝屋町57 京都三条ビル 1F",
    "rating": 3.57,
    "ratingCount": 755,
    "lat": 35.00883204786807,
    "lng": 135.76286269039898,
    "year": 2025,
    "award": "2025 ・ 百名店 洋食 西日本",
    "genre": "洋食"
  },
  {
    "rank": 71,
    "id": "28000591",
    "name": "洋食の朝日",
    "url": "https://tabelog.com/hyogo/A2801/A280102/28000591/",
    "image": "https://tblg.k-img.com/restaurant/images/Rvw/204407/640x640_rect_8b56e2ef850cca525f5ad242e85ff019.jpg",
    "address": "兵庫県神戸市中央区下山手通8-7-7",
    "rating": 3.73,
    "ratingCount": 1951,
    "lat": 34.68510641788768,
    "lng": 135.17882696753844,
    "year": 2025,
    "award": "2025 ・ 百名店 洋食 西日本",
    "genre": "洋食"
  },
  {
    "rank": 72,
    "id": "30000095",
    "name": "喫茶オリノ",
    "url": "https://tabelog.com/wakayama/A3001/A300101/30000095/",
    "image": "https://tblg.k-img.com/restaurant/images/Rvw/333877/640x640_rect_55f7af2fd34a787dacd84c4046aa3236.jpg",
    "address": "和歌山県和歌山市関戸5-7-15",
    "rating": 3.45,
    "ratingCount": 174,
    "lat": 34.193066658193956,
    "lng": 135.1592794025821,
    "year": 2025,
    "award": "2025 ・ 百名店 洋食 西日本",
    "genre": "洋食"
  },
  {
    "rank": 73,
    "id": "27001105",
    "name": "グリル梵",
    "url": "https://tabelog.com/osaka/A2701/A270206/27001105/",
    "image": "https://tblg.k-img.com/restaurant/images/Rvw/232562/640x640_rect_366d6367109de0652f27387cf043885a.jpg",
    "address": "大阪府大阪市浪速区恵美須東1-17-17",
    "rating": 3.57,
    "ratingCount": 482,
    "lat": 34.653310018012164,
    "lng": 135.5063165369877,
    "year": 2025,
    "award": "2025 ・ 百名店 洋食 西日本",
    "genre": "洋食"
  },
  {
    "rank": 74,
    "id": "42000129",
    "name": "望月",
    "url": "https://tabelog.com/nagasaki/A4205/A420501/42000129/",
    "image": "https://tblg.k-img.com/restaurant/images/Rvw/324488/640x640_rect_f3dbf6951b134b75e988b4d84dab4b95.jpg",
    "address": "長崎県五島市福江町5-12",
    "rating": 3.61,
    "ratingCount": 156,
    "lat": 32.6957356363276,
    "lng": 128.84156886072444,
    "year": 2025,
    "award": "2025 ・ 百名店 洋食 西日本",
    "genre": "洋食"
  },
  {
    "rank": 75,
    "id": "40051648",
    "name": "サチア ビーフストロガノフ",
    "url": "https://tabelog.com/fukuoka/A4001/A400201/40051648/",
    "image": "https://tblg.k-img.com/restaurant/images/Rvw/353755/640x640_rect_f060dbd3ace3a2ba849dd2c23fe487fd.jpg",
    "address": "福岡県福岡市東区馬出2-3-41",
    "rating": 3.7,
    "ratingCount": 279,
    "lat": 33.60943223624955,
    "lng": 130.41873146884805,
    "year": 2025,
    "award": "2025 ・ 百名店 洋食 西日本",
    "genre": "洋食"
  },
  {
    "rank": 76,
    "id": "28000390",
    "name": "グリル一平 新開地本店",
    "url": "https://tabelog.com/hyogo/A2801/A280109/28000390/",
    "image": "https://tblg.k-img.com/restaurant/images/Rvw/29174/640x640_rect_29174059.jpg",
    "address": "兵庫県神戸市兵庫区新開地2-5-5 リオ神戸　２Ｆ",
    "rating": 3.66,
    "ratingCount": 847,
    "lat": 34.6777786878896,
    "lng": 135.17023570747045,
    "year": 2025,
    "award": "2025 ・ 百名店 洋食 西日本",
    "genre": "洋食"
  },
  {
    "rank": 77,
    "id": "28069984",
    "name": "かくいにいくか",
    "url": "https://tabelog.com/hyogo/A2801/A280109/28069984/",
    "image": "https://tblg.k-img.com/restaurant/images/Rvw/260671/640x640_rect_3c9a62ac010e9308e96496cced01543c.jpg",
    "address": "兵庫県神戸市兵庫区荒田町4-13-17",
    "rating": 3.52,
    "ratingCount": 136,
    "lat": 34.684211787884244,
    "lng": 135.1662500875382,
    "year": 2025,
    "award": "2025 ・ 百名店 洋食 西日本",
    "genre": "洋食"
  },
  {
    "rank": 78,
    "id": "34029808",
    "name": "糠漬工房 nipote 三篠本店",
    "url": "https://tabelog.com/hiroshima/A3401/A340103/34029808/",
    "image": "https://tblg.k-img.com/restaurant/images/Rvw/306130/640x640_rect_15fa46c11489ded90f8062be9902241e.jpg",
    "address": "広島県広島市西区三篠町2-6-15",
    "rating": 3.62,
    "ratingCount": 64,
    "lat": 34.41376684719182,
    "lng": 132.45265750670862,
    "year": 2025,
    "award": "2025 ・ 百名店 洋食 西日本",
    "genre": "洋食"
  },
  {
    "rank": 79,
    "id": "29010542",
    "name": "洋食勝井",
    "url": "https://tabelog.com/nara/A2904/A290401/29010542/",
    "image": "https://tblg.k-img.com/restaurant/images/Rvw/364614/640x640_rect_f961c2af29fe36c5d1d7827e7cd72e0a.jpg",
    "address": "奈良県天理市柳本町577-1 天理市トレイルセンター",
    "rating": 3.65,
    "ratingCount": 255,
    "lat": 34.56025533737509,
    "lng": 135.84917547464565,
    "year": 2025,
    "award": "2025 ・ 百名店 洋食 西日本",
    "genre": "洋食"
  },
  {
    "rank": 80,
    "id": "34027799",
    "name": "み乃家",
    "url": "https://tabelog.com/hiroshima/A3401/A340103/34027799/",
    "image": "https://tblg.k-img.com/restaurant/images/Rvw/364463/640x640_rect_e2096b1ba275165442cf1bb255caa3ea.jpg",
    "address": "広島県広島市西区三篠町2-3-26",
    "rating": 3.71,
    "ratingCount": 140,
    "lat": 34.41390783638702,
    "lng": 132.4547610755468,
    "year": 2025,
    "award": "2025 ・ 百名店 洋食 西日本",
    "genre": "洋食"
  },
  {
    "rank": 81,
    "id": "37001618",
    "name": "平岡精肉店",
    "url": "https://tabelog.com/kagawa/A3703/A370302/37001618/",
    "image": "https://tblg.k-img.com/restaurant/images/Rvw/11484/640x640_rect_11484154.jpg",
    "address": "香川県仲多度郡琴平町220",
    "rating": 3.6,
    "ratingCount": 360,
    "lat": 34.188141057770615,
    "lng": 133.820133693471,
    "year": 2025,
    "award": "2025 ・ 百名店 洋食 西日本",
    "genre": "洋食"
  },
  {
    "rank": 82,
    "id": "44011342",
    "name": "アトリエ",
    "url": "https://tabelog.com/oita/A4402/A440202/44011342/",
    "image": "https://tblg.k-img.com/restaurant/images/Rvw/356242/640x640_rect_566bb485db0223b61e59b2288610c39a.jpg",
    "address": "大分県別府市大字鉄輪499-18 ANAインターコンチネンタル別府",
    "rating": 3.63,
    "ratingCount": 17,
    "lat": 33.31817622182777,
    "lng": 131.46102675731746,
    "year": 2025,
    "award": "2025 ・ 百名店 洋食 西日本",
    "genre": "洋食"
  },
  {
    "rank": 83,
    "id": "41000142",
    "name": "炭焼ハンバーグ 牛船",
    "url": "https://tabelog.com/saga/A4101/A410103/41000142/",
    "image": "https://tblg.k-img.com/restaurant/images/Rvw/339878/640x640_rect_1136c33ed6618b80d8000abc4d913673.jpg",
    "address": "佐賀県鳥栖市蔵上町2-121",
    "rating": 3.84,
    "ratingCount": 415,
    "lat": 33.37434376722929,
    "lng": 130.49740216758005,
    "year": 2025,
    "award": "2025 ・ 百名店 洋食 西日本",
    "genre": "洋食"
  },
  {
    "rank": 84,
    "id": "27019800",
    "name": "新富士本店",
    "url": "https://tabelog.com/osaka/A2701/A270406/27019800/",
    "image": "https://tblg.k-img.com/restaurant/images/Rvw/39793/640x640_rect_39793983.jpg",
    "address": "大阪府大阪市西成区千本南2丁目3-5",
    "rating": 3.6,
    "ratingCount": 552,
    "lat": 34.629850008021684,
    "lng": 135.48940476676256,
    "year": 2025,
    "award": "2025 ・ 百名店 洋食 西日本",
    "genre": "洋食"
  },
  {
    "rank": 85,
    "id": "40047397",
    "name": "La Casa",
    "url": "https://tabelog.com/fukuoka/A4003/A400302/40047397/",
    "image": "https://tblg.k-img.com/restaurant/images/Rvw/344529/640x640_rect_4b4b4f77dad0ae8431a30e842bfe7cf4.jpg",
    "address": "福岡県宗像市深田62-6",
    "rating": 3.67,
    "ratingCount": 60,
    "lat": 33.83288749694343,
    "lng": 130.51424107219998,
    "year": 2025,
    "award": "2025 ・ 百名店 洋食 西日本",
    "genre": "洋食"
  },
  {
    "rank": 86,
    "id": "27002873",
    "name": "ポッケ",
    "url": "https://tabelog.com/osaka/A2701/A270205/27002873/",
    "image": "https://tblg.k-img.com/restaurant/images/Rvw/18651/640x640_rect_18651924.jpg",
    "address": "大阪府大阪市生野区桃谷2-28-17",
    "rating": 3.65,
    "ratingCount": 395,
    "lat": 34.65824000801683,
    "lng": 135.53078452702036,
    "year": 2025,
    "award": "2025 ・ 百名店 洋食 西日本",
    "genre": "洋食"
  },
  {
    "rank": 87,
    "id": "28048408",
    "name": "洋食の藤",
    "url": "https://tabelog.com/hyogo/A2801/A280102/28048408/",
    "image": "https://tblg.k-img.com/restaurant/images/Rvw/360551/640x640_rect_aaf9fd04d5de8b32b90e0304cacb74eb.jpg",
    "address": "兵庫県神戸市中央区相生町5-10-21",
    "rating": 3.57,
    "ratingCount": 651,
    "lat": 34.676274477892996,
    "lng": 135.17789856744986,
    "year": 2025,
    "award": "2025 ・ 百名店 洋食 西日本",
    "genre": "洋食"
  },
  {
    "rank": 88,
    "id": "27014566",
    "name": "ムグニ",
    "url": "https://tabelog.com/osaka/A2701/A270201/27014566/",
    "image": "https://tblg.k-img.com/restaurant/images/Rvw/17519/640x640_rect_17519765.jpg",
    "address": "大阪府大阪市中央区西心斎橋2-9-5 日宝三ツ寺会館 1F",
    "rating": 3.59,
    "ratingCount": 664,
    "lat": 34.67058188799895,
    "lng": 135.4992777671671,
    "year": 2025,
    "award": "2025 ・ 百名店 洋食 西日本",
    "genre": "洋食"
  },
  {
    "rank": 89,
    "id": "27133701",
    "name": "めがねや",
    "url": "https://tabelog.com/osaka/A2701/A270302/27133701/",
    "image": "https://tblg.k-img.com/restaurant/images/Rvw/204063/320x320_rect_619bb8b8c89416c12191b51f04ce27f3.jpg",
    "address": "大阪府大阪市淀川区十三本町2-4-4",
    "rating": 3.53,
    "ratingCount": 174,
    "lat": 34.721556437155336,
    "lng": 135.48082467653316,
    "year": 2025,
    "award": "2025 ・ 百名店 洋食 西日本",
    "genre": "洋食"
  },
  {
    "rank": 90,
    "id": "42000657",
    "name": "下町の洋食 時代屋",
    "url": "https://tabelog.com/nagasaki/A4202/A420201/42000657/",
    "image": "https://tblg.k-img.com/restaurant/images/Rvw/30986/640x640_rect_30986357.jpg",
    "address": "長崎県佐世保市吉福町172-1",
    "rating": 3.58,
    "ratingCount": 417,
    "lat": 33.16475289715173,
    "lng": 129.83584665592673,
    "year": 2025,
    "award": "2025 ・ 百名店 洋食 西日本",
    "genre": "洋食"
  },
  {
    "rank": 91,
    "id": "27012521",
    "name": "洋食屋 ふじ家",
    "url": "https://tabelog.com/osaka/A2701/A270106/27012521/",
    "image": "https://tblg.k-img.com/restaurant/images/Rvw/200871/640x640_rect_9a6119f8a858556f9d3901b4c93a6064.jpg",
    "address": "大阪府大阪市中央区鎗屋町2-2-1",
    "rating": 3.65,
    "ratingCount": 990,
    "lat": 34.682629137190354,
    "lng": 135.5131390761173,
    "year": 2025,
    "award": "2025 ・ 百名店 洋食 西日本",
    "genre": "洋食"
  },
  {
    "rank": 92,
    "id": "43000997",
    "name": "洋食の店 橋本",
    "url": "https://tabelog.com/kumamoto/A4301/A430101/43000997/",
    "image": "https://tblg.k-img.com/restaurant/images/Rvw/282011/640x640_rect_73ad0e632d52ecb555f31a3433fc9501.jpg",
    "address": "熊本県熊本市中央区上通町1-24 ビアーレビル2F",
    "rating": 3.93,
    "ratingCount": 423,
    "lat": 32.8039674720946,
    "lng": 130.7105009584893,
    "year": 2025,
    "award": "2025 ・ 百名店 洋食 西日本",
    "genre": "洋食"
  },
  {
    "rank": 93,
    "id": "27007738",
    "name": "Revo 本店",
    "url": "https://tabelog.com/osaka/A2701/A270406/27007738/",
    "image": "https://tblg.k-img.com/restaurant/images/Rvw/8147/640x640_rect_8147312.jpg",
    "address": "大阪府大阪市西成区岸里1-3-21",
    "rating": 3.7,
    "ratingCount": 616,
    "lat": 34.63598671801953,
    "lng": 135.49489379682072,
    "year": 2025,
    "award": "2025 ・ 百名店 洋食 西日本",
    "genre": "洋食"
  },
  {
    "rank": 94,
    "id": "27001834",
    "name": "明治軒",
    "url": "https://tabelog.com/osaka/A2701/A270201/27001834/",
    "image": "https://tblg.k-img.com/restaurant/images/Rvw/210480/640x640_rect_00dceae589e83718fef1f4dfc7f9561e.jpg",
    "address": "大阪府大阪市中央区心斎橋筋1-5-32",
    "rating": 3.49,
    "ratingCount": 1647,
    "lat": 34.67266944799858,
    "lng": 135.5022403871861,
    "year": 2025,
    "award": "2025 ・ 百名店 洋食 西日本",
    "genre": "洋食"
  },
  {
    "rank": 95,
    "id": "38012016",
    "name": "洋食屋 Shii",
    "url": "https://tabelog.com/ehime/A3801/A380101/38012016/",
    "image": "https://tblg.k-img.com/restaurant/images/Rvw/219439/640x640_rect_7e7d73238a3a795fa093e922f96b3c62.jpg",
    "address": "愛媛県松山市三番町5-3-8 フレッシュリーブス 404",
    "rating": 3.73,
    "ratingCount": 224,
    "lat": 33.837178987656905,
    "lng": 132.76314439066692,
    "year": 2025,
    "award": "2025 ・ 百名店 洋食 西日本",
    "genre": "洋食"
  },
  {
    "rank": 96,
    "id": "27127796",
    "name": "TOROMI洋食堂",
    "url": "https://tabelog.com/osaka/A2701/A270101/27127796/",
    "image": "https://tblg.k-img.com/restaurant/images/Rvw/350535/640x640_rect_46d7bace6156c73c3f430cc9ade315ab.jpg",
    "address": "大阪府大阪市北区中崎西1-7-17",
    "rating": 3.58,
    "ratingCount": 129,
    "lat": 34.70769910797684,
    "lng": 135.5038726175388,
    "year": 2025,
    "award": "2025 ・ 百名店 洋食 西日本",
    "genre": "洋食"
  },
  {
    "rank": 97,
    "id": "27079342",
    "name": "サクラグリル",
    "url": "https://tabelog.com/osaka/A2706/A270602/27079342/",
    "image": "https://tblg.k-img.com/restaurant/images/Rvw/335114/640x640_rect_6939ad002f8d43a672095120d8ca4a6d.jpg",
    "address": "大阪府豊中市上新田4-16-11 グランベール千里 1F",
    "rating": 3.61,
    "ratingCount": 123,
    "lat": 34.799792927918304,
    "lng": 135.50371373846914,
    "year": 2025,
    "award": "2025 ・ 百名店 洋食 西日本",
    "genre": "洋食"
  },
  {
    "rank": 98,
    "id": "28035422",
    "name": "洋食ますだ",
    "url": "https://tabelog.com/hyogo/A2801/A280102/28035422/",
    "image": "https://tblg.k-img.com/restaurant/images/Rvw/364130/640x640_rect_8f15d8c36d7df05556caadb1129af7eb.jpg",
    "address": "兵庫県神戸市中央区花隈町33-12",
    "rating": 3.52,
    "ratingCount": 186,
    "lat": 34.68887735788564,
    "lng": 135.17993573757576,
    "year": 2025,
    "award": "2025 ・ 百名店 洋食 西日本",
    "genre": "洋食"
  },
  {
    "rank": 99,
    "id": "18000015",
    "name": "ヨーロッパ軒 総本店",
    "url": "https://tabelog.com/fukui/A1801/A180101/18000015/",
    "image": "https://tblg.k-img.com/restaurant/images/Rvw/310069/640x640_rect_daddf7e20ac0d8b81b3b4b359fc62002.jpg",
    "address": "福井県福井市順化1-7-4",
    "rating": 3.69,
    "ratingCount": 2314,
    "lat": 36.06408169734178,
    "lng": 136.21478979074115,
    "year": 2025,
    "award": "2025 ・ 百名店 洋食 西日本",
    "genre": "洋食"
  },
  {
    "rank": 100,
    "id": "28044018",
    "name": "洋食屋ゆうき",
    "url": "https://tabelog.com/hyogo/A2801/A280109/28044018/",
    "image": "https://tblg.k-img.com/restaurant/images/Rvw/365870/640x640_rect_a9931fe40767faa25878c6281b10af68.jpg",
    "address": "兵庫県神戸市兵庫区湊町4-2-12 リビース湊川 1F",
    "rating": 3.56,
    "ratingCount": 523,
    "lat": 34.67625558789067,
    "lng": 135.17056370745485,
    "year": 2025,
    "award": "2025 ・ 百名店 洋食 西日本",
    "genre": "洋食"
  }
]