[
  {
    "rank": 1,
    "id": "26037542",
    "name": "SPICE GATE",
    "url": "https://tabelog.com/kyoto/A2601/A260201/26037542/",
    "image": "https://tblg.k-img.com/restaurant/images/Rvw/186028/640x640_rect_ae02f8435a2d604e2d71fe721b2f2b80.jpg",
    "address": "京都府京都市下京区恵美須之町546 しきさい寺町ビル 2F",
    "rating": 3.66,
    "ratingCount": 771,
    "lat": 35.00069813706919,
    "lng": 135.7670375791521,
    "year": 2026,
    "award": "2026 ・ 百名店 カレー 西日本"
  },
  {
    "rank": 2,
    "id": "27118198",
    "name": "カリー＆ナイス カトゥール",
    "url": "https://tabelog.com/osaka/A2701/A270104/27118198/",
    "image": "https://tblg.k-img.com/restaurant/images/Rvw/360136/640x640_rect_39c6fa0be8a4f5b53dd4bf7891e8a6ad.jpg",
    "address": "大阪府大阪市中央区東高麗橋2-1 ルート中之島ビル 2Ｆ",
    "rating": 3.67,
    "ratingCount": 412,
    "lat": 34.68904205799113,
    "lng": 135.51151461734497,
    "year": 2026,
    "award": "2026 ・ 百名店 カレー 西日本"
  },
  {
    "rank": 3,
    "id": "27001963",
    "name": "curry restaurant BRUNO HEP NAVIO店",
    "url": "https://tabelog.com/osaka/A2701/A270101/27001963/",
    "image": "https://tblg.k-img.com/restaurant/images/Rvw/54070/320x320_rect_54070710.jpg",
    "address": "大阪府大阪市北区角田町7-10 HEP NAVIO 7F",
    "rating": 3.67,
    "ratingCount": 1304,
    "lat": 34.70309242797851,
    "lng": 135.499921127495,
    "year": 2026,
    "award": "2026 ・ 百名店 カレー 西日本"
  },
  {
    "rank": 4,
    "id": "27117152",
    "name": "百薫香辛食堂",
    "url": "https://tabelog.com/osaka/A2701/A270106/27117152/",
    "image": "https://tblg.k-img.com/restaurant/images/Rvw/366508/640x640_rect_ecf39f0c93875ab7519ebfa770d0510c.jpg",
    "address": "大阪府大阪市中央区南本町3-5-5 プラスビル 2F",
    "rating": 3.7,
    "ratingCount": 716,
    "lat": 34.68283225799184,
    "lng": 135.50138739728934,
    "year": 2026,
    "award": "2026 ・ 百名店 カレー 西日本"
  },
  {
    "rank": 5,
    "id": "27080580",
    "name": "さぼてん食堂",
    "url": "https://tabelog.com/osaka/A2701/A270102/27080580/",
    "image": "https://tblg.k-img.com/restaurant/images/Rvw/130149/640x640_rect_130149680.jpg",
    "address": "大阪府大阪市西区江戸堀1-23-12",
    "rating": 3.69,
    "ratingCount": 1084,
    "lat": 34.68946447798529,
    "lng": 135.49401529736153,
    "year": 2026,
    "award": "2026 ・ 百名店 カレー 西日本"
  },
  {
    "rank": 6,
    "id": "27088233",
    "name": "谷口カレー",
    "url": "https://tabelog.com/osaka/A2701/A270102/27088233/",
    "image": "https://tblg.k-img.com/restaurant/images/Rvw/239614/640x640_rect_e667e29a0691c4db3e9f7884ec940e81.jpg",
    "address": "大阪府大阪市中央区平野町1-2-1 FOLK old book store",
    "rating": 3.65,
    "ratingCount": 516,
    "lat": 34.687141899595225,
    "lng": 135.5094052880004,
    "year": 2026,
    "award": "2026 ・ 百名店 カレー 西日本"
  },
  {
    "rank": 7,
    "id": "27106043",
    "name": "ニタカリバンチャ",
    "url": "https://tabelog.com/osaka/A2701/A270104/27106043/",
    "image": "https://tblg.k-img.com/restaurant/images/Rvw/120883/640x640_rect_120883568.jpg",
    "address": "大阪府大阪市中央区内淡路町2-2-1 木村ビル 1F",
    "rating": 3.65,
    "ratingCount": 275,
    "lat": 34.68640878799338,
    "lng": 135.5133226573171,
    "year": 2026,
    "award": "2026 ・ 百名店 カレー 西日本"
  },
  {
    "rank": 8,
    "id": "26027864",
    "name": "ムジャラ",
    "url": "https://tabelog.com/kyoto/A2601/A260203/26027864/",
    "image": "https://tblg.k-img.com/restaurant/images/Rvw/249807/640x640_rect_8bfc8d37496fc0f01dd7fe457b33625c.jpg",
    "address": "京都府京都市下京区高辻通大宮西入坊門町832 イツワマンション 1F",
    "rating": 3.65,
    "ratingCount": 432,
    "lat": 35.000144007868826,
    "lng": 135.74790713032172,
    "year": 2026,
    "award": "2026 ・ 百名店 カレー 西日本"
  },
  {
    "rank": 9,
    "id": "27082257",
    "name": "レベルカレー",
    "url": "https://tabelog.com/osaka/A2701/A270106/27082257/",
    "image": "https://tblg.k-img.com/restaurant/images/Rvw/36040/640x640_rect_36040707.jpg",
    "address": "大阪府大阪市中央区南本町3-3-23 インペリアル船場ビル 2F",
    "rating": 3.7,
    "ratingCount": 673,
    "lat": 34.682512737186926,
    "lng": 135.50216987612382,
    "year": 2026,
    "award": "2026 ・ 百名店 カレー 西日本"
  },
  {
    "rank": 10,
    "id": "27129579",
    "name": "コイチカレー",
    "url": "https://tabelog.com/osaka/A2701/A270201/27129579/",
    "image": "https://tblg.k-img.com/restaurant/images/Rvw/366511/640x640_rect_d8177e789be7ee61d4dfe44d38dbc039.jpg",
    "address": "大阪府大阪市中央区東心斎橋1-4-7 第3松野ビル 1F",
    "rating": 3.6,
    "ratingCount": 182,
    "lat": 34.67297233799959,
    "lng": 135.5060168371865,
    "year": 2026,
    "award": "2026 ・ 百名店 カレー 西日本"
  },
  {
    "rank": 11,
    "id": "27012792",
    "name": "モジャカレー 新大阪本店",
    "url": "https://tabelog.com/osaka/A2701/A270301/27012792/",
    "image": "https://tblg.k-img.com/restaurant/images/Rvw/333290/640x640_rect_b3dc01526cdd582728d50325c58f8367.jpg",
    "address": "大阪府大阪市淀川区西中島5-16-1 JR新大阪駅 1F 味の小路",
    "rating": 3.69,
    "ratingCount": 1768,
    "lat": 34.73306243795944,
    "lng": 135.49979302779784,
    "year": 2026,
    "award": "2026 ・ 百名店 カレー 西日本"
  },
  {
    "rank": 12,
    "id": "27084538",
    "name": "旧ヤム鐵道",
    "url": "https://tabelog.com/osaka/A2701/A270101/27084538/",
    "image": "https://tblg.k-img.com/restaurant/images/Rvw/141117/640x640_rect_141117119.jpg",
    "address": "大阪府大阪市北区梅田3-1-3 ルクアイーレ B2Fバルチカ",
    "rating": 3.71,
    "ratingCount": 3025,
    "lat": 34.70334801797719,
    "lng": 135.49627688750016,
    "year": 2026,
    "award": "2026 ・ 百名店 カレー 西日本"
  },
  {
    "rank": 13,
    "id": "27064588",
    "name": "スパイスカリー バビルの塔",
    "url": "https://tabelog.com/osaka/A2701/A270104/27064588/",
    "image": "https://tblg.k-img.com/restaurant/images/Rvw/20985/640x640_rect_20985906.jpg",
    "address": "大阪府大阪市中央区徳井町2-4-5 エクセル内本町ハイツ 1F",
    "rating": 3.69,
    "ratingCount": 680,
    "lat": 34.68425091799457,
    "lng": 135.51273900729572,
    "year": 2026,
    "award": "2026 ・ 百名店 カレー 西日本"
  },
  {
    "rank": 14,
    "id": "27000588",
    "name": "ボタ",
    "url": "https://tabelog.com/osaka/A2701/A270201/27000588/",
    "image": "https://tblg.k-img.com/restaurant/images/Rvw/361217/640x640_rect_cb2a2001fa7e6487a240f348cb9ca073.jpg",
    "address": "大阪府大阪市中央区東心斎橋1-8-20",
    "rating": 3.65,
    "ratingCount": 365,
    "lat": 34.67391265799851,
    "lng": 135.50450998719705,
    "year": 2026,
    "award": "2026 ・ 百名店 カレー 西日本"
  },
  {
    "rank": 15,
    "id": "27081491",
    "name": "まんねんカレー",
    "url": "https://tabelog.com/osaka/A2701/A270104/27081491/",
    "image": "https://tblg.k-img.com/restaurant/images/Rvw/38192/640x640_rect_38192512.jpg",
    "address": "大阪府大阪市中央区徳井町2-4-3 双葉グランドプラザ 101",
    "rating": 3.64,
    "ratingCount": 653,
    "lat": 34.68426495799464,
    "lng": 135.51301309729567,
    "year": 2026,
    "award": "2026 ・ 百名店 カレー 西日本"
  },
  {
    "rank": 16,
    "id": "29006593",
    "name": "若草カレー本舗",
    "url": "https://tabelog.com/nara/A2901/A290101/29006593/",
    "image": "https://tblg.k-img.com/restaurant/images/Rvw/71949/640x640_rect_71949564.jpg",
    "address": "奈良県奈良市餅飯殿町38-1",
    "rating": 3.62,
    "ratingCount": 720,
    "lat": 34.68078363729211,
    "lng": 135.82900587587721,
    "year": 2026,
    "award": "2026 ・ 百名店 カレー 西日本"
  },
  {
    "rank": 17,
    "id": "27104341",
    "name": "渡邊カリー 心斎橋店",
    "url": "https://tabelog.com/osaka/A2701/A270201/27104341/",
    "image": "https://tblg.k-img.com/restaurant/images/Rvw/354911/640x640_rect_deea0f68c51cfd82551c2d0fd754e7b2.jpg",
    "address": "大阪府大阪市中央区南船場3-8-11 心斎橋元村ビル 202",
    "rating": 3.64,
    "ratingCount": 545,
    "lat": 34.67763959799522,
    "lng": 135.5016166072367,
    "year": 2026,
    "award": "2026 ・ 百名店 カレー 西日本"
  },
  {
    "rank": 18,
    "id": "28000142",
    "name": "アングル",
    "url": "https://tabelog.com/hyogo/A2803/A280304/28000142/",
    "image": "https://tblg.k-img.com/restaurant/images/Rvw/129058/640x640_rect_129058899.jpg",
    "address": "兵庫県尼崎市南塚口町2-1-2 塚口さんさんタウン２番館　１Ｆ",
    "rating": 3.68,
    "ratingCount": 1471,
    "lat": 34.75176058379993,
    "lng": 135.4162964344079,
    "year": 2026,
    "award": "2026 ・ 百名店 カレー 西日本"
  },
  {
    "rank": 19,
    "id": "27002387",
    "name": "もりやま屋",
    "url": "https://tabelog.com/osaka/A2701/A270102/27002387/",
    "image": "https://tblg.k-img.com/restaurant/images/Rvw/53197/640x640_rect_53197055.jpg",
    "address": "大阪府大阪市北区西天満2-3-15 千都ビル　１Ｆ　　",
    "rating": 3.69,
    "ratingCount": 657,
    "lat": 34.69603880798397,
    "lng": 135.50298019742164,
    "year": 2026,
    "award": "2026 ・ 百名店 カレー 西日本"
  },
  {
    "rank": 20,
    "id": "27126498",
    "name": "カレー屋バンバン",
    "url": "https://tabelog.com/osaka/A2701/A270105/27126498/",
    "image": "https://tblg.k-img.com/restaurant/images/Rvw/366719/640x640_rect_8bc9a47e75a9b822ff62e46ffbc3f5bc.jpg",
    "address": "大阪府大阪市西区立売堀4-1-17 野村ビル 2F",
    "rating": 3.6,
    "ratingCount": 222,
    "lat": 34.68076873718371,
    "lng": 135.48859127611573,
    "year": 2026,
    "award": "2026 ・ 百名店 カレー 西日本"
  },
  {
    "rank": 21,
    "id": "27091498",
    "name": "カレー専門店 白銀亭  イトゥビル店",
    "url": "https://tabelog.com/osaka/A2701/A270106/27091498/",
    "image": "https://tblg.k-img.com/restaurant/images/Rvw/256160/640x640_rect_0195ac58b6e6f237250524d9b93e41d8.jpg",
    "address": "大阪府大阪市中央区南本町3-6-14 イトゥビル B2F",
    "rating": 3.66,
    "ratingCount": 727,
    "lat": 34.68254323799195,
    "lng": 135.50111820728662,
    "year": 2026,
    "award": "2026 ・ 百名店 カレー 西日本"
  },
  {
    "rank": 22,
    "id": "27089469",
    "name": "ラーマ",
    "url": "https://tabelog.com/osaka/A2701/A270105/27089469/",
    "image": "https://tblg.k-img.com/restaurant/images/Rvw/100510/640x640_rect_100510371.jpg",
    "address": "大阪府大阪市西区土佐堀2-3-23 板東ビル 2F",
    "rating": 3.65,
    "ratingCount": 366,
    "lat": 34.68804618798454,
    "lng": 135.4888366873508,
    "year": 2026,
    "award": "2026 ・ 百名店 カレー 西日本"
  },
  {
    "rank": 23,
    "id": "27004092",
    "name": "マジックスパイス なにわ店",
    "url": "https://tabelog.com/osaka/A2701/A270206/27004092/",
    "image": "https://tblg.k-img.com/restaurant/images/Rvw/22575/640x640_rect_22575674.jpg",
    "address": "大阪府大阪市浪速区稲荷1-10-20",
    "rating": 3.62,
    "ratingCount": 668,
    "lat": 34.664709138000084,
    "lng": 135.49108944711352,
    "year": 2026,
    "award": "2026 ・ 百名店 カレー 西日本"
  },
  {
    "rank": 24,
    "id": "28035822",
    "name": "サトナカ",
    "url": "https://tabelog.com/hyogo/A2801/A280102/28035822/",
    "image": "https://tblg.k-img.com/restaurant/images/Rvw/70470/640x640_rect_70470257.jpg",
    "address": "兵庫県神戸市中央区八幡通1-1-21 甲南メゾン三宮 1F",
    "rating": 3.67,
    "ratingCount": 471,
    "lat": 34.69203601789024,
    "lng": 135.20068371759308,
    "year": 2026,
    "award": "2026 ・ 百名店 カレー 西日本"
  },
  {
    "rank": 25,
    "id": "27060944",
    "name": "旧ヤム邸 空堀店",
    "url": "https://tabelog.com/osaka/A2701/A270204/27060944/",
    "image": "https://tblg.k-img.com/restaurant/images/Rvw/170741/640x640_rect_2a434fda25bea0bf213cbeaa03712f0c.jpg",
    "address": "大阪府大阪市中央区谷町6-4-23",
    "rating": 3.65,
    "ratingCount": 1504,
    "lat": 34.673682258002074,
    "lng": 135.51523332718722,
    "year": 2026,
    "award": "2026 ・ 百名店 カレー 西日本"
  },
  {
    "rank": 26,
    "id": "27133935",
    "name": "シャンカラ堂",
    "url": "https://tabelog.com/osaka/A2701/A270108/27133935/",
    "image": "https://tblg.k-img.com/restaurant/images/Rvw/362387/640x640_rect_c921fb4f6696bc70b2b7816827f3fa27.jpg",
    "address": "大阪府大阪市北区大淀中3-1-15",
    "rating": 3.59,
    "ratingCount": 235,
    "lat": 34.70258813797383,
    "lng": 135.48420718750097,
    "year": 2026,
    "award": "2026 ・ 百名店 カレー 西日本"
  },
  {
    "rank": 27,
    "id": "27103594",
    "name": "スパイスカリー ハルモニア",
    "url": "https://tabelog.com/osaka/A2701/A270103/27103594/",
    "image": "https://tblg.k-img.com/restaurant/images/Rvw/158103/640x640_rect_158103629.jpg",
    "address": "大阪府大阪市北区天神橋4-2-7 天満松栄会館 106",
    "rating": 3.65,
    "ratingCount": 311,
    "lat": 34.70414893717645,
    "lng": 135.51240627633516,
    "year": 2026,
    "award": "2026 ・ 百名店 カレー 西日本"
  },
  {
    "rank": 28,
    "id": "27017245",
    "name": "王様のスプーン",
    "url": "https://tabelog.com/osaka/A2701/A270103/27017245/",
    "image": "https://tblg.k-img.com/restaurant/images/Rvw/277676/640x640_rect_20ca3acaa43596a53b1d7ce32e5548b2.jpg",
    "address": "大阪府大阪市北区西天満5-11-4",
    "rating": 3.63,
    "ratingCount": 525,
    "lat": 34.69897495798347,
    "lng": 135.5072723074483,
    "year": 2026,
    "award": "2026 ・ 百名店 カレー 西日本"
  },
  {
    "rank": 29,
    "id": "41000017",
    "name": "白山文雅",
    "url": "https://tabelog.com/saga/A4101/A410101/41000017/",
    "image": "https://tblg.k-img.com/restaurant/images/Rvw/153292/640x640_rect_153292752.jpg",
    "address": "佐賀県佐賀市白山1-2-1",
    "rating": 3.59,
    "ratingCount": 406,
    "lat": 33.254976336436556,
    "lng": 130.29898896535164,
    "year": 2026,
    "award": "2026 ・ 百名店 カレー 西日本"
  },
  {
    "rank": 30,
    "id": "27005018",
    "name": "ボナボナ",
    "url": "https://tabelog.com/osaka/A2701/A270201/27005018/",
    "image": "https://tblg.k-img.com/restaurant/images/Rvw/88492/640x640_rect_88492949.jpg",
    "address": "大阪府大阪市西区新町1-22-12 TTビル2号館新町 101号",
    "rating": 3.65,
    "ratingCount": 393,
    "lat": 34.67640069799372,
    "lng": 135.49446656722924,
    "year": 2026,
    "award": "2026 ・ 百名店 カレー 西日本"
  },
  {
    "rank": 31,
    "id": "27108418",
    "name": "札幌スープカレーJACK 新町店",
    "url": "https://tabelog.com/osaka/A2701/A270105/27108418/",
    "image": "https://tblg.k-img.com/restaurant/images/Rvw/365051/640x640_rect_8445c769a1d2f37622f055e009ef63a0.jpg",
    "address": "大阪府大阪市西区新町3-8-9 白髪橋ビル 1F",
    "rating": 3.63,
    "ratingCount": 591,
    "lat": 34.677126577991544,
    "lng": 135.48906629724036,
    "year": 2026,
    "award": "2026 ・ 百名店 カレー 西日本"
  },
  {
    "rank": 32,
    "id": "27004781",
    "name": "梨花食堂 天満本店",
    "url": "https://tabelog.com/osaka/A2701/A270103/27004781/",
    "image": "https://tblg.k-img.com/restaurant/images/Rvw/5376/320x320_square_5376581.jpg",
    "address": "大阪府大阪市北区天神橋4-8-15",
    "rating": 3.66,
    "ratingCount": 583,
    "lat": 34.70530661798064,
    "lng": 135.51101402750962,
    "year": 2026,
    "award": "2026 ・ 百名店 カレー 西日本"
  },
  {
    "rank": 33,
    "id": "27001518",
    "name": "カレーや マドラス",
    "url": "https://tabelog.com/osaka/A2701/A270206/27001518/",
    "image": "https://tblg.k-img.com/restaurant/images/Rvw/51114/640x640_rect_39e40e57dbec70731d68cc31c623895f.jpg",
    "address": "大阪府大阪市浪速区日本橋4-3-12",
    "rating": 3.65,
    "ratingCount": 985,
    "lat": 34.65986099800812,
    "lng": 135.50665604705364,
    "year": 2026,
    "award": "2026 ・ 百名店 カレー 西日本"
  },
  {
    "rank": 34,
    "id": "47009029",
    "name": "ゴカルナ",
    "url": "https://tabelog.com/okinawa/A4701/A470101/47009029/",
    "image": "https://tblg.k-img.com/restaurant/images/Rvw/341007/640x640_rect_d8b5a664838b29961b7eaa511f1ae817.jpg",
    "address": "沖縄県那覇市楚辺1-1-2",
    "rating": 3.59,
    "ratingCount": 335,
    "lat": 26.210674620883164,
    "lng": 127.68416135719237,
    "year": 2026,
    "award": "2026 ・ 百名店 カレー 西日本"
  },
  {
    "rank": 35,
    "id": "27074379",
    "name": "シナジー",
    "url": "https://tabelog.com/osaka/A2701/A270101/27074379/",
    "image": "https://tblg.k-img.com/restaurant/images/Rvw/362490/640x640_rect_c96a970e313e20607569f53dbe7403ed.jpg",
    "address": "大阪府大阪市北区堂島1丁目5-35 堂島レジャービル 2F",
    "rating": 3.71,
    "ratingCount": 918,
    "lat": 34.696397635641546,
    "lng": 135.49690201135638,
    "year": 2026,
    "award": "2026 ・ 百名店 カレー 西日本"
  },
  {
    "rank": 36,
    "id": "27096795",
    "name": "ナミニノカレー",
    "url": "https://tabelog.com/osaka/A2701/A270103/27096795/",
    "image": "https://tblg.k-img.com/restaurant/images/Rvw/362491/640x640_rect_23f583a3ca96adbca167bcc816c8fa91.jpg",
    "address": "大阪府大阪市北区天神橋筋7-3-8 天六センタービル 3Ｆ",
    "rating": 3.66,
    "ratingCount": 474,
    "lat": 34.711790403308754,
    "lng": 135.51106679292832,
    "year": 2026,
    "award": "2026 ・ 百名店 カレー 西日本"
  },
  {
    "rank": 37,
    "id": "27007871",
    "name": "カレーショップMASARA",
    "url": "https://tabelog.com/osaka/A2701/A270101/27007871/",
    "image": "https://tblg.k-img.com/restaurant/images/Rvw/40669/640x640_rect_40669805.jpg",
    "address": "大阪府大阪市北区角田町9-16 新梅田食道街 1F",
    "rating": 3.64,
    "ratingCount": 773,
    "lat": 34.70321275797785,
    "lng": 135.49807891749754,
    "year": 2026,
    "award": "2026 ・ 百名店 カレー 西日本"
  },
  {
    "rank": 38,
    "id": "26015938",
    "name": "スパイスチャンバー",
    "url": "https://tabelog.com/kyoto/A2601/A260201/26015938/",
    "image": "https://tblg.k-img.com/restaurant/images/Rvw/80740/640x640_rect_80740727.jpg",
    "address": "京都府京都市下京区室町綾小路下る白楽天町502番地 福井ビル１Ｆ",
    "rating": 3.68,
    "ratingCount": 954,
    "lat": 35.00234332787066,
    "lng": 135.7580579303368,
    "year": 2026,
    "award": "2026 ・ 百名店 カレー 西日本"
  },
  {
    "rank": 39,
    "id": "27059288",
    "name": "ヴァスコ・ダ・ガマ 本店",
    "url": "https://tabelog.com/osaka/A2706/A270604/27059288/",
    "image": "https://tblg.k-img.com/restaurant/images/Rvw/150506/640x640_rect_b230a92517674e70822f5ec4a6fb2763.jpg",
    "address": "大阪府高槻市芥川町1-2 アクトアモーレ1F",
    "rating": 3.62,
    "ratingCount": 874,
    "lat": 34.852288637115294,
    "lng": 135.61579937775906,
    "year": 2026,
    "award": "2026 ・ 百名店 カレー 西日本"
  },
  {
    "rank": 40,
    "id": "27085130",
    "name": "サッチェズカリー",
    "url": "https://tabelog.com/osaka/A2701/A270101/27085130/",
    "image": "https://tblg.k-img.com/restaurant/images/Rvw/65382/640x640_rect_65382859.jpg",
    "address": "大阪府大阪市北区神山町14-23 シャトー東梅田 1F",
    "rating": 3.66,
    "ratingCount": 462,
    "lat": 34.70410148797984,
    "lng": 135.50610998750088,
    "year": 2026,
    "award": "2026 ・ 百名店 カレー 西日本"
  },
  {
    "rank": 41,
    "id": "27071545",
    "name": "カレー屋ヌンクイ",
    "url": "https://tabelog.com/osaka/A2705/A270501/27071545/",
    "image": "https://tblg.k-img.com/restaurant/images/Rvw/23289/640x640_rect_23289237.jpg",
    "address": "大阪府堺市堺区南島町2-51-1",
    "rating": 3.58,
    "ratingCount": 219,
    "lat": 34.59398794958674,
    "lng": 135.4761728924807,
    "year": 2026,
    "award": "2026 ・ 百名店 カレー 西日本"
  },
  {
    "rank": 42,
    "id": "27073555",
    "name": "ボタニカリー",
    "url": "https://tabelog.com/osaka/A2701/A270102/27073555/",
    "image": "https://tblg.k-img.com/restaurant/images/Rvw/159621/640x640_rect_159621350.jpg",
    "address": "大阪府大阪市中央区瓦町4-5-3 日宝西本町ビル 1F",
    "rating": 3.87,
    "ratingCount": 1436,
    "lat": 34.68638773718344,
    "lng": 135.4989550761652,
    "year": 2026,
    "award": "2026 ・ 百名店 カレー 西日本"
  },
  {
    "rank": 43,
    "id": "28034158",
    "name": "元町通り3丁目",
    "url": "https://tabelog.com/hyogo/A2801/A280102/28034158/",
    "image": "https://tblg.k-img.com/restaurant/images/Rvw/35664/640x640_rect_35664280.jpg",
    "address": "兵庫県神戸市中央区元町通3-11-10",
    "rating": 3.61,
    "ratingCount": 379,
    "lat": 34.68737006788796,
    "lng": 135.18424133755752,
    "year": 2026,
    "award": "2026 ・ 百名店 カレー 西日本"
  },
  {
    "rank": 44,
    "id": "27125687",
    "name": "BOTANI：CURRY 梅田店",
    "url": "https://tabelog.com/osaka/A2701/A270101/27125687/",
    "image": "https://tblg.k-img.com/restaurant/images/Rvw/323198/640x640_rect_657760299bf1d24f3760619243bb3801.jpg",
    "address": "大阪府大阪市北区梅田1-13-13 阪神百貨店梅田本店 9F",
    "rating": 3.81,
    "ratingCount": 1867,
    "lat": 34.70123333717383,
    "lng": 135.49838637631555,
    "year": 2026,
    "award": "2026 ・ 百名店 カレー 西日本"
  },
  {
    "rank": 45,
    "id": "27015562",
    "name": "和レー屋 南船場ゴヤクラ",
    "url": "https://tabelog.com/osaka/A2701/A270201/27015562/",
    "image": "https://tblg.k-img.com/restaurant/images/Rvw/28014/640x640_rect_28014555.jpg",
    "address": "大阪府大阪市中央区南船場1-7-8 ダイアパレス順慶町 103",
    "rating": 3.64,
    "ratingCount": 510,
    "lat": 34.67769543719214,
    "lng": 135.5089388760704,
    "year": 2026,
    "award": "2026 ・ 百名店 カレー 西日本"
  },
  {
    "rank": 46,
    "id": "28000095",
    "name": "SAVOY",
    "url": "https://tabelog.com/hyogo/A2801/A280101/28000095/",
    "image": "https://tblg.k-img.com/restaurant/images/Rvw/166741/640x640_rect_8656af9747554ca034855c51b6feb60a.jpg",
    "address": "兵庫県神戸市中央区三宮町1-9-1 三宮センタープラザ東館 B1F",
    "rating": 3.71,
    "ratingCount": 1878,
    "lat": 34.69192019788779,
    "lng": 135.19277860759746,
    "year": 2026,
    "award": "2026 ・ 百名店 カレー 西日本"
  },
  {
    "rank": 47,
    "id": "26020410",
    "name": "森林食堂",
    "url": "https://tabelog.com/kyoto/A2601/A260203/26020410/",
    "image": "https://tblg.k-img.com/restaurant/images/Rvw/350459/640x640_rect_b2fb39dbb7ed6d192eab1223f98757ae.jpg",
    "address": "京都府京都市中京区西ノ京内畑町24-4",
    "rating": 3.86,
    "ratingCount": 599,
    "lat": 35.014338694554745,
    "lng": 135.7392264144203,
    "year": 2026,
    "award": "2026 ・ 百名店 カレー 西日本"
  },
  {
    "rank": 48,
    "id": "27012545",
    "name": "白銀亭",
    "url": "https://tabelog.com/osaka/A2701/A270106/27012545/",
    "image": "https://tblg.k-img.com/restaurant/images/Rvw/166661/640x640_rect_f3d6aa4b735a8bbcdc162408b8193e5b.jpg",
    "address": "大阪府大阪市中央区淡路町4-4-12 ダイドーメゾン大阪御堂筋　１Ｆ",
    "rating": 3.7,
    "ratingCount": 1484,
    "lat": 34.686951017988605,
    "lng": 135.49940636733234,
    "year": 2026,
    "award": "2026 ・ 百名店 カレー 西日本"
  },
  {
    "rank": 49,
    "id": "27091414",
    "name": "アアベルカレー",
    "url": "https://tabelog.com/osaka/A2701/A270401/27091414/",
    "image": "https://tblg.k-img.com/restaurant/images/Rvw/365810/640x640_rect_ff25bdbeecc6723f735ad34487e305fd.jpg",
    "address": "大阪府大阪市西区九条1-25-9 フジイエステートビル3F",
    "rating": 3.64,
    "ratingCount": 501,
    "lat": 34.67459066640802,
    "lng": 135.47326747823456,
    "year": 2026,
    "award": "2026 ・ 百名店 カレー 西日本"
  },
  {
    "rank": 50,
    "id": "27004332",
    "name": "カルダモン．",
    "url": "https://tabelog.com/osaka/A2701/A270103/27004332/",
    "image": "https://tblg.k-img.com/restaurant/images/Rvw/158584/640x640_rect_158584288.jpg",
    "address": "大阪府大阪市北区天神橋6-5-3",
    "rating": 3.69,
    "ratingCount": 1419,
    "lat": 34.708872157978526,
    "lng": 135.5114672075453,
    "year": 2026,
    "award": "2026 ・ 百名店 カレー 西日本"
  },
  {
    "rank": 51,
    "id": "27100346",
    "name": "はらいそ スパークル",
    "url": "https://tabelog.com/osaka/A2701/A270102/27100346/",
    "image": "https://tblg.k-img.com/restaurant/images/Rvw/205276/320x320_rect_62fef1a684d176aca4358cef5fe03154.jpg",
    "address": "大阪府大阪市西区江戸堀1-9-13 NEXAS HIGOBASHI 2F",
    "rating": 3.64,
    "ratingCount": 382,
    "lat": 34.688669937181025,
    "lng": 135.4959085761904,
    "year": 2026,
    "award": "2026 ・ 百名店 カレー 西日本"
  },
  {
    "rank": 52,
    "id": "27120447",
    "name": "Mカッセ",
    "url": "https://tabelog.com/osaka/A2701/A270404/27120447/",
    "image": "https://tblg.k-img.com/restaurant/images/Rvw/362705/640x640_rect_6b4df41637cfb20748621981b9c9d580.jpg",
    "address": "大阪府大阪市住吉区東粉浜3-22-9 西尾第一ビル1F",
    "rating": 3.84,
    "ratingCount": 398,
    "lat": 34.61791863722471,
    "lng": 135.4919690754785,
    "year": 2026,
    "award": "2026 ・ 百名店 カレー 西日本"
  },
  {
    "rank": 53,
    "id": "27003694",
    "name": "カシミール",
    "url": "https://tabelog.com/osaka/A2701/A270102/27003694/",
    "image": "https://tblg.k-img.com/restaurant/images/Rvw/276841/640x640_rect_c4eaf52c7d437fe320014e035f4a13c1.jpg",
    "address": "大阪府大阪市中央区東高麗橋6-2",
    "rating": 3.71,
    "ratingCount": 972,
    "lat": 34.68953331799037,
    "lng": 135.51010015735093,
    "year": 2026,
    "award": "2026 ・ 百名店 カレー 西日本"
  },
  {
    "rank": 54,
    "id": "26001075",
    "name": "カレー専門店 ビィヤント",
    "url": "https://tabelog.com/kyoto/A2601/A260302/26001075/",
    "image": "https://tblg.k-img.com/restaurant/images/Rvw/322087/640x640_rect_d5499e829d33124278adc09319047bbd.jpg",
    "address": "京都府京都市左京区東大路通丸太町上ル東側聖護院西町12",
    "rating": 3.65,
    "ratingCount": 541,
    "lat": 35.01923678786649,
    "lng": 135.778645410493,
    "year": 2026,
    "award": "2026 ・ 百名店 カレー 西日本"
  },
  {
    "rank": 55,
    "id": "27091294",
    "name": "渡邊カリー 梅田本店",
    "url": "https://tabelog.com/osaka/A2701/A270101/27091294/",
    "image": "https://tblg.k-img.com/restaurant/images/Rvw/147520/320x320_rect_147520415.jpg",
    "address": "大阪府大阪市北区曽根崎新地2-2-5 第3シンコウビル 3F",
    "rating": 3.71,
    "ratingCount": 1853,
    "lat": 34.69799169798013,
    "lng": 135.49483370744707,
    "year": 2026,
    "award": "2026 ・ 百名店 カレー 西日本"
  },
  {
    "rank": 56,
    "id": "27007862",
    "name": "バンブルビー",
    "url": "https://tabelog.com/osaka/A2701/A270106/27007862/",
    "image": "https://tblg.k-img.com/restaurant/images/Rvw/64398/640x640_rect_64398303.jpg",
    "address": "大阪府大阪市西区西本町1-14-2 住吉ビル 1F",
    "rating": 3.68,
    "ratingCount": 788,
    "lat": 34.682770837989565,
    "lng": 135.49407795729385,
    "year": 2026,
    "award": "2026 ・ 百名店 カレー 西日本"
  },
  {
    "rank": 57,
    "id": "27107380",
    "name": "お出汁とスパイス 元祖 エレクトロニカレー",
    "url": "https://tabelog.com/osaka/A2701/A270107/27107380/",
    "image": "https://tblg.k-img.com/restaurant/images/Rvw/314155/640x640_rect_a5692ebad8ffbecfccd460d3a3f7fbd7.jpg",
    "address": "大阪府大阪市都島区中野町3-5-13",
    "rating": 3.65,
    "ratingCount": 568,
    "lat": 34.70209441798816,
    "lng": 135.5282156774651,
    "year": 2026,
    "award": "2026 ・ 百名店 カレー 西日本"
  },
  {
    "rank": 58,
    "id": "28037333",
    "name": "Sion",
    "url": "https://tabelog.com/hyogo/A2801/A280102/28037333/",
    "image": "https://tblg.k-img.com/restaurant/images/Rvw/230177/640x640_rect_af63907d84ce56be71df72e0e191c2eb.jpg",
    "address": "兵庫県神戸市中央区元町通5-2-18",
    "rating": 3.61,
    "ratingCount": 426,
    "lat": 34.68466977486756,
    "lng": 135.1817945543036,
    "year": 2026,
    "award": "2026 ・ 百名店 カレー 西日本"
  },
  {
    "rank": 59,
    "id": "27066977",
    "name": "虹の仏",
    "url": "https://tabelog.com/osaka/A2701/A270203/27066977/",
    "image": "https://tblg.k-img.com/restaurant/images/Rvw/91848/320x320_rect_305f684be0456089916483cd35d11081.jpg",
    "address": "大阪府大阪市天王寺区四天王寺1-12-23",
    "rating": 3.8,
    "ratingCount": 1139,
    "lat": 34.65624913720743,
    "lng": 135.5141521758501,
    "year": 2026,
    "award": "2026 ・ 百名店 カレー 西日本"
  },
  {
    "rank": 60,
    "id": "27097683",
    "name": "定食堂 金剛石",
    "url": "https://tabelog.com/osaka/A2701/A270204/27097683/",
    "image": "https://tblg.k-img.com/restaurant/images/Rvw/93714/640x640_rect_93714729.jpg",
    "address": "大阪府大阪市中央区瓦屋町1-8-25 ハイツ松屋町 1F",
    "rating": 3.7,
    "ratingCount": 809,
    "lat": 34.67285561800168,
    "lng": 135.5123519971809,
    "year": 2026,
    "award": "2026 ・ 百名店 カレー 西日本"
  },
  {
    "rank": 61,
    "id": "27017872",
    "name": "アイリッシュ カレー 中津店",
    "url": "https://tabelog.com/osaka/A2701/A270101/27017872/",
    "image": "https://tblg.k-img.com/restaurant/images/Rvw/879/320x320_rect_879741.jpg",
    "address": "大阪府大阪市北区豊崎3-6-11 エイトビル１F",
    "rating": 3.67,
    "ratingCount": 628,
    "lat": 34.71087683716795,
    "lng": 135.49913977641245,
    "year": 2026,
    "award": "2026 ・ 百名店 カレー 西日本"
  },
  {
    "rank": 62,
    "id": "27093666",
    "name": "スパイスカリー 大陸",
    "url": "https://tabelog.com/osaka/A2701/A270108/27093666/",
    "image": "https://tblg.k-img.com/restaurant/images/Rvw/361418/640x640_rect_1887b0f63bca66853824377a3c616bbd.jpg",
    "address": "大阪府大阪市福島区福島2-9-23",
    "rating": 3.7,
    "ratingCount": 1122,
    "lat": 34.69467101797961,
    "lng": 135.48657331741933,
    "year": 2026,
    "award": "2026 ・ 百名店 カレー 西日本"
  },
  {
    "rank": 63,
    "id": "27042046",
    "name": "アンナプルナ",
    "url": "https://tabelog.com/osaka/A2701/A270103/27042046/",
    "image": "https://tblg.k-img.com/restaurant/images/Rvw/359903/640x640_rect_13e9c1a93c6fbc3f4cc0e55498168d2b.jpg",
    "address": "大阪府大阪市北区与力町2-10 東寺町ビル1F",
    "rating": 3.6,
    "ratingCount": 269,
    "lat": 34.6999504879846,
    "lng": 135.5127754874543,
    "year": 2026,
    "award": "2026 ・ 百名店 カレー 西日本"
  },
  {
    "rank": 64,
    "id": "27109182",
    "name": "あきらカレー",
    "url": "https://tabelog.com/osaka/A2701/A270102/27109182/",
    "image": "https://tblg.k-img.com/restaurant/images/Rvw/274030/640x640_rect_0912428f1ce938a73aea81a89d7cef49.jpg",
    "address": "大阪府大阪市西区京町堀1-12-6",
    "rating": 3.68,
    "ratingCount": 433,
    "lat": 34.687217137181754,
    "lng": 135.49530797617615,
    "year": 2026,
    "award": "2026 ・ 百名店 カレー 西日本"
  },
  {
    "rank": 65,
    "id": "27094910",
    "name": "スパイスカリーて",
    "url": "https://tabelog.com/osaka/A2701/A270201/27094910/",
    "image": "https://tblg.k-img.com/restaurant/images/Rvw/285550/640x640_rect_67938a29ed67598ef1830ec335b809b1.jpg",
    "address": "大阪府大阪市中央区南船場3-1-16 ラッキービル　２F",
    "rating": 3.66,
    "ratingCount": 527,
    "lat": 34.67793063718999,
    "lng": 135.50261007607722,
    "year": 2026,
    "award": "2026 ・ 百名店 カレー 西日本"
  },
  {
    "rank": 66,
    "id": "27092176",
    "name": "北浜 丁子",
    "url": "https://tabelog.com/osaka/A2701/A270102/27092176/",
    "image": "https://tblg.k-img.com/restaurant/images/Rvw/367372/640x640_rect_b3259b66be90c43295b82b33ff110842.jpg",
    "address": "大阪府大阪市中央区東高麗橋5-3 高麗橋双葉ビル 3F",
    "rating": 3.66,
    "ratingCount": 475,
    "lat": 34.68906475799065,
    "lng": 135.51004955734624,
    "year": 2026,
    "award": "2026 ・ 百名店 カレー 西日本"
  },
  {
    "rank": 67,
    "id": "27107555",
    "name": "橋本屋",
    "url": "https://tabelog.com/osaka/A2701/A270201/27107555/",
    "image": "https://tblg.k-img.com/restaurant/images/Rvw/281009/640x640_rect_90868dfb15c0f21ea8c61516ec897fe4.jpg",
    "address": "大阪府大阪市中央区南船場2-2-21",
    "rating": 4.02,
    "ratingCount": 649,
    "lat": 34.67731677058339,
    "lng": 135.50546634527382,
    "year": 2026,
    "award": "2026 ・ 百名店 カレー 西日本"
  },
  {
    "rank": 68,
    "id": "26025279",
    "name": "京都カレー製作所 カリル",
    "url": "https://tabelog.com/kyoto/A2601/A260202/26025279/",
    "image": "https://tblg.k-img.com/restaurant/images/Rvw/322084/640x640_rect_5492ccce0932c4f5f0e6568c4044dd41.jpg",
    "address": "京都府京都市上京区春帯町349-1 永楽アパルシオン1F",
    "rating": 3.63,
    "ratingCount": 635,
    "lat": 35.01823014786012,
    "lng": 135.75666310049823,
    "year": 2026,
    "award": "2026 ・ 百名店 カレー 西日本"
  },
  {
    "rank": 69,
    "id": "27011492",
    "name": "辛激屋",
    "url": "https://tabelog.com/osaka/A2701/A270201/27011492/",
    "image": "https://tblg.k-img.com/restaurant/images/Rvw/228558/640x640_rect_e4b5bed990bbcfc484b8a69d5241f678.jpg",
    "address": "大阪府大阪市中央区南船場2-5-21",
    "rating": 3.67,
    "ratingCount": 653,
    "lat": 34.675907182535305,
    "lng": 135.50451621130458,
    "year": 2026,
    "award": "2026 ・ 百名店 カレー 西日本"
  },
  {
    "rank": 70,
    "id": "27092078",
    "name": "創作カレー ツキノワ",
    "url": "https://tabelog.com/osaka/A2701/A270106/27092078/",
    "image": "https://tblg.k-img.com/restaurant/images/Rvw/138403/640x640_rect_138403729.jpg",
    "address": "大阪府大阪市中央区南久宝寺1-1-3 KT船場ビル 2F",
    "rating": 3.7,
    "ratingCount": 783,
    "lat": 34.679395147996956,
    "lng": 135.5105696572482,
    "year": 2026,
    "award": "2026 ・ 百名店 カレー 西日本"
  },
  {
    "rank": 71,
    "id": "26036664",
    "name": "スパイスカレー キテレツ",
    "url": "https://tabelog.com/kyoto/A2601/A260401/26036664/",
    "image": "https://tblg.k-img.com/restaurant/images/Rvw/365304/640x640_rect_36c219549b6227ddc682ac7b8133c30f.jpg",
    "address": "京都府京都市右京区西院寿町19-11 武岡ビル 1F",
    "rating": 3.58,
    "ratingCount": 225,
    "lat": 34.99849853705862,
    "lng": 135.72945107915623,
    "year": 2026,
    "award": "2026 ・ 百名店 カレー 西日本"
  },
  {
    "rank": 72,
    "id": "27065938",
    "name": "ガネーシュ N",
    "url": "https://tabelog.com/osaka/A2701/A270103/27065938/",
    "image": "https://tblg.k-img.com/restaurant/images/Rvw/175693/640x640_rect_aca0082aad0ec8bb454c758c10124e62.jpg",
    "address": "大阪府大阪市北区天神橋1-10-18",
    "rating": 3.71,
    "ratingCount": 947,
    "lat": 34.69407866798826,
    "lng": 135.51255740739512,
    "year": 2026,
    "award": "2026 ・ 百名店 カレー 西日本"
  },
  {
    "rank": 73,
    "id": "27091267",
    "name": "カンテグランデカレー サン広場店",
    "url": "https://tabelog.com/osaka/A2701/A270101/27091267/",
    "image": "https://tblg.k-img.com/restaurant/images/Rvw/366231/640x640_rect_f6c65b9916763a86a0f9ce90091b55ef.jpg",
    "address": "大阪府大阪市北区角田町8-47 阪急サン広場 B1F",
    "rating": 3.71,
    "ratingCount": 1608,
    "lat": 34.70356651797794,
    "lng": 135.4990700375004,
    "year": 2026,
    "award": "2026 ・ 百名店 カレー 西日本"
  },
  {
    "rank": 74,
    "id": "27050088",
    "name": "コロンビアエイト 堺筋本町店",
    "url": "https://tabelog.com/osaka/A2701/A270106/27050088/",
    "image": "https://tblg.k-img.com/restaurant/images/Rvw/320589/640x640_rect_38a34131658ea8aaa3fe07e52ed08b3f.jpg",
    "address": "大阪府大阪市中央区南久宝寺1-9-2 南久宝寺ビル 1F",
    "rating": 3.68,
    "ratingCount": 909,
    "lat": 34.679389912992825,
    "lng": 135.50723082550488,
    "year": 2026,
    "award": "2026 ・ 百名店 カレー 西日本"
  },
  {
    "rank": 75,
    "id": "27051602",
    "name": "ラヴィリンス",
    "url": "https://tabelog.com/osaka/A2701/A270201/27051602/",
    "image": "https://tblg.k-img.com/restaurant/images/Rvw/13146/640x640_rect_13146478.jpg",
    "address": "大阪府大阪市西区新町1-20-1",
    "rating": 3.69,
    "ratingCount": 759,
    "lat": 34.677056327993746,
    "lng": 135.4958219472349,
    "year": 2026,
    "award": "2026 ・ 百名店 カレー 西日本"
  },
  {
    "rank": 76,
    "id": "27073991",
    "name": "旧ヤム邸 中之島洋館",
    "url": "https://tabelog.com/osaka/A2701/A270108/27073991/",
    "image": "https://tblg.k-img.com/restaurant/images/Rvw/129474/640x640_rect_129474636.jpg",
    "address": "大阪府大阪市北区中之島3-6-32 ダイビル本館 2F",
    "rating": 3.58,
    "ratingCount": 719,
    "lat": 34.693231547982506,
    "lng": 135.4927995174004,
    "year": 2026,
    "award": "2026 ・ 百名店 カレー 西日本"
  },
  {
    "rank": 77,
    "id": "27113334",
    "name": "はぐ寧",
    "url": "https://tabelog.com/osaka/A2701/A270103/27113334/",
    "image": "https://tblg.k-img.com/restaurant/images/Rvw/119643/640x640_rect_119643625.jpg",
    "address": "大阪府大阪市北区浮田1-2-16",
    "rating": 3.63,
    "ratingCount": 225,
    "lat": 34.709152517977685,
    "lng": 135.50938512754962,
    "year": 2026,
    "award": "2026 ・ 百名店 カレー 西日本"
  },
  {
    "rank": 78,
    "id": "27066220",
    "name": "Ghar",
    "url": "https://tabelog.com/osaka/A2701/A270102/27066220/",
    "image": "https://tblg.k-img.com/restaurant/images/Rvw/335152/640x640_rect_a406e729ba442ee044411c24e430f235.jpg",
    "address": "大阪府大阪市西区京町堀1-9-10-103",
    "rating": 3.93,
    "ratingCount": 1433,
    "lat": 34.68724553308579,
    "lng": 135.49541838928386,
    "year": 2026,
    "award": "2026 ・ 百名店 カレー 西日本"
  },
  {
    "rank": 79,
    "id": "27050578",
    "name": "マダム・カリー",
    "url": "https://tabelog.com/osaka/A2701/A270102/27050578/",
    "image": "https://tblg.k-img.com/restaurant/images/Rvw/362511/640x640_rect_64b4baa85a8f6ca3e42264e17b9ac329.jpg",
    "address": "大阪府大阪市中央区高麗橋2-2-2 日宝北浜ビル１Ｆ",
    "rating": 3.62,
    "ratingCount": 380,
    "lat": 34.689374607989066,
    "lng": 135.5056812673524,
    "year": 2026,
    "award": "2026 ・ 百名店 カレー 西日本"
  },
  {
    "rank": 80,
    "id": "27087911",
    "name": "辛口飯屋 森元",
    "url": "https://tabelog.com/osaka/A2701/A270103/27087911/",
    "image": "https://tblg.k-img.com/restaurant/images/Rvw/353668/640x640_rect_4334c8f72121f169390fa4a6b6e5f119.jpg",
    "address": "大阪府大阪市北区西天満4-5-3 2F",
    "rating": 3.63,
    "ratingCount": 331,
    "lat": 34.69678651798417,
    "lng": 135.5051058474277,
    "year": 2026,
    "award": "2026 ・ 百名店 カレー 西日本"
  },
  {
    "rank": 81,
    "id": "27043570",
    "name": "唯我独尊",
    "url": "https://tabelog.com/osaka/A2705/A270502/27043570/",
    "image": "https://tblg.k-img.com/restaurant/images/Rvw/94765/640x640_rect_94765349.jpg",
    "address": "大阪府岸和田市宮本町41-1",
    "rating": 3.64,
    "ratingCount": 687,
    "lat": 34.45938413728857,
    "lng": 135.37634227395822,
    "year": 2026,
    "award": "2026 ・ 百名店 カレー 西日本"
  },
  {
    "rank": 82,
    "id": "27082162",
    "name": "あいまい",
    "url": "https://tabelog.com/osaka/A2701/A270103/27082162/",
    "image": "https://tblg.k-img.com/restaurant/images/Rvw/39355/320x320_rect_39355159.jpg",
    "address": "大阪府大阪市北区天神橋2-2-28 永井ビル 2F",
    "rating": 3.6,
    "ratingCount": 319,
    "lat": 34.69559060798703,
    "lng": 135.511700587411,
    "year": 2026,
    "award": "2026 ・ 百名店 カレー 西日本"
  },
  {
    "rank": 83,
    "id": "40032412",
    "name": "GARAM",
    "url": "https://tabelog.com/fukuoka/A4001/A400103/40032412/",
    "image": "https://tblg.k-img.com/restaurant/images/Rvw/167377/640x640_rect_2b0fc846c5119dd9f66b9246c0981562.jpg",
    "address": "福岡県福岡市中央区高砂1-7-4",
    "rating": 3.64,
    "ratingCount": 469,
    "lat": 33.58099763626381,
    "lng": 130.4067913685692,
    "year": 2026,
    "award": "2026 ・ 百名店 カレー 西日本"
  },
  {
    "rank": 84,
    "id": "27015618",
    "name": "コロンビア エイト 北浜本店",
    "url": "https://tabelog.com/osaka/A2701/A270102/27015618/",
    "image": "https://tblg.k-img.com/restaurant/images/Rvw/139201/640x640_rect_139201970.jpg",
    "address": "大阪府大阪市中央区道修町1-3-3 エビス道修町ビル２Ｆ",
    "rating": 3.7,
    "ratingCount": 1069,
    "lat": 34.68821839799074,
    "lng": 135.5086238073387,
    "year": 2026,
    "award": "2026 ・ 百名店 カレー 西日本"
  },
  {
    "rank": 85,
    "id": "40039440",
    "name": "アフターグロウ",
    "url": "https://tabelog.com/fukuoka/A4001/A400105/40039440/",
    "image": "https://tblg.k-img.com/restaurant/images/Rvw/207622/640x640_rect_0d52dc7a35d034c5201b8d243b87fe9b.jpg",
    "address": "福岡県福岡市中央区草香江1-8-25",
    "rating": 3.62,
    "ratingCount": 383,
    "lat": 33.58262884705766,
    "lng": 130.37384615977055,
    "year": 2026,
    "award": "2026 ・ 百名店 カレー 西日本"
  },
  {
    "rank": 86,
    "id": "27133618",
    "name": "ハロガロ",
    "url": "https://tabelog.com/osaka/A2701/A270106/27133618/",
    "image": "https://tblg.k-img.com/restaurant/images/Rvw/366831/640x640_rect_c0044a23184562209b1b0e95380d68de.jpg",
    "address": "大阪府大阪市中央区久太郎町1-9-7",
    "rating": 3.6,
    "ratingCount": 268,
    "lat": 34.68091962799497,
    "lng": 135.50738294726585,
    "year": 2026,
    "award": "2026 ・ 百名店 カレー 西日本"
  },
  {
    "rank": 87,
    "id": "27004574",
    "name": "らくしゅみ",
    "url": "https://tabelog.com/osaka/A2701/A270201/27004574/",
    "image": "https://tblg.k-img.com/restaurant/images/Rvw/2854/640x640_rect_2854912.jpg",
    "address": "大阪府大阪市西区新町1-20-7",
    "rating": 3.61,
    "ratingCount": 402,
    "lat": 34.67704927799372,
    "lng": 135.49571521723493,
    "year": 2026,
    "award": "2026 ・ 百名店 カレー 西日本"
  },
  {
    "rank": 88,
    "id": "27067687",
    "name": "ヨバレヤ",
    "url": "https://tabelog.com/osaka/A2701/A270201/27067687/",
    "image": "https://tblg.k-img.com/restaurant/images/Rvw/367083/640x640_rect_980beb105d660df0fac769c2abfbce4c.jpg",
    "address": "大阪府大阪市西区新町1-31-3",
    "rating": 3.63,
    "ratingCount": 473,
    "lat": 34.676840027993336,
    "lng": 135.49411291723393,
    "year": 2026,
    "award": "2026 ・ 百名店 カレー 西日本"
  },
  {
    "rank": 89,
    "id": "40032551",
    "name": "路地裏カレー Tiki",
    "url": "https://tabelog.com/fukuoka/A4001/A400103/40032551/",
    "image": "https://tblg.k-img.com/restaurant/images/Rvw/116363/640x640_rect_116363444.jpg",
    "address": "福岡県福岡市中央区渡辺通5-24-38",
    "rating": 3.69,
    "ratingCount": 749,
    "lat": 33.588263536257934,
    "lng": 130.4028270686454,
    "year": 2026,
    "award": "2026 ・ 百名店 カレー 西日本"
  },
  {
    "rank": 90,
    "id": "27129018",
    "name": "ドラマチックカリー ゴールデン中崎",
    "url": "https://tabelog.com/osaka/A2701/A270103/27129018/",
    "image": "https://tblg.k-img.com/restaurant/images/Rvw/175751/640x640_rect_4a62b92a1f4a57052bd593ac9daf356c.jpg",
    "address": "大阪府大阪市北区中崎1-6-18",
    "rating": 3.62,
    "ratingCount": 435,
    "lat": 34.70737592797791,
    "lng": 135.50655423753366,
    "year": 2026,
    "award": "2026 ・ 百名店 カレー 西日本"
  },
  {
    "rank": 91,
    "id": "27014409",
    "name": "ダール",
    "url": "https://tabelog.com/osaka/A2701/A270104/27014409/",
    "image": "https://tblg.k-img.com/restaurant/images/Rvw/140255/640x640_rect_140255472.jpg",
    "address": "大阪府大阪市中央区徳井町1-4-13",
    "rating": 3.65,
    "ratingCount": 680,
    "lat": 34.6842817371898,
    "lng": 135.5147029761329,
    "year": 2026,
    "award": "2026 ・ 百名店 カレー 西日本"
  },
  {
    "rank": 92,
    "id": "27000068",
    "name": "辛来飯",
    "url": "https://tabelog.com/osaka/A2701/A270106/27000068/",
    "image": "https://tblg.k-img.com/restaurant/images/Rvw/23648/640x640_rect_23648798.jpg",
    "address": "大阪府大阪市中央区安土町1-5-3 ループビル ２Ｆ",
    "rating": 3.7,
    "ratingCount": 809,
    "lat": 34.68448940799303,
    "lng": 135.50838150730118,
    "year": 2026,
    "award": "2026 ・ 百名店 カレー 西日本"
  },
  {
    "rank": 93,
    "id": "40025012",
    "name": "ハイダル",
    "url": "https://tabelog.com/fukuoka/A4001/A400104/40025012/",
    "image": "https://tblg.k-img.com/restaurant/images/Rvw/45468/640x640_rect_45468237.jpg",
    "address": "福岡県福岡市中央区警固2-9-10 コーポ山崎 1F",
    "rating": 3.61,
    "ratingCount": 253,
    "lat": 33.5826266770626,
    "lng": 130.38936203975967,
    "year": 2026,
    "award": "2026 ・ 百名店 カレー 西日本"
  },
  {
    "rank": 94,
    "id": "27059870",
    "name": "カレー コンドル",
    "url": "https://tabelog.com/osaka/A2701/A270201/27059870/",
    "image": "https://tblg.k-img.com/restaurant/images/Rvw/28541/640x640_rect_28541266.jpg",
    "address": "大阪府大阪市西区北堀江1-16-16",
    "rating": 3.62,
    "ratingCount": 499,
    "lat": 34.67383183718995,
    "lng": 135.49431967604158,
    "year": 2026,
    "award": "2026 ・ 百名店 カレー 西日本"
  },
  {
    "rank": 95,
    "id": "27095961",
    "name": "ココペリカレー",
    "url": "https://tabelog.com/osaka/A2701/A270103/27095961/",
    "image": "https://tblg.k-img.com/restaurant/images/Rvw/354554/640x640_rect_785003d85124d92ef76b8e7e3551c664.jpg",
    "address": "大阪府大阪市北区東天満2-6-12 南森町双葉ビル 2F",
    "rating": 3.6,
    "ratingCount": 250,
    "lat": 34.69786653718117,
    "lng": 135.51469427627012,
    "year": 2026,
    "award": "2026 ・ 百名店 カレー 西日本"
  },
  {
    "rank": 96,
    "id": "27090129",
    "name": "スパイスカレー43",
    "url": "https://tabelog.com/osaka/A2701/A270106/27090129/",
    "image": "https://tblg.k-img.com/restaurant/images/Rvw/365043/640x640_rect_85983335536c753fc2a6d38d8c430739.jpg",
    "address": "大阪府大阪市西区靭本町2-5-2 横井第7ビル 1F",
    "rating": 3.62,
    "ratingCount": 287,
    "lat": 34.68367869798818,
    "lng": 135.49155569730482,
    "year": 2026,
    "award": "2026 ・ 百名店 カレー 西日本"
  },
  {
    "rank": 97,
    "id": "27014328",
    "name": "カレーダイヤ",
    "url": "https://tabelog.com/osaka/A2701/A270304/27014328/",
    "image": "https://tblg.k-img.com/restaurant/images/Rvw/130473/640x640_rect_130473526.jpg",
    "address": "大阪府大阪市旭区大宮2-27-17",
    "rating": 3.59,
    "ratingCount": 449,
    "lat": 34.72382212798095,
    "lng": 135.54891435767007,
    "year": 2026,
    "award": "2026 ・ 百名店 カレー 西日本"
  },
  {
    "rank": 98,
    "id": "27122031",
    "name": "スパイスアンドカレー黄金の風",
    "url": "https://tabelog.com/osaka/A2701/A270103/27122031/",
    "image": "https://tblg.k-img.com/restaurant/images/Rvw/359115/640x640_rect_902be48fd63fec1f25ac3d3cdb93fa82.jpg",
    "address": "大阪府大阪市北区天神橋3-3-18",
    "rating": 3.64,
    "ratingCount": 218,
    "lat": 34.70047378798384,
    "lng": 135.51142086746052,
    "year": 2026,
    "award": "2026 ・ 百名店 カレー 西日本"
  },
  {
    "rank": 99,
    "id": "26022669",
    "name": "太陽カレー",
    "url": "https://tabelog.com/kyoto/A2601/A260401/26022669/",
    "image": "https://tblg.k-img.com/restaurant/images/Rvw/284274/640x640_rect_732ee41a4339328cd9524e352c646b73.jpg",
    "address": "京都府京都市中京区壬生西土居ノ内町19 ボイスビル 2F",
    "rating": 3.64,
    "ratingCount": 566,
    "lat": 35.003473967862,
    "lng": 135.7331137303657,
    "year": 2026,
    "award": "2026 ・ 百名店 カレー 西日本"
  },
  {
    "rank": 100,
    "id": "26019639",
    "name": "カマル",
    "url": "https://tabelog.com/kyoto/A2601/A260202/26019639/",
    "image": "https://tblg.k-img.com/restaurant/images/Rvw/283326/640x640_rect_253f422f5fcd8b3b32f1911bdcc43d0b.jpg",
    "address": "京都府京都市中京区三条通東洞院東入ル菱屋町32-1",
    "rating": 3.67,
    "ratingCount": 892,
    "lat": 35.008539977867734,
    "lng": 135.76123439039714,
    "year": 2026,
    "award": "2026 ・ 百名店 カレー 西日本"
  }
]