[
  {
    "rank": 1,
    "id": "24005111",
    "name": "ラ・メール",
    "url": "https://tabelog.com/mie/A2403/A240303/24005111/",
    "image": "https://tblg.k-img.com/restaurant/images/Rvw/122049/640x640_rect_122049906.jpg",
    "address": "三重県志摩市阿児町神明731 志摩観光ホテル ザ ベイスイート 5Ｆ",
    "rating": 4.01,
    "ratingCount": 255,
    "lat": 34.30897517001809,
    "lng": 136.81592919281087,
    "year": 2025,
    "award": "2025 ・ 百名店 フレンチ 西日本"
  },
  {
    "rank": 2,
    "id": "46011001",
    "name": "et NOU",
    "url": "https://tabelog.com/kagoshima/A4601/A460101/46011001/",
    "image": "https://tblg.k-img.com/restaurant/images/Rvw/59539/640x640_rect_59539333.jpg",
    "address": "鹿児島県鹿児島市千日町9-19",
    "rating": 3.86,
    "ratingCount": 92,
    "lat": 31.588564737576924,
    "lng": 130.55651164833884,
    "year": 2025,
    "award": "2025 ・ 百名店 フレンチ 西日本"
  },
  {
    "rank": 3,
    "id": "27012726",
    "name": "ミチノ・ル・トゥールビヨン",
    "url": "https://tabelog.com/osaka/A2701/A270108/27012726/",
    "image": "https://tblg.k-img.com/restaurant/images/Rvw/100927/320x320_rect_100927897.jpg",
    "address": "大阪府大阪市福島区福島6-9-11 神林堂ビル　1F",
    "rating": 3.63,
    "ratingCount": 152,
    "lat": 34.699976810453066,
    "lng": 135.48747985129643,
    "year": 2025,
    "award": "2025 ・ 百名店 フレンチ 西日本"
  },
  {
    "rank": 4,
    "id": "27097439",
    "name": "Grand rocher",
    "url": "https://tabelog.com/osaka/A2701/A270102/27097439/",
    "image": "https://tblg.k-img.com/restaurant/images/Rvw/182042/640x640_rect_47bc55fbff93f50fad2d2f0b7d08fb33.jpg",
    "address": "大阪府大阪市中央区伏見町4-3-9 HK淀屋橋ガーデンアベニュー 1F",
    "rating": 3.76,
    "ratingCount": 745,
    "lat": 34.68908273718188,
    "lng": 135.4994160761921,
    "year": 2025,
    "award": "2025 ・ 百名店 フレンチ 西日本"
  },
  {
    "rank": 5,
    "id": "26029955",
    "name": "NAKATSUKA",
    "url": "https://tabelog.com/kyoto/A2601/A260202/26029955/",
    "image": "https://tblg.k-img.com/restaurant/images/Rvw/260973/640x640_rect_3bb6bcb9ec54897a090b4bfb8d711dae.jpg",
    "address": "京都府京都市中京区木之下町299 Coto Glance姉小路通 1F",
    "rating": 3.91,
    "ratingCount": 160,
    "lat": 35.009773337062306,
    "lng": 135.76349127924627,
    "year": 2025,
    "award": "2025 ・ 百名店 フレンチ 西日本"
  },
  {
    "rank": 6,
    "id": "29000034",
    "name": "ラ・テラス",
    "url": "https://tabelog.com/nara/A2901/A290101/29000034/",
    "image": "https://tblg.k-img.com/restaurant/images/Rvw/1068/320x320_rect_1068162.jpg",
    "address": "奈良県奈良市春日野町98-1 ザ・ヒルトップテラス奈良",
    "rating": 3.69,
    "ratingCount": 228,
    "lat": 34.684637637295005,
    "lng": 135.8458112759044,
    "year": 2025,
    "award": "2025 ・ 百名店 フレンチ 西日本"
  },
  {
    "rank": 7,
    "id": "24002060",
    "name": "レストランRyu",
    "url": "https://tabelog.com/mie/A2401/A240103/24002060/",
    "image": "https://tblg.k-img.com/restaurant/images/Rvw/176157/640x640_rect_3838f2e9022d31d2c59aeb902ab1494b.jpg",
    "address": "三重県多気郡明和町大字金剛坂776-21",
    "rating": 4.02,
    "ratingCount": 248,
    "lat": 34.5323534376336,
    "lng": 136.60525297383384,
    "year": 2025,
    "award": "2025 ・ 百名店 フレンチ 西日本"
  },
  {
    "rank": 8,
    "id": "27074095",
    "name": "レストランディファランス",
    "url": "https://tabelog.com/osaka/A2701/A270102/27074095/",
    "image": "https://tblg.k-img.com/restaurant/images/Rvw/189340/640x640_rect_98f639444c2a338c6ea8188c56496b11.jpg",
    "address": "大阪府大阪市西区靱本町1-16-12",
    "rating": 3.74,
    "ratingCount": 299,
    "lat": 34.684540797988504,
    "lng": 135.49428030731158,
    "year": 2025,
    "award": "2025 ・ 百名店 フレンチ 西日本"
  },
  {
    "rank": 9,
    "id": "27130596",
    "name": "IAKU ",
    "url": "https://tabelog.com/osaka/A2701/A270101/27130596/",
    "image": "https://tblg.k-img.com/restaurant/images/Rvw/198575/640x640_rect_ee103b05e5305045ce85f1032504179d.jpg",
    "address": "大阪府大阪市北区曽根崎新地1-3-30 北新地KOHDAビル6階606B号室",
    "rating": 3.96,
    "ratingCount": 182,
    "lat": 34.69747879205874,
    "lng": 135.4967364295947,
    "year": 2025,
    "award": "2025 ・ 百名店 フレンチ 西日本"
  },
  {
    "rank": 10,
    "id": "24000015",
    "name": "ボン・ヴィヴァン",
    "url": "https://tabelog.com/mie/A2403/A240301/24000015/",
    "image": "https://tblg.k-img.com/restaurant/images/Rvw/307146/640x640_rect_10842da22736f3cb33f6fd3cd8c71b50.jpg",
    "address": "三重県伊勢市本町20-24",
    "rating": 3.71,
    "ratingCount": 150,
    "lat": 34.48810673769431,
    "lng": 136.7076657733151,
    "year": 2025,
    "award": "2025 ・ 百名店 フレンチ 西日本"
  },
  {
    "rank": 11,
    "id": "27080791",
    "name": "ad hoc ",
    "url": "https://tabelog.com/osaka/A2701/A270108/27080791/",
    "image": "https://tblg.k-img.com/restaurant/images/Rvw/118859/640x640_rect_118859203.jpg",
    "address": "大阪府大阪市福島区福島1-1-48",
    "rating": 4.09,
    "ratingCount": 531,
    "lat": 34.694147587980716,
    "lng": 135.48901028741233,
    "year": 2025,
    "award": "2025 ・ 百名店 フレンチ 西日本"
  },
  {
    "rank": 12,
    "id": "35010129",
    "name": "レストラン 高津",
    "url": "https://tabelog.com/yamaguchi/A3502/A350201/35010129/",
    "image": "https://tblg.k-img.com/restaurant/images/Rvw/280889/640x640_rect_7a8d2d2657de69b7d3817d756327dab6.jpg",
    "address": "山口県下関市岬之町13-7",
    "rating": 4.04,
    "ratingCount": 98,
    "lat": 33.95161783619668,
    "lng": 130.93513217194246,
    "year": 2025,
    "award": "2025 ・ 百名店 フレンチ 西日本"
  },
  {
    "rank": 13,
    "id": "27089343",
    "name": "エヴォリュエ",
    "url": "https://tabelog.com/osaka/A2701/A270108/27089343/",
    "image": "https://tblg.k-img.com/restaurant/images/Rvw/104440/640x640_rect_104440320.jpg",
    "address": "大阪府大阪市福島区福島3-11-10",
    "rating": 3.7,
    "ratingCount": 276,
    "lat": 34.694048737174136,
    "lng": 135.48500887625235,
    "year": 2025,
    "award": "2025 ・ 百名店 フレンチ 西日本"
  },
  {
    "rank": 14,
    "id": "40000376",
    "name": "レストラン・ジョルジュマルソー",
    "url": "https://tabelog.com/fukuoka/A4001/A400104/40000376/",
    "image": "https://tblg.k-img.com/restaurant/images/Rvw/239602/640x640_rect_8ab65cc53319cb5f74998e0bb495ead0.jpg",
    "address": "福岡県福岡市中央区大手門1-1-27 オーテモンウェルリバーテラス　１Ｆ",
    "rating": 3.69,
    "ratingCount": 296,
    "lat": 33.588966036252366,
    "lng": 130.38673296866375,
    "year": 2025,
    "award": "2025 ・ 百名店 フレンチ 西日本"
  },
  {
    "rank": 15,
    "id": "27100646",
    "name": "しまなみふれんち Murakami",
    "url": "https://tabelog.com/osaka/A2701/A270103/27100646/",
    "image": "https://tblg.k-img.com/restaurant/images/Rvw/354539/640x640_rect_5b44cf96093f527f1985d15aa1130a83.jpg",
    "address": "大阪府大阪市北区天神橋1-13-15 大阪グリーン会館 102",
    "rating": 4.08,
    "ratingCount": 721,
    "lat": 34.69462343718243,
    "lng": 135.51220367623912,
    "year": 2025,
    "award": "2025 ・ 百名店 フレンチ 西日本"
  },
  {
    "rank": 16,
    "id": "16004341",
    "name": "カーヴ ユノキ",
    "url": "https://tabelog.com/toyama/A1601/A160101/16004341/",
    "image": "https://tblg.k-img.com/restaurant/images/Rvw/364356/640x640_rect_20dc1db3e6358859531bdf1145fa9ca3.jpg",
    "address": "富山県富山市東岩瀬102 森家土蔵群二番",
    "rating": 3.73,
    "ratingCount": 63,
    "lat": 36.75744709722421,
    "lng": 137.2283870070343,
    "year": 2025,
    "award": "2025 ・ 百名店 フレンチ 西日本"
  },
  {
    "rank": 17,
    "id": "26029123",
    "name": "Droit",
    "url": "https://tabelog.com/kyoto/A2601/A260503/26029123/",
    "image": "https://tblg.k-img.com/restaurant/images/Rvw/211969/640x640_rect_d6ad67fffbfbce59041549b55d195a28.jpg",
    "address": "京都府京都市上京区寺町東桜町49-1",
    "rating": 3.8,
    "ratingCount": 50,
    "lat": 35.02239194051835,
    "lng": 135.76763562869633,
    "year": 2025,
    "award": "2025 ・ 百名店 フレンチ 西日本"
  },
  {
    "rank": 18,
    "id": "34026765",
    "name": "中土",
    "url": "https://tabelog.com/hiroshima/A3401/A340108/34026765/",
    "image": "https://tblg.k-img.com/restaurant/images/Rvw/194173/640x640_rect_1260d39373e6a0caa5da85de5901c611.jpg",
    "address": "広島県広島市中区堀川町4-18 胡子GRIT 5F",
    "rating": 4.14,
    "ratingCount": 187,
    "lat": 34.39270130162393,
    "lng": 132.46356652339944,
    "year": 2025,
    "award": "2025 ・ 百名店 フレンチ 西日本"
  },
  {
    "rank": 19,
    "id": "27104681",
    "name": "Imparfait",
    "url": "https://tabelog.com/osaka/A2701/A270106/27104681/",
    "image": "https://tblg.k-img.com/restaurant/images/Rvw/86402/640x640_rect_86402948.jpg",
    "address": "大阪府大阪市西区靱本町1-1-19 NET LIFE 本町 1F",
    "rating": 3.63,
    "ratingCount": 269,
    "lat": 34.68689843718274,
    "lng": 135.49779207617118,
    "year": 2025,
    "award": "2025 ・ 百名店 フレンチ 西日本"
  },
  {
    "rank": 21,
    "id": "17012469",
    "name": "レストランぶどうの森 レ・トネル",
    "url": "https://tabelog.com/ishikawa/A1701/A170101/17012469/",
    "image": "https://tblg.k-img.com/restaurant/images/Rvw/335305/640x640_rect_27c4691d0637d5128b5e00f4e9352def.jpg",
    "address": "石川県金沢市岩出町ハ50-1 ぶどうの森・本店",
    "rating": 4.06,
    "ratingCount": 90,
    "lat": 36.61426416714644,
    "lng": 136.69862843595936,
    "year": 2025,
    "award": "2025 ・ 百名店 フレンチ 西日本"
  },
  {
    "rank": 22,
    "id": "27000095",
    "name": "カランドリエ",
    "url": "https://tabelog.com/osaka/A2701/A270106/27000095/",
    "image": "https://tblg.k-img.com/restaurant/images/Rvw/144205/640x640_rect_144205112.jpg",
    "address": "大阪府大阪市中央区本町3-2-15 小原3ビル 1F",
    "rating": 3.78,
    "ratingCount": 720,
    "lat": 34.68324473718689,
    "lng": 135.50350887613027,
    "year": 2025,
    "award": "2025 ・ 百名店 フレンチ 西日本"
  },
  {
    "rank": 23,
    "id": "30000022",
    "name": "オテル・ド・ヨシノ",
    "url": "https://tabelog.com/wakayama/A3001/A300101/30000022/",
    "image": "https://tblg.k-img.com/restaurant/images/Rvw/112941/320x320_rect_112941201.jpg",
    "address": "和歌山県和歌山市手平2-1-2 和歌山ビッグ愛 12F",
    "rating": 3.86,
    "ratingCount": 328,
    "lat": 34.21851626818773,
    "lng": 135.1904660028173,
    "year": 2025,
    "award": "2025 ・ 百名店 フレンチ 西日本"
  },
  {
    "rank": 24,
    "id": "26023370",
    "name": "リョウリヤ ステファン パンテル",
    "url": "https://tabelog.com/kyoto/A2601/A260202/26023370/",
    "image": "https://tblg.k-img.com/restaurant/images/Rvw/275596/640x640_rect_439d95be70fc243f0b27287b25640104.jpg",
    "address": "京都府京都市中京区柳馬場通丸太町下ル四丁目182",
    "rating": 4.18,
    "ratingCount": 431,
    "lat": 35.01717270693682,
    "lng": 135.7636503666416,
    "year": 2025,
    "award": "2025 ・ 百名店 フレンチ 西日本"
  },
  {
    "rank": 25,
    "id": "28004021",
    "name": "御影 ジュエンヌ",
    "url": "https://tabelog.com/hyogo/A2801/A280106/28004021/",
    "image": "https://tblg.k-img.com/restaurant/images/Rvw/203645/640x640_rect_174d503d54d76f7ec5c676e842fe49a0.jpg",
    "address": "兵庫県神戸市東灘区御影3-1-4 Ｍパレ御影　１Ｆ",
    "rating": 3.75,
    "ratingCount": 195,
    "lat": 34.72082653708195,
    "lng": 135.2489752766883,
    "year": 2025,
    "award": "2025 ・ 百名店 フレンチ 西日本"
  },
  {
    "rank": 26,
    "id": "27102124",
    "name": "イデアル ビストロ",
    "url": "https://tabelog.com/osaka/A2701/A270104/27102124/",
    "image": "https://tblg.k-img.com/restaurant/images/Rvw/280717/320x320_rect_3a9534ed7853b2bc72b76d34b6be9756.jpg",
    "address": "大阪府大阪市中央区谷町1-6-5 T165ビル 2F",
    "rating": 3.66,
    "ratingCount": 129,
    "lat": 34.68895378315325,
    "lng": 135.5170145726277,
    "year": 2025,
    "award": "2025 ・ 百名店 フレンチ 西日本"
  },
  {
    "rank": 27,
    "id": "27115254",
    "name": "Point",
    "url": "https://tabelog.com/osaka/A2706/A270601/27115254/",
    "image": "https://tblg.k-img.com/restaurant/images/Rvw/208478/640x640_rect_47df952db39be51e0ee5cc7e7fad68da.jpg",
    "address": "大阪府豊中市上野東2-17-47",
    "rating": 4.17,
    "ratingCount": 83,
    "lat": 34.793079157109915,
    "lng": 135.47631288099907,
    "year": 2025,
    "award": "2025 ・ 百名店 フレンチ 西日本"
  },
  {
    "rank": 28,
    "id": "28047247",
    "name": "エスピス",
    "url": "https://tabelog.com/hyogo/A2801/A280101/28047247/",
    "image": "https://tblg.k-img.com/restaurant/images/Rvw/274522/640x640_rect_d3cd6dceacf4b3dd371ead0dfba45f3c.jpg",
    "address": "兵庫県神戸市中央区中山手通2-3-25 メゾンエスプリ生田1-1",
    "rating": 3.92,
    "ratingCount": 420,
    "lat": 34.694311537079784,
    "lng": 135.18925517646235,
    "year": 2025,
    "award": "2025 ・ 百名店 フレンチ 西日本"
  },
  {
    "rank": 29,
    "id": "40049259",
    "name": "Yorgo",
    "url": "https://tabelog.com/fukuoka/A4001/A400104/40049259/",
    "image": "https://tblg.k-img.com/restaurant/images/Rvw/256659/640x640_rect_0686fd86acf9afd6642b096f550f359f.jpg",
    "address": "福岡県福岡市中央区大名1-2-15 GF SQUARE大名 1F 餃子のラスベガス",
    "rating": 3.73,
    "ratingCount": 406,
    "lat": 33.585635642007055,
    "lng": 130.3939563964147,
    "year": 2025,
    "award": "2025 ・ 百名店 フレンチ 西日本"
  },
  {
    "rank": 30,
    "id": "40064406",
    "name": "Syn",
    "url": "https://tabelog.com/fukuoka/A4001/A400105/40064406/",
    "image": "https://tblg.k-img.com/restaurant/images/Rvw/339910/640x640_rect_8644b7f5160b5e28f1f72dff8a5d8f34.jpg",
    "address": "福岡県福岡市中央区草香江1-5-22 大濠ガーデンBFビル 4F",
    "rating": 4.03,
    "ratingCount": 51,
    "lat": 33.581708247058735,
    "lng": 130.37540060976016,
    "year": 2025,
    "award": "2025 ・ 百名店 フレンチ 西日本"
  },
  {
    "rank": 31,
    "id": "24015675",
    "name": "レチュード",
    "url": "https://tabelog.com/mie/A2404/A240401/24015675/",
    "image": "https://tblg.k-img.com/restaurant/images/Rvw/367393/640x640_rect_72e247b96359a016f791472b3eeda9ea.jpg",
    "address": "三重県-伊賀市島ヶ原4826",
    "rating": 3.74,
    "ratingCount": 47,
    "lat": 34.77093522811316,
    "lng": 136.05800730778913,
    "year": 2025,
    "award": "2025 ・ 百名店 フレンチ 西日本"
  },
  {
    "rank": 32,
    "id": "27088075",
    "name": "プレスキル",
    "url": "https://tabelog.com/osaka/A2701/A270102/27088075/",
    "image": "https://tblg.k-img.com/restaurant/images/Rvw/68859/640x640_rect_68859501.jpg",
    "address": "大阪府大阪市中央区今橋4-1-1 淀屋橋odona 2F",
    "rating": 3.76,
    "ratingCount": 419,
    "lat": 34.69095423718096,
    "lng": 135.5002581762104,
    "year": 2025,
    "award": "2025 ・ 百名店 フレンチ 西日本"
  },
  {
    "rank": 33,
    "id": "35000251",
    "name": "日和庵",
    "url": "https://tabelog.com/yamaguchi/A3502/A350201/35000251/",
    "image": "https://tblg.k-img.com/restaurant/images/Rvw/51970/640x640_rect_51970685.jpg",
    "address": "山口県下関市丸山町5-3-19",
    "rating": 3.69,
    "ratingCount": 134,
    "lat": 33.95412863619419,
    "lng": 130.9323268719698,
    "year": 2025,
    "award": "2025 ・ 百名店 フレンチ 西日本"
  },
  {
    "rank": 34,
    "id": "27009418",
    "name": "リュミエール",
    "url": "https://tabelog.com/osaka/A2701/A270201/27009418/",
    "image": "https://tblg.k-img.com/restaurant/images/Rvw/45175/640x640_rect_45175140.jpg",
    "address": "大阪府大阪市中央区東心斎橋1-19-15 ＵＮＡＧＩＤＡＮＩ－ＢＬＯＣＫ　３Ｆ",
    "rating": 3.7,
    "ratingCount": 401,
    "lat": 34.67464843719204,
    "lng": 135.50249957604413,
    "year": 2025,
    "award": "2025 ・ 百名店 フレンチ 西日本"
  },
  {
    "rank": 35,
    "id": "45000051",
    "name": "ベル･エポック",
    "url": "https://tabelog.com/miyazaki/A4501/A450101/45000051/",
    "image": "https://tblg.k-img.com/restaurant/images/Rvw/229060/320x320_rect_5c063a5d477eacc6bf8d36590692cd0f.jpg",
    "address": "宮崎県宮崎市霧島3-6",
    "rating": 3.68,
    "ratingCount": 63,
    "lat": 31.931615938438156,
    "lng": 131.41604870236324,
    "year": 2025,
    "award": "2025 ・ 百名店 フレンチ 西日本"
  },
  {
    "rank": 36,
    "id": "40042563",
    "name": "L'eau Blanche",
    "url": "https://tabelog.com/fukuoka/A4001/A400102/40042563/",
    "image": "https://tblg.k-img.com/restaurant/images/Rvw/351889/640x640_rect_5f1f23c59476e72949b3901959845b01.jpg",
    "address": "福岡県福岡市中央区西中洲4-4 RIN FIRST 2F",
    "rating": 3.81,
    "ratingCount": 122,
    "lat": 33.5909822362573,
    "lng": 130.40622876867045,
    "year": 2025,
    "award": "2025 ・ 百名店 フレンチ 西日本"
  },
  {
    "rank": 37,
    "id": "28061147",
    "name": "SETTAN",
    "url": "https://tabelog.com/hyogo/A2801/A280112/28061147/",
    "image": "https://tblg.k-img.com/restaurant/images/Rvw/216329/640x640_rect_29e57a834a6a6f8ed783792cd23969d9.jpg",
    "address": "兵庫県神戸市北区八多町屏風965",
    "rating": 3.87,
    "ratingCount": 138,
    "lat": 34.81410832780454,
    "lng": 135.1750368588441,
    "year": 2025,
    "award": "2025 ・ 百名店 フレンチ 西日本"
  },
  {
    "rank": 38,
    "id": "40000006",
    "name": "レストランひらまつ 博多",
    "url": "https://tabelog.com/fukuoka/A4001/A400102/40000006/",
    "image": "https://tblg.k-img.com/restaurant/images/Rvw/253352/640x640_rect_eaa92f7e6b2b193edf657bfd16d2b0be.jpg",
    "address": "福岡県福岡市博多区下川端町3-1 博多リバレイン 2F",
    "rating": 3.72,
    "ratingCount": 320,
    "lat": 33.59493193625474,
    "lng": 130.40609076871044,
    "year": 2025,
    "award": "2025 ・ 百名店 フレンチ 西日本"
  },
  {
    "rank": 39,
    "id": "28043050",
    "name": "シェ シロ",
    "url": "https://tabelog.com/hyogo/A2801/A280101/28043050/",
    "image": "https://tblg.k-img.com/restaurant/images/Rvw/315026/640x640_rect_644e4d45865135553dce86a5e1ce7ba5.jpg",
    "address": "兵庫県神戸市中央区琴ノ緒町5-4-19 TMEビル 1F",
    "rating": 3.75,
    "ratingCount": 99,
    "lat": 34.696054887885715,
    "lng": 135.19449132763805,
    "year": 2025,
    "award": "2025 ・ 百名店 フレンチ 西日本"
  },
  {
    "rank": 40,
    "id": "27004963",
    "name": "Kamekichi",
    "url": "https://tabelog.com/osaka/A2701/A270104/27004963/",
    "image": "https://tblg.k-img.com/restaurant/images/Rvw/200991/640x640_rect_d37ef4974e5fe4d4fd0ec51452ec6090.jpg",
    "address": "大阪府大阪市中央区鎗屋町1-3-13",
    "rating": 3.75,
    "ratingCount": 790,
    "lat": 34.68264493719111,
    "lng": 135.51553697611575,
    "year": 2025,
    "award": "2025 ・ 百名店 フレンチ 西日本"
  },
  {
    "rank": 41,
    "id": "27069204",
    "name": "ラ・フェット ひらまつ",
    "url": "https://tabelog.com/osaka/A2701/A270102/27069204/",
    "image": "https://tblg.k-img.com/restaurant/images/Rvw/201719/640x640_rect_82c1e83cb3aac9a75ff19add6d790985.jpg",
    "address": "大阪府大阪市北区中之島2-3-18 中之島フェスティバルタワー 37F",
    "rating": 3.72,
    "ratingCount": 455,
    "lat": 34.69379313717804,
    "lng": 135.49674977624156,
    "year": 2025,
    "award": "2025 ・ 百名店 フレンチ 西日本"
  },
  {
    "rank": 42,
    "id": "27117389",
    "name": "フナシェフ",
    "url": "https://tabelog.com/osaka/A2701/A270101/27117389/",
    "image": "https://tblg.k-img.com/restaurant/images/Rvw/172792/640x640_rect_6584c52c6d58c108a14ae5b65a554b24.jpg",
    "address": "大阪府大阪市北区黒崎町6-4",
    "rating": 4.05,
    "ratingCount": 276,
    "lat": 34.706924987979036,
    "lng": 135.50919993752723,
    "year": 2025,
    "award": "2025 ・ 百名店 フレンチ 西日本"
  },
  {
    "rank": 43,
    "id": "27049485",
    "name": "La Cime",
    "url": "https://tabelog.com/osaka/A2701/A270106/27049485/",
    "image": "https://tblg.k-img.com/restaurant/images/Rvw/168059/640x640_rect_aaa175d507bda4169ef32847148a9130.jpg",
    "address": "大阪府大阪市中央区瓦町3-2-15 瓦町ウサミビル　1F",
    "rating": 4.01,
    "ratingCount": 459,
    "lat": 34.6858239679906,
    "lng": 135.50343761731813,
    "year": 2025,
    "award": "2025 ・ 百名店 フレンチ 西日本"
  },
  {
    "rank": 44,
    "id": "27001358",
    "name": "ラ・ベカス",
    "url": "https://tabelog.com/osaka/A2701/A270106/27001358/",
    "image": "https://tblg.k-img.com/restaurant/images/Rvw/102383/640x640_rect_102383365.jpg",
    "address": "大阪府大阪市中央区平野町3-3-9",
    "rating": 3.76,
    "ratingCount": 271,
    "lat": 34.68751373718378,
    "lng": 135.50226857617426,
    "year": 2025,
    "award": "2025 ・ 百名店 フレンチ 西日本"
  },
  {
    "rank": 45,
    "id": "27004550",
    "name": "コンヴィヴィアリテ",
    "url": "https://tabelog.com/osaka/A2701/A270201/27004550/",
    "image": "https://tblg.k-img.com/restaurant/images/Rvw/123041/640x640_rect_123041501.jpg",
    "address": "大阪府大阪市西区新町1-17-17",
    "rating": 3.69,
    "ratingCount": 357,
    "lat": 34.67773173718747,
    "lng": 135.494342776081,
    "year": 2025,
    "award": "2025 ・ 百名店 フレンチ 西日本"
  },
  {
    "rank": 46,
    "id": "26001319",
    "name": "レ・シャンドール",
    "url": "https://tabelog.com/kyoto/A2601/A260201/26001319/",
    "image": "https://tblg.k-img.com/restaurant/images/Rvw/141953/640x640_rect_141953140.jpg",
    "address": "京都府京都市中京区柳馬場通六角下ル井筒屋419",
    "rating": 3.75,
    "ratingCount": 143,
    "lat": 35.006565557869784,
    "lng": 135.76375025037544,
    "year": 2025,
    "award": "2025 ・ 百名店 フレンチ 西日本"
  },
  {
    "rank": 47,
    "id": "45011961",
    "name": "saint M",
    "url": "https://tabelog.com/miyazaki/A4501/A450101/45011961/",
    "image": "https://tblg.k-img.com/restaurant/images/Rvw/293890/640x640_rect_b0a5e707763d14ee5a7ecbe7a097f28b.jpg",
    "address": "宮崎県宮崎市橘通東3-7-6 中馬ビル 2F",
    "rating": 3.63,
    "ratingCount": 58,
    "lat": 31.914807137646193,
    "lng": 131.42462995102565,
    "year": 2025,
    "award": "2025 ・ 百名店 フレンチ 西日本"
  },
  {
    "rank": 48,
    "id": "27010835",
    "name": "弘屋",
    "url": "https://tabelog.com/osaka/A2701/A270101/27010835/",
    "image": "https://tblg.k-img.com/restaurant/images/Rvw/282045/640x640_rect_8fdbdfd2038f62599386759b0d794bc3.jpg",
    "address": "大阪府大阪市北区堂島1-3-1 二葉ビル 3Ｆ",
    "rating": 3.76,
    "ratingCount": 153,
    "lat": 34.696412637176934,
    "lng": 135.4984741762668,
    "year": 2025,
    "award": "2025 ・ 百名店 フレンチ 西日本"
  },
  {
    "rank": 49,
    "id": "27095611",
    "name": "オノウエ",
    "url": "https://tabelog.com/osaka/A2701/A270104/27095611/",
    "image": "https://tblg.k-img.com/restaurant/images/Rvw/168336/640x640_rect_e3c1c1d49a5543ab69da01ac861cd2d6.jpg",
    "address": "大阪府大阪市中央区糸屋町1-1-6 B1F",
    "rating": 3.64,
    "ratingCount": 102,
    "lat": 34.68553181799492,
    "lng": 135.51642349730608,
    "year": 2025,
    "award": "2025 ・ 百名店 フレンチ 西日本"
  },
  {
    "rank": 50,
    "id": "27013084",
    "name": "Le Caneton",
    "url": "https://tabelog.com/osaka/A2701/A270204/27013084/",
    "image": "https://tblg.k-img.com/restaurant/images/Rvw/256258/640x640_rect_b001a8ea0d5944d856f51381915f75b7.jpg",
    "address": "大阪府大阪市中央区上本町西2-6-23",
    "rating": 3.71,
    "ratingCount": 376,
    "lat": 34.674048637197366,
    "lng": 135.51806987602717,
    "year": 2025,
    "award": "2025 ・ 百名店 フレンチ 西日本"
  },
  {
    "rank": 51,
    "id": "45006334",
    "name": "ポチロン",
    "url": "https://tabelog.com/miyazaki/A4501/A450101/45006334/",
    "image": "https://tblg.k-img.com/restaurant/images/Rvw/78673/640x640_rect_78673076.jpg",
    "address": "宮崎県宮崎市広島1-4-9 第一小田ビル 1F",
    "rating": 3.7,
    "ratingCount": 166,
    "lat": 31.91595224807175,
    "lng": 131.42534928127682,
    "year": 2025,
    "award": "2025 ・ 百名店 フレンチ 西日本"
  },
  {
    "rank": 52,
    "id": "40046501",
    "name": "restaurant mamagoto",
    "url": "https://tabelog.com/fukuoka/A4001/A400201/40046501/",
    "image": "https://tblg.k-img.com/restaurant/images/Rvw/75703/640x640_rect_75703547.jpg",
    "address": "福岡県福岡市東区筥松3-12-20",
    "rating": 3.8,
    "ratingCount": 172,
    "lat": 33.62631853624222,
    "lng": 130.42939686901113,
    "year": 2025,
    "award": "2025 ・ 百名店 フレンチ 西日本"
  },
  {
    "rank": 53,
    "id": "29010031",
    "name": "ラ・トラース",
    "url": "https://tabelog.com/nara/A2901/A290101/29010031/",
    "image": "https://tblg.k-img.com/restaurant/images/Rvw/317953/640x640_rect_0cf2377ec310556707e055745bc2e925.jpg",
    "address": "奈良県奈良市大宮町2-1-5 カーサヤマグチ 1F",
    "rating": 3.73,
    "ratingCount": 128,
    "lat": 34.68209553728751,
    "lng": 135.8171658758988,
    "year": 2025,
    "award": "2025 ・ 百名店 フレンチ 西日本"
  },
  {
    "rank": 54,
    "id": "29006211",
    "name": "ラ・テラス イリゼ",
    "url": "https://tabelog.com/nara/A2901/A290102/29006211/",
    "image": "https://tblg.k-img.com/restaurant/images/Rvw/262062/640x640_rect_d4e5a722d0373be041108d402a40b409.jpg",
    "address": "奈良県奈良市あやめ池北1-34-7 HANA　1F",
    "rating": 3.72,
    "ratingCount": 129,
    "lat": 34.69890002959249,
    "lng": 135.76059749625884,
    "year": 2025,
    "award": "2025 ・ 百名店 フレンチ 西日本"
  },
  {
    "rank": 55,
    "id": "42000543",
    "name": "オーベルジュあかだま",
    "url": "https://tabelog.com/nagasaki/A4201/A420102/42000543/",
    "image": "https://tblg.k-img.com/restaurant/images/Rvw/74897/640x640_rect_74897683.jpg",
    "address": "長崎県西海市大島町寺島1383-4",
    "rating": 3.73,
    "ratingCount": 51,
    "lat": 33.03486863717014,
    "lng": 129.6346294547558,
    "year": 2025,
    "award": "2025 ・ 百名店 フレンチ 西日本"
  },
  {
    "rank": 56,
    "id": "40004819",
    "name": "レザン ドール",
    "url": "https://tabelog.com/fukuoka/A4001/A400103/40004819/",
    "image": "https://tblg.k-img.com/restaurant/images/Rvw/286345/640x640_rect_f1f5260d882605d58ac6d8eed352c844.jpg",
    "address": "福岡県福岡市中央区西中洲2-25 ＳＴＡＧＥ1西中洲 1F",
    "rating": 3.77,
    "ratingCount": 146,
    "lat": 33.59050533625727,
    "lng": 130.40521176866636,
    "year": 2025,
    "award": "2025 ・ 百名店 フレンチ 西日本"
  },
  {
    "rank": 57,
    "id": "28034210",
    "name": "ギュール ルモンテ",
    "url": "https://tabelog.com/hyogo/A2801/A280102/28034210/",
    "image": "https://tblg.k-img.com/restaurant/images/Rvw/116401/640x640_rect_116401575.jpg",
    "address": "兵庫県神戸市中央区元町通1-4-12 MISXビル 1F",
    "rating": 3.68,
    "ratingCount": 123,
    "lat": 34.688535337083465,
    "lng": 135.18930037640396,
    "year": 2025,
    "award": "2025 ・ 百名店 フレンチ 西日本"
  },
  {
    "rank": 58,
    "id": "17012300",
    "name": "マキノンチ",
    "url": "https://tabelog.com/ishikawa/A1701/A170101/17012300/",
    "image": "https://tblg.k-img.com/restaurant/images/Rvw/194437/640x640_rect_49901770cd27aca19347742c783e97fa.jpg",
    "address": "石川県金沢市山の上町25-18",
    "rating": 4.22,
    "ratingCount": 154,
    "lat": 36.57668113635704,
    "lng": 136.67383039443536,
    "year": 2025,
    "award": "2025 ・ 百名店 フレンチ 西日本"
  },
  {
    "rank": 59,
    "id": "26019431",
    "name": "MOTOI",
    "url": "https://tabelog.com/kyoto/A2601/A260202/26019431/",
    "image": "https://tblg.k-img.com/restaurant/images/Rvw/342393/640x640_rect_25ac330e09f36a99afbe640687f07c93.jpg",
    "address": "京都府京都市中京区富小路通二条下ル俵屋町186",
    "rating": 4.1,
    "ratingCount": 492,
    "lat": 35.01273240786622,
    "lng": 135.76482094043698,
    "year": 2025,
    "award": "2025 ・ 百名店 フレンチ 西日本"
  },
  {
    "rank": 60,
    "id": "26023539",
    "name": "青いけ",
    "url": "https://tabelog.com/kyoto/A2601/A260202/26023539/",
    "image": "https://tblg.k-img.com/restaurant/images/Rvw/162922/640x640_rect_6fb7abf7616747f66136ac60b0f84e1f.jpg",
    "address": "京都府京都市中京区竹屋町通高倉西入塀之内町631",
    "rating": 3.73,
    "ratingCount": 93,
    "lat": 35.01630732446281,
    "lng": 135.76188671557298,
    "year": 2025,
    "award": "2025 ・ 百名店 フレンチ 西日本"
  },
  {
    "rank": 61,
    "id": "26025794",
    "name": "山地陽介",
    "url": "https://tabelog.com/kyoto/A2601/A260301/26025794/",
    "image": "https://tblg.k-img.com/restaurant/images/Rvw/87947/640x640_rect_87947803.jpg",
    "address": "京都府京都市東山区祇園町南側570-151",
    "rating": 3.73,
    "ratingCount": 454,
    "lat": 35.0026863370707,
    "lng": 135.77569397916614,
    "year": 2025,
    "award": "2025 ・ 百名店 フレンチ 西日本"
  },
  {
    "rank": 62,
    "id": "27101441",
    "name": "LIAISON",
    "url": "https://tabelog.com/osaka/A2701/A270108/27101441/",
    "image": "https://tblg.k-img.com/restaurant/images/Rvw/76283/640x640_rect_76283409.jpg",
    "address": "大阪府大阪市福島区福島3-12-20 ツインコート 1F",
    "rating": 3.74,
    "ratingCount": 277,
    "lat": 34.694128937174284,
    "lng": 135.48563457625272,
    "year": 2025,
    "award": "2025 ・ 百名店 フレンチ 西日本"
  },
  {
    "rank": 63,
    "id": "28065011",
    "name": "entre nous",
    "url": "https://tabelog.com/hyogo/A2801/A280101/28065011/",
    "image": "https://tblg.k-img.com/restaurant/images/Rvw/280895/640x640_rect_eec848af778de0fc97cb064bea91940b.jpg",
    "address": "兵庫県神戸市中央区中山手通1-25-6 ラ･ドルレイ神戸三宮ビル 2F",
    "rating": 4.28,
    "ratingCount": 107,
    "lat": 34.69667333788426,
    "lng": 135.1911450776466,
    "year": 2025,
    "award": "2025 ・ 百名店 フレンチ 西日本"
  },
  {
    "rank": 64,
    "id": "34001321",
    "name": "hiroto",
    "url": "https://tabelog.com/hiroshima/A3401/A340117/34001321/",
    "image": "https://tblg.k-img.com/restaurant/images/Rvw/124042/640x640_rect_124042867.jpg",
    "address": "広島県広島市中区富士見町4-17",
    "rating": 3.87,
    "ratingCount": 137,
    "lat": 34.387879536405336,
    "lng": 132.46035127527998,
    "year": 2025,
    "award": "2025 ・ 百名店 フレンチ 西日本"
  },
  {
    "rank": 65,
    "id": "16000678",
    "name": "薪の音",
    "url": "https://tabelog.com/toyama/A1605/A160502/16000678/",
    "image": "https://tblg.k-img.com/restaurant/images/Rvw/478/640x640_rect_478066.jpg",
    "address": "富山県南砺市野口140 里山の宿 薪の音",
    "rating": 3.86,
    "ratingCount": 83,
    "lat": 36.5069083364701,
    "lng": 136.8896574935793,
    "year": 2025,
    "award": "2025 ・ 百名店 フレンチ 西日本"
  },
  {
    "rank": 66,
    "id": "40023784",
    "name": "MAISON LAFITE",
    "url": "https://tabelog.com/fukuoka/A4003/A400301/40023784/",
    "image": "https://tblg.k-img.com/restaurant/images/Rvw/124439/640x640_rect_124439446.jpg",
    "address": "福岡県那珂川市西畑941",
    "rating": 4.19,
    "ratingCount": 141,
    "lat": 33.48746886712476,
    "lng": 130.39478395879468,
    "year": 2025,
    "award": "2025 ・ 百名店 フレンチ 西日本"
  },
  {
    "rank": 67,
    "id": "26026551",
    "name": "RESTAURANT hidamarino",
    "url": "https://tabelog.com/kyoto/A2601/A260101/26026551/",
    "image": "https://tblg.k-img.com/restaurant/images/Rvw/89902/640x640_rect_89902597.jpg",
    "address": "京都府京都市下京区高倉通四条下ル高材木町218 レックスTSUBAKIビル 1F",
    "rating": 3.7,
    "ratingCount": 145,
    "lat": 35.003021534823915,
    "lng": 135.76249941229352,
    "year": 2025,
    "award": "2025 ・ 百名店 フレンチ 西日本"
  },
  {
    "rank": 68,
    "id": "18009178",
    "name": "ル ジャルダン",
    "url": "https://tabelog.com/fukui/A1801/A180101/18009178/",
    "image": "https://tblg.k-img.com/restaurant/images/Rvw/203608/640x640_rect_4e81e6ae534947621acde102b7b1af45.jpg",
    "address": "福井県福井市文京4-28-16",
    "rating": 3.87,
    "ratingCount": 67,
    "lat": 36.07978503652421,
    "lng": 136.20776588974294,
    "year": 2025,
    "award": "2025 ・ 百名店 フレンチ 西日本"
  },
  {
    "rank": 69,
    "id": "40053899",
    "name": "le・sud",
    "url": "https://tabelog.com/fukuoka/A4001/A400104/40053899/",
    "image": "https://tblg.k-img.com/restaurant/images/Rvw/226044/320x320_rect_fed78f721231af53c7129459576aa5ab.jpg",
    "address": "福岡県福岡市中央区薬院1-6-25 ルネスキューブ 1F",
    "rating": 3.75,
    "ratingCount": 79,
    "lat": 33.582531436260446,
    "lng": 130.39926366858995,
    "year": 2025,
    "award": "2025 ・ 百名店 フレンチ 西日本"
  },
  {
    "rank": 70,
    "id": "46006467",
    "name": "okas",
    "url": "https://tabelog.com/kagoshima/A4605/A460501/46006467/",
    "image": "https://tblg.k-img.com/restaurant/images/Rvw/156883/640x640_rect_156883363.jpg",
    "address": "鹿児島県熊毛郡屋久島町麦生字萩野上553 sankara hotel&spa 屋久島",
    "rating": 3.89,
    "ratingCount": 76,
    "lat": 30.263989299237192,
    "lng": 130.59929731609117,
    "year": 2025,
    "award": "2025 ・ 百名店 フレンチ 西日本"
  },
  {
    "rank": 71,
    "id": "17009914",
    "name": "Installation Table ENSO L'asymetrie du calme",
    "url": "https://tabelog.com/ishikawa/A1701/A170101/17009914/",
    "image": "https://tblg.k-img.com/restaurant/images/Rvw/170504/640x640_rect_96de54d12d0c8c2ad11e74761e6023b4.jpg",
    "address": "石川県金沢市池田町4番丁33",
    "rating": 4.13,
    "ratingCount": 299,
    "lat": 36.557753377167685,
    "lng": 136.65266817542079,
    "year": 2025,
    "award": "2025 ・ 百名店 フレンチ 西日本"
  },
  {
    "rank": 72,
    "id": "36005067",
    "name": "ラトリエ あべ",
    "url": "https://tabelog.com/tokushima/A3602/A360203/36005067/",
    "image": "https://tblg.k-img.com/restaurant/images/Rvw/194116/640x640_rect_3c1b8aabd2c92739592213a6a6e5941d.jpg",
    "address": "徳島県海部郡美波町山河内字なか26",
    "rating": 3.84,
    "ratingCount": 40,
    "lat": 33.7157521682824,
    "lng": 134.48506599823335,
    "year": 2025,
    "award": "2025 ・ 百名店 フレンチ 西日本"
  },
  {
    "rank": 73,
    "id": "35012723",
    "name": "maison owl",
    "url": "https://tabelog.com/yamaguchi/A3504/A350401/35012723/",
    "image": "https://tblg.k-img.com/restaurant/images/Rvw/276256/640x640_rect_76c7efcc90b08c7e401d9352362c0257.jpg",
    "address": "山口県宇部市大字中宇部字西山1677-1",
    "rating": 3.94,
    "ratingCount": 83,
    "lat": 33.96998853628647,
    "lng": 131.25367667190474,
    "year": 2025,
    "award": "2025 ・ 百名店 フレンチ 西日本"
  },
  {
    "rank": 74,
    "id": "26000799",
    "name": "シェモア",
    "url": "https://tabelog.com/kyoto/A2601/A260202/26000799/",
    "image": "https://tblg.k-img.com/restaurant/images/Rvw/288559/640x640_rect_cbf6404167822c584e4540a4dd1331a0.jpg",
    "address": "京都府京都市中京区御幸町通り御池上ル西側",
    "rating": 3.67,
    "ratingCount": 56,
    "lat": 35.01126782693639,
    "lng": 135.7661673739204,
    "year": 2025,
    "award": "2025 ・ 百名店 フレンチ 西日本"
  },
  {
    "rank": 75,
    "id": "27097883",
    "name": "ORIGIN",
    "url": "https://tabelog.com/osaka/A2701/A270104/27097883/",
    "image": "https://tblg.k-img.com/restaurant/images/Rvw/109035/640x640_rect_109035319.jpg",
    "address": "大阪府大阪市中央区釣鐘町1-4-3 舟瀬ビル 1F",
    "rating": 3.91,
    "ratingCount": 117,
    "lat": 34.68810753799304,
    "lng": 135.51564760733265,
    "year": 2025,
    "award": "2025 ・ 百名店 フレンチ 西日本"
  },
  {
    "rank": 76,
    "id": "34000006",
    "name": "ル ジャルダン グルマン",
    "url": "https://tabelog.com/hiroshima/A3401/A340122/34000006/",
    "image": "https://tblg.k-img.com/restaurant/images/Rvw/208365/640x640_rect_e85de6aaa7451ca0c0ca6fbaaa21840c.jpg",
    "address": "広島県広島市西区古江東町11-35",
    "rating": 3.74,
    "ratingCount": 128,
    "lat": 34.388864477193884,
    "lng": 132.40948413648735,
    "year": 2025,
    "award": "2025 ・ 百名店 フレンチ 西日本"
  },
  {
    "rank": 77,
    "id": "27000702",
    "name": "ラ・ベ",
    "url": "https://tabelog.com/osaka/A2701/A270101/27000702/",
    "image": "https://tblg.k-img.com/restaurant/images/Rvw/196443/640x640_rect_8a121d9d278b12d7c194dfbe910c9229.jpg",
    "address": "大阪府大阪市北区梅田2-5-25 ザ・リッツ・カールトン大阪 5F",
    "rating": 3.97,
    "ratingCount": 741,
    "lat": 34.6981069179793,
    "lng": 135.49245519744989,
    "year": 2025,
    "award": "2025 ・ 百名店 フレンチ 西日本"
  },
  {
    "rank": 78,
    "id": "28005651",
    "name": "ラ メゾン ドゥ グラシアニ 神戸北野",
    "url": "https://tabelog.com/hyogo/A2801/A280101/28005651/",
    "image": "https://tblg.k-img.com/restaurant/images/Rvw/121172/640x640_rect_121172770.jpg",
    "address": "兵庫県神戸市中央区北野町4-8-1 グラシアニ邸",
    "rating": 3.67,
    "ratingCount": 282,
    "lat": 34.69857613707671,
    "lng": 135.18812107650618,
    "year": 2025,
    "award": "2025 ・ 百名店 フレンチ 西日本"
  },
  {
    "rank": 79,
    "id": "27132172",
    "name": "SINAE",
    "url": "https://tabelog.com/osaka/A2701/A270102/27132172/",
    "image": "https://tblg.k-img.com/restaurant/images/Rvw/301033/640x640_rect_3f98ed7d9d2077fe215b1b017dbd78cb.jpg",
    "address": "大阪府大阪市中央区伏見町2-4-12",
    "rating": 3.79,
    "ratingCount": 91,
    "lat": 34.68929933718345,
    "lng": 135.50471477619055,
    "year": 2025,
    "award": "2025 ・ 百名店 フレンチ 西日本"
  },
  {
    "rank": 80,
    "id": "26021417",
    "name": "レーヌ デ プレ",
    "url": "https://tabelog.com/kyoto/A2601/A260302/26021417/",
    "image": "https://tblg.k-img.com/restaurant/images/Rvw/241515/640x640_rect_464d9ef05470af1db5340a0a3f4a4c55.jpg",
    "address": "京都府京都市上京区中町通丸太町下ル駒之町537-1",
    "rating": 3.71,
    "ratingCount": 147,
    "lat": 35.017258083870935,
    "lng": 135.76984984784443,
    "year": 2025,
    "award": "2025 ・ 百名店 フレンチ 西日本"
  },
  {
    "rank": 81,
    "id": "17008112",
    "name": "タワラ",
    "url": "https://tabelog.com/ishikawa/A1701/A170101/17008112/",
    "image": "https://tblg.k-img.com/restaurant/images/Rvw/80545/640x640_rect_80545913.jpg",
    "address": "石川県金沢市片町2-10-19 ロイヤルプラザ片町 1F",
    "rating": 3.7,
    "ratingCount": 136,
    "lat": 36.562676836358584,
    "lng": 136.65075829431007,
    "year": 2025,
    "award": "2025 ・ 百名店 フレンチ 西日本"
  },
  {
    "rank": 82,
    "id": "47025427",
    "name": "Grand Bleu Gamin",
    "url": "https://tabelog.com/okinawa/A4705/A470503/47025427/",
    "image": "https://tblg.k-img.com/restaurant/images/Rvw/126656/640x640_rect_126656799.jpg",
    "address": "沖縄県宮古島市平良荷川取1064-1",
    "rating": 3.72,
    "ratingCount": 362,
    "lat": 24.838118173318005,
    "lng": 125.28614168488717,
    "year": 2025,
    "award": "2025 ・ 百名店 フレンチ 西日本"
  },
  {
    "rank": 83,
    "id": "27074083",
    "name": "ラボンヌターシュ",
    "url": "https://tabelog.com/osaka/A2701/A270101/27074083/",
    "image": "https://tblg.k-img.com/restaurant/images/Rvw/81295/640x640_rect_81295630.jpg",
    "address": "大阪府大阪市北区西天満4-1-8",
    "rating": 3.71,
    "ratingCount": 183,
    "lat": 34.696174437179224,
    "lng": 135.50523127625968,
    "year": 2025,
    "award": "2025 ・ 百名店 フレンチ 西日本"
  },
  {
    "rank": 84,
    "id": "24019061",
    "name": "Restaurant KAITO",
    "url": "https://tabelog.com/mie/A2402/A240201/24019061/",
    "image": "https://tblg.k-img.com/restaurant/images/Rvw/175170/640x640_rect_b53a3e233bad0e8b1a4239eb14459f56.jpg",
    "address": "三重県四日市市八幡町4-3",
    "rating": 3.86,
    "ratingCount": 48,
    "lat": 34.97051563736319,
    "lng": 136.62998967824234,
    "year": 2025,
    "award": "2025 ・ 百名店 フレンチ 西日本"
  },
  {
    "rank": 85,
    "id": "27116251",
    "name": "Pluie dete",
    "url": "https://tabelog.com/osaka/A2701/A270101/27116251/",
    "image": "https://tblg.k-img.com/restaurant/images/Rvw/333689/640x640_rect_103990ec984a286df6603f601174a0e3.jpg",
    "address": "大阪府大阪市北区梅田1-3-1-100 大阪駅前第一ビル 1F",
    "rating": 3.7,
    "ratingCount": 1241,
    "lat": 34.69867053717481,
    "lng": 135.49631557629112,
    "year": 2025,
    "award": "2025 ・ 百名店 フレンチ 西日本"
  },
  {
    "rank": 86,
    "id": "27116163",
    "name": "スガラボヴィー",
    "url": "https://tabelog.com/osaka/A2701/A270202/27116163/",
    "image": "https://tblg.k-img.com/restaurant/images/Rvw/169013/640x640_rect_b047f8bf09c0509471602de1a8c6d450.jpg",
    "address": "大阪府大阪市中央区心斎橋筋2-8-16 ルイ・ヴィトンメゾン 大阪御堂筋 7F",
    "rating": 4.21,
    "ratingCount": 436,
    "lat": 34.67123253719361,
    "lng": 135.50070097601088,
    "year": 2025,
    "award": "2025 ・ 百名店 フレンチ 西日本"
  },
  {
    "rank": 87,
    "id": "17009850",
    "name": "レストラン エンヌ",
    "url": "https://tabelog.com/ishikawa/A1701/A170101/17009850/",
    "image": "https://tblg.k-img.com/restaurant/images/Rvw/47518/640x640_rect_47518752.jpg",
    "address": "石川県金沢市本町2-1-2 １F",
    "rating": 3.72,
    "ratingCount": 77,
    "lat": 36.573816636351545,
    "lng": 136.65088629442252,
    "year": 2025,
    "award": "2025 ・ 百名店 フレンチ 西日本"
  },
  {
    "rank": 88,
    "id": "34024620",
    "name": "EPURE",
    "url": "https://tabelog.com/hiroshima/A3401/A340121/34024620/",
    "image": "https://tblg.k-img.com/restaurant/images/Rvw/311379/640x640_rect_60d0d30ee2501a2fcbe6498236438c1b.jpg",
    "address": "広島県広島市南区京橋町4-14",
    "rating": 3.92,
    "ratingCount": 49,
    "lat": 34.39556319720926,
    "lng": 132.4711365465118,
    "year": 2025,
    "award": "2025 ・ 百名店 フレンチ 西日本"
  },
  {
    "rank": 89,
    "id": "16007000",
    "name": "ランソレイエ",
    "url": "https://tabelog.com/toyama/A1605/A160502/16007000/",
    "image": "https://tblg.k-img.com/restaurant/images/Rvw/341894/640x640_rect_070cb88f3fabb5d1f09381b8b09aeed0.jpg",
    "address": "富山県南砺市立野原東1752-3",
    "rating": 3.57,
    "ratingCount": 32,
    "lat": 36.49758233727509,
    "lng": 136.86990074466073,
    "year": 2025,
    "award": "2025 ・ 百名店 フレンチ 西日本"
  },
  {
    "rank": 90,
    "id": "27133396",
    "name": "NH",
    "url": "https://tabelog.com/osaka/A2701/A270101/27133396/",
    "image": "https://tblg.k-img.com/restaurant/images/Rvw/343403/640x640_rect_93eecc6a072cfe56a1e4b00d196ac6e6.jpg",
    "address": "大阪府大阪市北区曽根崎新地1-5-11 新陽3rdビル 1～2F",
    "rating": 4.21,
    "ratingCount": 275,
    "lat": 34.69778590629279,
    "lng": 135.4967578367468,
    "year": 2025,
    "award": "2025 ・ 百名店 フレンチ 西日本"
  },
  {
    "rank": 91,
    "id": "26037313",
    "name": "la buche",
    "url": "https://tabelog.com/kyoto/A2601/A260504/26037313/",
    "image": "https://tblg.k-img.com/restaurant/images/Rvw/207779/640x640_rect_2254e1fde0a94eabffbbd6e384f52eb7.jpg",
    "address": "京都府京都市左京区大原来迎院町400-3",
    "rating": 3.72,
    "ratingCount": 42,
    "lat": 35.12006472781881,
    "lng": 135.83001910147544,
    "year": 2025,
    "award": "2025 ・ 百名店 フレンチ 西日本"
  },
  {
    "rank": 92,
    "id": "24000053",
    "name": "ラ・メール ザ クラシック",
    "url": "https://tabelog.com/mie/A2403/A240303/24000053/",
    "image": "https://tblg.k-img.com/restaurant/images/Rvw/120936/320x320_rect_120936796.jpg",
    "address": "三重県志摩市阿児町神明731 志摩観光ホテル ザ クラシック 1F",
    "rating": 3.99,
    "ratingCount": 527,
    "lat": 34.31013884864745,
    "lng": 136.8167191026028,
    "year": 2025,
    "award": "2025 ・ 百名店 フレンチ 西日本"
  },
  {
    "rank": 93,
    "id": "27119212",
    "name": "LES SOUVENIRS",
    "url": "https://tabelog.com/osaka/A2701/A270101/27119212/",
    "image": "https://tblg.k-img.com/restaurant/images/Rvw/200241/640x640_rect_2b158345c7c342edf91a4a56136f2660.jpg",
    "address": "大阪府大阪市北区曽根崎新地1-2-10 第3鈴木ビル 5F",
    "rating": 3.65,
    "ratingCount": 123,
    "lat": 34.697218537176184,
    "lng": 135.49774707627546,
    "year": 2025,
    "award": "2025 ・ 百名店 フレンチ 西日本"
  },
  {
    "rank": 94,
    "id": "27074473",
    "name": "アニエルドール",
    "url": "https://tabelog.com/osaka/A2701/A270105/27074473/",
    "image": "https://tblg.k-img.com/restaurant/images/Rvw/242033/640x640_rect_547e6da0c8293a750ab71e468127f16a.jpg",
    "address": "大阪府大阪市西区西本町2-4-4",
    "rating": 4.02,
    "ratingCount": 619,
    "lat": 34.68243543718342,
    "lng": 135.49099167613085,
    "year": 2025,
    "award": "2025 ・ 百名店 フレンチ 西日本"
  },
  {
    "rank": 95,
    "id": "27001184",
    "name": "レストラン ヴァリエ",
    "url": "https://tabelog.com/osaka/A2701/A270102/27001184/",
    "image": "https://tblg.k-img.com/restaurant/images/Rvw/22640/640x640_rect_22640595.jpg",
    "address": "大阪府大阪市北区中之島3-3-23 中之島ダイビル 2階",
    "rating": 3.7,
    "ratingCount": 572,
    "lat": 34.69312423717746,
    "lng": 135.493607376237,
    "year": 2025,
    "award": "2025 ・ 百名店 フレンチ 西日本"
  },
  {
    "rank": 96,
    "id": "26037720",
    "name": "middle",
    "url": "https://tabelog.com/kyoto/A2601/A260503/26037720/",
    "image": "https://tblg.k-img.com/restaurant/images/Rvw/320706/640x640_rect_e01bf8f09b93cb5ff4d56c73a6bbeba1.jpg",
    "address": "京都府京都市左京区下鴨上川原町5-3",
    "rating": 3.91,
    "ratingCount": 46,
    "lat": 35.0440836370405,
    "lng": 135.76346347959287,
    "year": 2025,
    "award": "2025 ・ 百名店 フレンチ 西日本"
  },
  {
    "rank": 97,
    "id": "40001046",
    "name": "レストラン 花の木",
    "url": "https://tabelog.com/fukuoka/A4001/A400105/40001046/",
    "image": "https://tblg.k-img.com/restaurant/images/Rvw/88754/320x320_rect_88754014.jpg",
    "address": "福岡県福岡市中央区大濠公園1-3 ボートハウス大濠パーク",
    "rating": 3.74,
    "ratingCount": 143,
    "lat": 33.58911919845013,
    "lng": 130.37651515063047,
    "year": 2025,
    "award": "2025 ・ 百名店 フレンチ 西日本"
  },
  {
    "rank": 98,
    "id": "26005856",
    "name": "いとう",
    "url": "https://tabelog.com/kyoto/A2601/A260301/26005856/",
    "image": "https://tblg.k-img.com/restaurant/images/Rvw/154936/640x640_rect_154936364.jpg",
    "address": "京都府京都市東山区古門前通石橋町307",
    "rating": 3.7,
    "ratingCount": 96,
    "lat": 35.006781727874035,
    "lng": 135.777492780368,
    "year": 2025,
    "award": "2025 ・ 百名店 フレンチ 西日本"
  },
  {
    "rank": 99,
    "id": "40050652",
    "name": "Restaurant Sola",
    "url": "https://tabelog.com/fukuoka/A4001/A400102/40050652/",
    "image": "https://tblg.k-img.com/restaurant/images/Rvw/173426/640x640_rect_821f865d958ec0af64d8df4dc1084412.jpg",
    "address": "福岡県福岡市博多区築港本町13-6 べイサイドプレイス博多C館 2F",
    "rating": 4.07,
    "ratingCount": 353,
    "lat": 33.60436312705182,
    "lng": 130.39885919997255,
    "year": 2025,
    "award": "2025 ・ 百名店 フレンチ 西日本"
  },
  {
    "rank": 100,
    "id": "26036019",
    "name": "La Biographie",
    "url": "https://tabelog.com/kyoto/A2601/A260203/26036019/",
    "image": "https://tblg.k-img.com/restaurant/images/Rvw/203831/640x640_rect_3b2c9ec43328e44504663ec8a91e5c69.jpg",
    "address": "京都府京都市上京区田中町422-1",
    "rating": 3.77,
    "ratingCount": 32,
    "lat": 35.02022525785451,
    "lng": 135.742994420528,
    "year": 2025,
    "award": "2025 ・ 百名店 フレンチ 西日本"
  }
]