[
  {
    "rank": 1,
    "id": "13002850",
    "name": "西洋菓子 しろたえ",
    "url": "https://tabelog.com/tokyo/A1308/A130801/13002850/",
    "image": "https://tblg.k-img.com/restaurant/images/Rvw/361487/640x640_rect_7421a9ebe561d1662fd71291de7ebd76.jpg",
    "address": "東京都港区赤坂4-1-4",
    "rating": 3.79,
    "ratingCount": 3108,
    "lat": 35.676665288709046,
    "lng": 139.73541840436005,
    "year": 2023,
    "award": "2023 ・ 百名店 スイーツ 東京"
  },
  {
    "rank": 2,
    "id": "13003450",
    "name": "ヨハン 本店",
    "url": "https://tabelog.com/tokyo/A1317/A131701/13003450/",
    "image": "https://tblg.k-img.com/restaurant/images/Rvw/92899/640x640_rect_92899041.jpg",
    "address": "東京都目黒区上目黒1-18-15",
    "rating": 3.76,
    "ratingCount": 1042,
    "lat": 35.64578243871692,
    "lng": 139.69857199407394,
    "year": 2023,
    "award": "2023 ・ 百名店 スイーツ 東京"
  },
  {
    "rank": 3,
    "id": "13126796",
    "name": "ひみつ堂",
    "url": "https://tabelog.com/tokyo/A1311/A131106/13126796/",
    "image": "https://tblg.k-img.com/restaurant/images/Rvw/184597/640x640_rect_6c9e67d044acfc562fa6009130568424.jpg",
    "address": "東京都台東区谷中3-11-18",
    "rating": 3.77,
    "ratingCount": 2892,
    "lat": 35.72734492868679,
    "lng": 139.7666059448501,
    "year": 2023,
    "award": "2023 ・ 百名店 スイーツ 東京"
  },
  {
    "rank": 4,
    "id": "13113676",
    "name": "ビヤンネートル",
    "url": "https://tabelog.com/tokyo/A1318/A131811/13113676/",
    "image": "https://tblg.k-img.com/restaurant/images/Rvw/342319/640x640_rect_93bb9f358037ae71e88566c380af24c7.jpg",
    "address": "東京都渋谷区上原1-21-10 上原坂の上21番館 1F",
    "rating": 3.76,
    "ratingCount": 913,
    "lat": 35.66824078869755,
    "lng": 139.68252996431204,
    "year": 2023,
    "award": "2023 ・ 百名店 スイーツ 東京"
  },
  {
    "rank": 5,
    "id": "13194959",
    "name": "クリオロ 本店",
    "url": "https://tabelog.com/tokyo/A1322/A132202/13194959/",
    "image": "https://tblg.k-img.com/restaurant/images/Rvw/182292/640x640_rect_ca7eae6cc8eefb3f2c50ec93dd462a68.jpg",
    "address": "東京都板橋区向原3-9-2 サントスビル 1F",
    "rating": 3.77,
    "ratingCount": 1251,
    "lat": 35.74446134864912,
    "lng": 139.68245252508197,
    "year": 2023,
    "award": "2023 ・ 百名店 スイーツ 東京"
  },
  {
    "rank": 6,
    "id": "13003221",
    "name": "Mont St. Clair",
    "url": "https://tabelog.com/tokyo/A1317/A131703/13003221/",
    "image": "https://tblg.k-img.com/restaurant/images/Rvw/365166/640x640_rect_f75b3aa0464bf853773192cfaf055883.jpg",
    "address": "東京都目黒区自由が丘2-22-4",
    "rating": 3.79,
    "ratingCount": 1947,
    "lat": 35.612728218727696,
    "lng": 139.66648351376253,
    "year": 2023,
    "award": "2023 ・ 百名店 スイーツ 東京"
  },
  {
    "rank": 7,
    "id": "13009142",
    "name": "フルーフ・デゥ・セゾン",
    "url": "https://tabelog.com/tokyo/A1311/A131101/13009142/",
    "image": "https://tblg.k-img.com/restaurant/images/Rvw/128693/640x640_rect_128693867.jpg",
    "address": "東京都千代田区外神田4-11-2",
    "rating": 3.72,
    "ratingCount": 1061,
    "lat": 35.70235997870467,
    "lng": 139.7729185245933,
    "year": 2023,
    "award": "2023 ・ 百名店 スイーツ 東京"
  },
  {
    "rank": 8,
    "id": "13023168",
    "name": "アルカション 本店",
    "url": "https://tabelog.com/tokyo/A1321/A132103/13023168/",
    "image": "https://tblg.k-img.com/restaurant/images/Rvw/109316/640x640_rect_109316061.jpg",
    "address": "東京都練馬区南大泉5-34-4",
    "rating": 3.76,
    "ratingCount": 700,
    "lat": 35.748980898610334,
    "lng": 139.56967718520667,
    "year": 2023,
    "award": "2023 ・ 百名店 スイーツ 東京"
  },
  {
    "rank": 9,
    "id": "13003097",
    "name": "パーラー ローレル",
    "url": "https://tabelog.com/tokyo/A1317/A131715/13003097/",
    "image": "https://tblg.k-img.com/restaurant/images/Rvw/234183/640x640_rect_12336227e4bd587d3df26a794a668e43.jpg",
    "address": "東京都世田谷区奥沢7-24-3 九品仏スカイハイツ 1F",
    "rating": 3.77,
    "ratingCount": 667,
    "lat": 35.60663495872905,
    "lng": 139.65858736370652,
    "year": 2023,
    "award": "2023 ・ 百名店 スイーツ 東京"
  },
  {
    "rank": 10,
    "id": "13138331",
    "name": "ラ・プレシューズ 四谷店",
    "url": "https://tabelog.com/tokyo/A1309/A130902/13138331/",
    "image": "https://tblg.k-img.com/restaurant/images/Rvw/118512/640x640_rect_118512562.jpg",
    "address": "東京都新宿区四谷1-5-25 アトレ四谷 1F",
    "rating": 3.74,
    "ratingCount": 502,
    "lat": 35.68617923789603,
    "lng": 139.7303847832979,
    "year": 2023,
    "award": "2023 ・ 百名店 スイーツ 東京"
  },
  {
    "rank": 11,
    "id": "13189509",
    "name": "PATISSERIE ASAKO IWAYANAGI",
    "url": "https://tabelog.com/tokyo/A1317/A131715/13189509/",
    "image": "https://tblg.k-img.com/restaurant/images/Rvw/319400/640x640_rect_39891e507587bd359e6f2c45ec165b6c.jpg",
    "address": "東京都世田谷区等々力4-4-5",
    "rating": 3.83,
    "ratingCount": 1472,
    "lat": 35.60806064872546,
    "lng": 139.65015787372684,
    "year": 2023,
    "award": "2023 ・ 百名店 スイーツ 東京"
  },
  {
    "rank": 12,
    "id": "13000178",
    "name": "パティスリー SATSUKI",
    "url": "https://tabelog.com/tokyo/A1308/A130803/13000178/",
    "image": "https://tblg.k-img.com/restaurant/images/Rvw/353000/640x640_rect_b39f24220ad950405fbf3c37a9c8651a.jpg",
    "address": "東京都千代田区紀尾井町4-1 ホテルニューオータニ東京 ロビィ階",
    "rating": 3.8,
    "ratingCount": 1814,
    "lat": 35.680918728705905,
    "lng": 139.734049104404,
    "year": 2023,
    "award": "2023 ・ 百名店 スイーツ 東京"
  },
  {
    "rank": 13,
    "id": "13095672",
    "name": "フルーツパーラーゴトー",
    "url": "https://tabelog.com/tokyo/A1311/A131102/13095672/",
    "image": "https://tblg.k-img.com/restaurant/images/Rvw/255319/640x640_rect_9cea667be2e8e755afe94f368b6a9149.jpg",
    "address": "東京都台東区浅草2-15-4",
    "rating": 3.77,
    "ratingCount": 1639,
    "lat": 35.715761278702814,
    "lng": 139.79381538471404,
    "year": 2023,
    "award": "2023 ・ 百名店 スイーツ 東京"
  },
  {
    "rank": 14,
    "id": "13005853",
    "name": "アテスウェイ",
    "url": "https://tabelog.com/tokyo/A1320/A132001/13005853/",
    "image": "https://tblg.k-img.com/restaurant/images/Rvw/122304/640x640_rect_122304810.jpg",
    "address": "東京都武蔵野市吉祥寺東町3-8-8 カサ吉祥寺２",
    "rating": 3.88,
    "ratingCount": 2620,
    "lat": 35.7090436286424,
    "lng": 139.5907304847885,
    "year": 2023,
    "award": "2023 ・ 百名店 スイーツ 東京"
  },
  {
    "rank": 15,
    "id": "13131338",
    "name": "果実園リーベル 東京店",
    "url": "https://tabelog.com/tokyo/A1302/A130201/13131338/",
    "image": "https://tblg.k-img.com/restaurant/images/Rvw/20267/640x640_rect_20267861.jpg",
    "address": "東京都千代田区丸の内1-9-1 東京駅 グランスタ 八重北食堂",
    "rating": 3.75,
    "ratingCount": 1927,
    "lat": 35.682240538715874,
    "lng": 139.76798157439353,
    "year": 2023,
    "award": "2023 ・ 百名店 スイーツ 東京"
  },
  {
    "rank": 16,
    "id": "13043019",
    "name": "ザ・ペニンシュラ ブティック＆カフェ",
    "url": "https://tabelog.com/tokyo/A1301/A130102/13043019/",
    "image": "https://tblg.k-img.com/restaurant/images/Rvw/359121/640x640_rect_1e97b2d30f1f5ca27d0ec45e8c21eb11.jpg",
    "address": "東京都千代田区有楽町1-8-1 ザ・ペニンシュラ東京 B1F",
    "rating": 3.81,
    "ratingCount": 1304,
    "lat": 35.674848269957295,
    "lng": 139.76031494377762,
    "year": 2023,
    "award": "2023 ・ 百名店 スイーツ 東京"
  },
  {
    "rank": 17,
    "id": "13024996",
    "name": "巴裡 小川軒 新橋店",
    "url": "https://tabelog.com/tokyo/A1301/A130103/13024996/",
    "image": "https://tblg.k-img.com/restaurant/images/Rvw/252054/640x640_rect_994b51f1c78d9bfee44ea27bcfcd5879.jpg",
    "address": "東京都港区新橋2-20-15 新橋駅前ビル1号館 1F",
    "rating": 3.75,
    "ratingCount": 1371,
    "lat": 35.66627041872339,
    "lng": 139.759755194238,
    "year": 2023,
    "award": "2023 ・ 百名店 スイーツ 東京"
  },
  {
    "rank": 18,
    "id": "13050996",
    "name": "シュークリー",
    "url": "https://tabelog.com/tokyo/A1302/A130204/13050996/",
    "image": "https://tblg.k-img.com/restaurant/images/Rvw/20746/640x640_rect_20746164.jpg",
    "address": "東京都中央区日本橋人形町1-5-5 セントハイム人形町源　１Ｆ",
    "rating": 3.78,
    "ratingCount": 1707,
    "lat": 35.68528417871827,
    "lng": 139.7815600944148,
    "year": 2023,
    "award": "2023 ・ 百名店 スイーツ 東京"
  },
  {
    "rank": 19,
    "id": "13217253",
    "name": "アルノー・ラエール 広尾本店",
    "url": "https://tabelog.com/tokyo/A1307/A130703/13217253/",
    "image": "https://tblg.k-img.com/restaurant/images/Rvw/241103/640x640_rect_772b80877573325acf481df057c82962.jpg",
    "address": "東京都渋谷区広尾5-19-9",
    "rating": 3.8,
    "ratingCount": 603,
    "lat": 35.64883913791656,
    "lng": 139.72042058292774,
    "year": 2023,
    "award": "2023 ・ 百名店 スイーツ 東京"
  },
  {
    "rank": 20,
    "id": "13003828",
    "name": "フレンチ パウンド ハウス 大和郷本店",
    "url": "https://tabelog.com/tokyo/A1323/A132301/13003828/",
    "image": "https://tblg.k-img.com/restaurant/images/Rvw/235955/640x640_rect_be0709386ea2f4a1b522bca1f8321029.jpg",
    "address": "東京都豊島区巣鴨1-4-4 マンション サンビップ巣鴨　1F",
    "rating": 3.77,
    "ratingCount": 1614,
    "lat": 35.73296688867535,
    "lng": 139.7419152449242,
    "year": 2023,
    "award": "2023 ・ 百名店 スイーツ 東京"
  },
  {
    "rank": 21,
    "id": "13005641",
    "name": "エーグルドゥース",
    "url": "https://tabelog.com/tokyo/A1305/A130502/13005641/",
    "image": "https://tblg.k-img.com/restaurant/images/Rvw/313520/640x640_rect_093cbbf1e976397535cabeea82af167c.jpg",
    "address": "東京都新宿区下落合3-22-13",
    "rating": 3.88,
    "ratingCount": 2450,
    "lat": 35.722475818668876,
    "lng": 139.70063969484715,
    "year": 2023,
    "award": "2023 ・ 百名店 スイーツ 東京"
  },
  {
    "rank": 22,
    "id": "13184127",
    "name": "ブロンディール",
    "url": "https://tabelog.com/tokyo/A1321/A132103/13184127/",
    "image": "https://tblg.k-img.com/restaurant/images/Rvw/104373/640x640_rect_104373842.jpg",
    "address": "東京都練馬区石神井町4-28-12",
    "rating": 3.82,
    "ratingCount": 402,
    "lat": 35.750200308619625,
    "lng": 139.6013093651968,
    "year": 2023,
    "award": "2023 ・ 百名店 スイーツ 東京"
  },
  {
    "rank": 23,
    "id": "13037382",
    "name": "Toshi Yoroizuka Mid Town",
    "url": "https://tabelog.com/tokyo/A1307/A130701/13037382/",
    "image": "https://tblg.k-img.com/restaurant/images/Rvw/340539/640x640_rect_56cd0567186888e3bfdc9228f7aad5fb.jpg",
    "address": "東京都港区赤坂9-7-2 東京ミッドタウン･イースト 1F",
    "rating": 3.79,
    "ratingCount": 2168,
    "lat": 35.665440637909526,
    "lng": 139.73139218308773,
    "year": 2023,
    "award": "2023 ・ 百名店 スイーツ 東京"
  },
  {
    "rank": 24,
    "id": "13100828",
    "name": "パティスリー ラブリコチエ",
    "url": "https://tabelog.com/tokyo/A1319/A131904/13100828/",
    "image": "https://tblg.k-img.com/restaurant/images/Rvw/269637/640x640_rect_02fb8b74083a44dec1f3f23745323822.jpg",
    "address": "東京都中野区大和町1-66-3",
    "rating": 3.78,
    "ratingCount": 892,
    "lat": 35.70936018866149,
    "lng": 139.65131592474924,
    "year": 2023,
    "award": "2023 ・ 百名店 スイーツ 東京"
  },
  {
    "rank": 25,
    "id": "13110008",
    "name": "マテリエル",
    "url": "https://tabelog.com/tokyo/A1322/A132203/13110008/",
    "image": "https://tblg.k-img.com/restaurant/images/Rvw/350833/640x640_rect_00cccf97261b73e3bc99a8cb04101b53.jpg",
    "address": "東京都板橋区大山町21-6 白樹舘壱番館 1F",
    "rating": 3.78,
    "ratingCount": 970,
    "lat": 35.748272938651894,
    "lng": 139.69877634510905,
    "year": 2023,
    "award": "2023 ・ 百名店 スイーツ 東京"
  },
  {
    "rank": 26,
    "id": "13130539",
    "name": "和栗や 谷中店",
    "url": "https://tabelog.com/tokyo/A1311/A131106/13130539/",
    "image": "https://tblg.k-img.com/restaurant/images/Rvw/235044/640x640_rect_0e6bca221ca2900b34c9bb3b68c0d97f.jpg",
    "address": "東京都台東区谷中3-9-14",
    "rating": 3.79,
    "ratingCount": 1765,
    "lat": 35.72758753788086,
    "lng": 139.7653013836917,
    "year": 2023,
    "award": "2023 ・ 百名店 スイーツ 東京"
  },
  {
    "rank": 27,
    "id": "13000337",
    "name": "近江屋洋菓子店",
    "url": "https://tabelog.com/tokyo/A1310/A131002/13000337/",
    "image": "https://tblg.k-img.com/restaurant/images/Rvw/219566/320x320_rect_19b1cc9d3afcbae46f7371b407700c69.jpg",
    "address": "東京都千代田区神田淡路町2-4",
    "rating": 3.73,
    "ratingCount": 2191,
    "lat": 35.69648021870677,
    "lng": 139.76777773453753,
    "year": 2023,
    "award": "2023 ・ 百名店 スイーツ 東京"
  },
  {
    "rank": 28,
    "id": "13116839",
    "name": "フレデリック カッセル 銀座三越店",
    "url": "https://tabelog.com/tokyo/A1301/A130101/13116839/",
    "image": "https://tblg.k-img.com/restaurant/images/Rvw/198962/640x640_rect_9fa01da2603bb9c8d5d405c7b5c5c180.jpg",
    "address": "東京都中央区銀座4-6-16 銀座三越 B2F",
    "rating": 3.88,
    "ratingCount": 1863,
    "lat": 35.671281378722185,
    "lng": 139.7659478242843,
    "year": 2023,
    "award": "2023 ・ 百名店 スイーツ 東京"
  },
  {
    "rank": 29,
    "id": "13186450",
    "name": "アヴランシュ・ゲネー",
    "url": "https://tabelog.com/tokyo/A1310/A131004/13186450/",
    "image": "https://tblg.k-img.com/restaurant/images/Rvw/148252/640x640_rect_148252558.jpg",
    "address": "東京都文京区本郷4-17-6 1F",
    "rating": 3.86,
    "ratingCount": 1420,
    "lat": 35.709453588694,
    "lng": 139.7535859546785,
    "year": 2023,
    "award": "2023 ・ 百名店 スイーツ 東京"
  },
  {
    "rank": 30,
    "id": "13005179",
    "name": "松之助 N.Y. 東京・代官山店",
    "url": "https://tabelog.com/tokyo/A1303/A130303/13005179/",
    "image": "https://tblg.k-img.com/restaurant/images/Rvw/253626/640x640_rect_91287a3fa250d8e9821ea656a20afcd8.jpg",
    "address": "東京都渋谷区猿楽町29-9 ヒルサイドテラスD-11",
    "rating": 3.76,
    "ratingCount": 1267,
    "lat": 35.64821757871592,
    "lng": 139.70028720409732,
    "year": 2023,
    "award": "2023 ・ 百名店 スイーツ 東京"
  },
  {
    "rank": 31,
    "id": "13137010",
    "name": "パティスリー リョーコ",
    "url": "https://tabelog.com/tokyo/A1316/A131603/13137010/",
    "image": "https://tblg.k-img.com/restaurant/images/Rvw/122305/640x640_rect_122305043.jpg",
    "address": "東京都港区高輪3-2-8",
    "rating": 3.89,
    "ratingCount": 1323,
    "lat": 35.635022838734656,
    "lng": 139.73280325394128,
    "year": 2023,
    "award": "2023 ・ 百名店 スイーツ 東京"
  },
  {
    "rank": 32,
    "id": "13001912",
    "name": "パティスリー イル・プルー・シュル・ラ・セーヌ",
    "url": "https://tabelog.com/tokyo/A1303/A130303/13001912/",
    "image": "https://tblg.k-img.com/restaurant/images/Rvw/353835/320x320_rect_8210d56a6dd3bee80ce0358fb98ff2a4.jpg",
    "address": "東京都渋谷区猿楽町17-16 代官山フォーラム　２Ｆ",
    "rating": 3.77,
    "ratingCount": 728,
    "lat": 35.649543637909225,
    "lng": 139.69876458295002,
    "year": 2023,
    "award": "2023 ・ 百名店 スイーツ 東京"
  },
  {
    "rank": 33,
    "id": "13024643",
    "name": "ケンズカフェ東京 総本店",
    "url": "https://tabelog.com/tokyo/A1304/A130402/13024643/",
    "image": "https://tblg.k-img.com/restaurant/images/Rvw/361876/640x640_rect_6ce6480d7e43fc9359521aa7e1408910.jpg",
    "address": "東京都新宿区新宿1-23-3 御苑コーポビアネーズ 1F",
    "rating": 3.84,
    "ratingCount": 1686,
    "lat": 35.68872201860512,
    "lng": 139.71388534430886,
    "year": 2023,
    "award": "2023 ・ 百名店 スイーツ 東京"
  },
  {
    "rank": 34,
    "id": "13003197",
    "name": "マッターホーン",
    "url": "https://tabelog.com/tokyo/A1317/A131702/13003197/",
    "image": "https://tblg.k-img.com/restaurant/images/Rvw/201902/640x640_rect_fa0075a6d242759c1069d908cc05d254.jpg",
    "address": "東京都目黒区鷹番3-5-1",
    "rating": 3.74,
    "ratingCount": 1541,
    "lat": 35.62811282872374,
    "lng": 139.68473410390513,
    "year": 2023,
    "award": "2023 ・ 百名店 スイーツ 東京"
  },
  {
    "rank": 35,
    "id": "13045491",
    "name": "パティスリー プレジール",
    "url": "https://tabelog.com/tokyo/A1317/A131706/13045491/",
    "image": "https://tblg.k-img.com/restaurant/images/Rvw/289141/640x640_rect_0889a397906d5383e4263f8979e6f4f1.jpg",
    "address": "東京都世田谷区代沢4-7-3",
    "rating": 3.83,
    "ratingCount": 680,
    "lat": 35.650686908703435,
    "lng": 139.6659813441463,
    "year": 2023,
    "award": "2023 ・ 百名店 スイーツ 東京"
  },
  {
    "rank": 36,
    "id": "13153384",
    "name": "ナタ・デ・クリスチアノ",
    "url": "https://tabelog.com/tokyo/A1318/A131810/13153384/",
    "image": "https://tblg.k-img.com/restaurant/images/Rvw/267100/640x640_rect_c21338cc01d30cfd70c7fa27c6e3c939.jpg",
    "address": "東京都渋谷区富ヶ谷1-14-16-103",
    "rating": 3.81,
    "ratingCount": 1742,
    "lat": 35.66726188870097,
    "lng": 139.69129652429604,
    "year": 2023,
    "award": "2023 ・ 百名店 スイーツ 東京"
  },
  {
    "rank": 37,
    "id": "13121679",
    "name": "パティシエ・ヒロ ヤマモト",
    "url": "https://tabelog.com/tokyo/A1312/A131205/13121679/",
    "image": "https://tblg.k-img.com/restaurant/images/Rvw/304115/640x640_rect_73e3b1c69c2f3b10a570a0b492b1e12f.jpg",
    "address": "東京都江戸川区篠崎町1-7-23-1 ピラトゥス篠崎1号室",
    "rating": 3.8,
    "ratingCount": 447,
    "lat": 35.708617138742454,
    "lng": 139.90408201456455,
    "year": 2023,
    "award": "2023 ・ 百名店 スイーツ 東京"
  },
  {
    "rank": 38,
    "id": "13005471",
    "name": "テオブロマ 渋谷本店",
    "url": "https://tabelog.com/tokyo/A1318/A131810/13005471/",
    "image": "https://tblg.k-img.com/restaurant/images/Rvw/349509/640x640_rect_385401d37aa5e0cea53c89d984a15225.jpg",
    "address": "東京都渋谷区富ヶ谷1-14-9 グリーンコアＬ渋谷 1F",
    "rating": 3.76,
    "ratingCount": 829,
    "lat": 35.66653493789621,
    "lng": 139.69177618312654,
    "year": 2023,
    "award": "2023 ・ 百名店 スイーツ 東京"
  },
  {
    "rank": 39,
    "id": "13077927",
    "name": "クリオロ 中目黒店",
    "url": "https://tabelog.com/tokyo/A1317/A131701/13077927/",
    "image": "https://tblg.k-img.com/restaurant/images/Rvw/72171/640x640_rect_72171346.jpg",
    "address": "東京都目黒区上目黒1-23-1 中目黒アリーナ103",
    "rating": 3.78,
    "ratingCount": 1298,
    "lat": 35.644373168718154,
    "lng": 139.69964128405897,
    "year": 2023,
    "award": "2023 ・ 百名店 スイーツ 東京"
  },
  {
    "rank": 40,
    "id": "13002756",
    "name": "ツッカベッカライ カヤヌマ",
    "url": "https://tabelog.com/tokyo/A1308/A130802/13002756/",
    "image": "https://tblg.k-img.com/restaurant/images/Rvw/309778/640x640_rect_4b84f64111fd3f63b272c856bf922dab.jpg",
    "address": "東京都港区赤坂1-4-5 栢沼ビル 1F",
    "rating": 3.81,
    "ratingCount": 1260,
    "lat": 35.6702939087158,
    "lng": 139.74392825428973,
    "year": 2023,
    "award": "2023 ・ 百名店 スイーツ 東京"
  },
  {
    "rank": 41,
    "id": "13005155",
    "name": "リュードパッシー",
    "url": "https://tabelog.com/tokyo/A1317/A131702/13005155/",
    "image": "https://tblg.k-img.com/restaurant/images/Rvw/188407/640x640_rect_ce845090a2dd38c2c53c0ea323c6861d.jpg",
    "address": "東京都目黒区鷹番3-17-6",
    "rating": 3.9,
    "ratingCount": 676,
    "lat": 35.62755913791824,
    "lng": 139.68323798273883,
    "year": 2023,
    "award": "2023 ・ 百名店 スイーツ 東京"
  },
  {
    "rank": 42,
    "id": "13014316",
    "name": "ピエール・エルメ・パリ Aoyama",
    "url": "https://tabelog.com/tokyo/A1306/A130602/13014316/",
    "image": "https://tblg.k-img.com/restaurant/images/Rvw/168574/640x640_rect_f9ebf11cc0e034e45f769838e3766e8f.jpg",
    "address": "東京都渋谷区神宮前5-51-8 ラ・ポルト青山　1・2F",
    "rating": 3.63,
    "ratingCount": 1818,
    "lat": 35.662792438709666,
    "lng": 139.70968469423798,
    "year": 2023,
    "award": "2023 ・ 百名店 スイーツ 東京"
  },
  {
    "rank": 43,
    "id": "13125138",
    "name": "スタイルズケイクス＆カンパニー",
    "url": "https://tabelog.com/tokyo/A1310/A131003/13125138/",
    "image": "https://tblg.k-img.com/restaurant/images/Rvw/293040/640x640_rect_d641c479b133060e340ecc6430698ce9.jpg",
    "address": "東京都千代田区神田小川町3-16-5 第二岩崎ビル 1Ｆ",
    "rating": 3.8,
    "ratingCount": 949,
    "lat": 35.69674331870427,
    "lng": 139.7604827445453,
    "year": 2023,
    "award": "2023 ・ 百名店 スイーツ 東京"
  },
  {
    "rank": 44,
    "id": "13058480",
    "name": "ル・コワンヴェール パトリック・ルメル",
    "url": "https://tabelog.com/tokyo/A1309/A130905/13058480/",
    "image": "https://tblg.k-img.com/restaurant/images/Rvw/21931/640x640_rect_21931841.jpg",
    "address": "東京都新宿区神楽坂2-20-14",
    "rating": 3.74,
    "ratingCount": 951,
    "lat": 35.69992289869593,
    "lng": 139.7406464445913,
    "year": 2023,
    "award": "2023 ・ 百名店 スイーツ 東京"
  },
  {
    "rank": 45,
    "id": "13023466",
    "name": "ハリッツ 上原店",
    "url": "https://tabelog.com/tokyo/A1318/A131811/13023466/",
    "image": "https://tblg.k-img.com/restaurant/images/Rvw/251555/640x640_rect_cb53ad322b7e7481d2b59afc79b035ce.jpg",
    "address": "東京都渋谷区上原1-34-2",
    "rating": 3.8,
    "ratingCount": 1685,
    "lat": 35.66933883869669,
    "lng": 139.68202379432347,
    "year": 2023,
    "award": "2023 ・ 百名店 スイーツ 東京"
  },
  {
    "rank": 46,
    "id": "13051424",
    "name": "ア コテ パティスリー",
    "url": "https://tabelog.com/tokyo/A1316/A131602/13051424/",
    "image": "https://tblg.k-img.com/restaurant/images/Rvw/290464/640x640_rect_6f8016b41e4e4675a391a25da86942d0.jpg",
    "address": "東京都港区白金台2-5-11",
    "rating": 3.76,
    "ratingCount": 615,
    "lat": 35.63600357873291,
    "lng": 139.7292850039536,
    "year": 2023,
    "award": "2023 ・ 百名店 スイーツ 東京"
  },
  {
    "rank": 47,
    "id": "13039525",
    "name": "パティスリー カカオエット・パリ",
    "url": "https://tabelog.com/tokyo/A1317/A131701/13039525/",
    "image": "https://tblg.k-img.com/restaurant/images/Rvw/228564/640x640_rect_0d2d23342d26293b8c764b111c87db9e.jpg",
    "address": "東京都目黒区東山1-9-6",
    "rating": 3.77,
    "ratingCount": 898,
    "lat": 35.647003838714774,
    "lng": 139.6942603940893,
    "year": 2023,
    "award": "2023 ・ 百名店 スイーツ 東京"
  },
  {
    "rank": 48,
    "id": "13005891",
    "name": "レピキュリアン",
    "url": "https://tabelog.com/tokyo/A1320/A132001/13005891/",
    "image": "https://tblg.k-img.com/restaurant/images/Rvw/314116/640x640_rect_233519560ea0f73d35aabb37d3200fba.jpg",
    "address": "東京都武蔵野市吉祥寺南町1-9-5 1F",
    "rating": 3.75,
    "ratingCount": 1049,
    "lat": 35.70197833783756,
    "lng": 139.57831578356408,
    "year": 2023,
    "award": "2023 ・ 百名店 スイーツ 東京"
  },
  {
    "rank": 49,
    "id": "13181654",
    "name": "オーボンヴュータン 尾山台店",
    "url": "https://tabelog.com/tokyo/A1317/A131715/13181654/",
    "image": "https://tblg.k-img.com/restaurant/images/Rvw/365032/640x640_rect_9cd8fdef0446a0cdeb9e9c58f9810b4d.jpg",
    "address": "東京都世田谷区等々力2-1-3",
    "rating": 3.83,
    "ratingCount": 1380,
    "lat": 35.60407354872851,
    "lng": 139.65176725368545,
    "year": 2023,
    "award": "2023 ・ 百名店 スイーツ 東京"
  },
  {
    "rank": 50,
    "id": "13171753",
    "name": "アディクト オ シュクル",
    "url": "https://tabelog.com/tokyo/A1317/A131702/13171753/",
    "image": "https://tblg.k-img.com/restaurant/images/Rvw/235958/640x640_rect_4658e3e3b38929ce6d5015f55c3a2d43.jpg",
    "address": "東京都目黒区八雲1-10-6",
    "rating": 3.76,
    "ratingCount": 770,
    "lat": 35.61854888872591,
    "lng": 139.67248112381716,
    "year": 2023,
    "award": "2023 ・ 百名店 スイーツ 東京"
  },
  {
    "rank": 51,
    "id": "13160987",
    "name": "リベルターブル 赤坂店",
    "url": "https://tabelog.com/tokyo/A1308/A130801/13160987/",
    "image": "https://tblg.k-img.com/restaurant/images/Rvw/245249/640x640_rect_133dd76628b23cd125e3a92239f9d24f.jpg",
    "address": "東京都港区赤坂2-6-24 1F",
    "rating": 3.66,
    "ratingCount": 1438,
    "lat": 35.673187728712286,
    "lng": 139.73864307432265,
    "year": 2023,
    "award": "2023 ・ 百名店 スイーツ 東京"
  },
  {
    "rank": 52,
    "id": "13023670",
    "name": "オーボンヴュータン 日本橋高島屋店",
    "url": "https://tabelog.com/tokyo/A1302/A130202/13023670/",
    "image": "https://tblg.k-img.com/restaurant/images/Rvw/236405/640x640_rect_e4aa2aabd10fb560b5385a96e366e118.jpg",
    "address": "東京都中央区日本橋2-4-1 日本橋タカシマヤ B1F",
    "rating": 3.78,
    "ratingCount": 748,
    "lat": 35.68112463791293,
    "lng": 139.7733755832167,
    "year": 2023,
    "award": "2023 ・ 百名店 スイーツ 東京"
  },
  {
    "rank": 53,
    "id": "13191976",
    "name": "ダンデライオン・チョコレート ファクトリー&カフェ蔵前",
    "url": "https://tabelog.com/tokyo/A1311/A131103/13191976/",
    "image": "https://tblg.k-img.com/restaurant/images/Rvw/198589/640x640_rect_bd5da9c0528c3126dc44b8fb0970b53b.jpg",
    "address": "東京都台東区蔵前4-14-6",
    "rating": 3.74,
    "ratingCount": 2270,
    "lat": 35.703669198709164,
    "lng": 139.7896332945948,
    "year": 2023,
    "award": "2023 ・ 百名店 スイーツ 東京"
  },
  {
    "rank": 54,
    "id": "13035194",
    "name": "パティスリー カーヴァンソン",
    "url": "https://tabelog.com/tokyo/A1309/A130905/13035194/",
    "image": "https://tblg.k-img.com/restaurant/images/Rvw/179334/640x640_rect_5f70f42e1d93c672b31be6ae32a35eaa.jpg",
    "address": "東京都新宿区筑土八幡町1-2 第３ＮＫビル 1Ｆ",
    "rating": 3.85,
    "ratingCount": 802,
    "lat": 35.703891388693584,
    "lng": 139.74119137463103,
    "year": 2023,
    "award": "2023 ・ 百名店 スイーツ 東京"
  },
  {
    "rank": 55,
    "id": "13043939",
    "name": "ラ・ヴィエイユ・フランス 本店",
    "url": "https://tabelog.com/tokyo/A1318/A131809/13043939/",
    "image": "https://tblg.k-img.com/restaurant/images/Rvw/266152/640x640_rect_f456fc99a3526c379e16badeea3759c7.jpg",
    "address": "東京都世田谷区粕谷4-15-6 グランデュール千歳烏山　１Ｆ",
    "rating": 3.76,
    "ratingCount": 705,
    "lat": 35.662983037870255,
    "lng": 139.60320938315277,
    "year": 2023,
    "award": "2023 ・ 百名店 スイーツ 東京"
  },
  {
    "rank": 56,
    "id": "13019733",
    "name": "パティスリー タダシ ヤナギ 八雲店",
    "url": "https://tabelog.com/tokyo/A1317/A131702/13019733/",
    "image": "https://tblg.k-img.com/restaurant/images/Rvw/195311/640x640_rect_cb889c0d1756e385de9bcb1b5aa02981.jpg",
    "address": "東京都目黒区八雲2-8-11",
    "rating": 3.73,
    "ratingCount": 463,
    "lat": 35.61582263792185,
    "lng": 139.67116578262878,
    "year": 2023,
    "award": "2023 ・ 百名店 スイーツ 東京"
  },
  {
    "rank": 57,
    "id": "13202758",
    "name": "トシ・ヨロイヅカ 東京",
    "url": "https://tabelog.com/tokyo/A1302/A130202/13202758/",
    "image": "https://tblg.k-img.com/restaurant/images/Rvw/340541/640x640_rect_ea4f0be20b61a0e40cd979cc66671915.jpg",
    "address": "東京都中央区京橋2-2-1 京橋エドグラン 1F・2F",
    "rating": 3.75,
    "ratingCount": 1884,
    "lat": 35.677009238719826,
    "lng": 139.7699733743393,
    "year": 2023,
    "award": "2023 ・ 百名店 スイーツ 東京"
  },
  {
    "rank": 58,
    "id": "13133033",
    "name": "Patisserie JUN UJITA",
    "url": "https://tabelog.com/tokyo/A1317/A131702/13133033/",
    "image": "https://tblg.k-img.com/restaurant/images/Rvw/228150/640x640_rect_3abf45b44e2af9109ae8dc75ac454681.jpg",
    "address": "東京都目黒区碑文谷4-6-6",
    "rating": 3.78,
    "ratingCount": 667,
    "lat": 35.61982737872951,
    "lng": 139.68631444382035,
    "year": 2023,
    "award": "2023 ・ 百名店 スイーツ 東京"
  },
  {
    "rank": 59,
    "id": "13150993",
    "name": "パティスリー ラ・グリシーヌ",
    "url": "https://tabelog.com/tokyo/A1317/A131705/13150993/",
    "image": "https://tblg.k-img.com/restaurant/images/Rvw/40215/640x640_rect_40215896.jpg",
    "address": "東京都目黒区青葉台3-17-7 佐藤マンション 1F",
    "rating": 3.81,
    "ratingCount": 566,
    "lat": 35.65059676871148,
    "lng": 139.69105760412782,
    "year": 2023,
    "award": "2023 ・ 百名店 スイーツ 東京"
  },
  {
    "rank": 60,
    "id": "13136823",
    "name": "アトリエコータ 神楽坂店",
    "url": "https://tabelog.com/tokyo/A1309/A130905/13136823/",
    "image": "https://tblg.k-img.com/restaurant/images/Rvw/279045/640x640_rect_6fc684dd5103f1ab561edf3b2f0e5ced.jpg",
    "address": "東京都新宿区神楽坂6-25",
    "rating": 3.79,
    "ratingCount": 1779,
    "lat": 35.703630528692216,
    "lng": 139.73637023463175,
    "year": 2023,
    "award": "2023 ・ 百名店 スイーツ 東京"
  },
  {
    "rank": 61,
    "id": "13006009",
    "name": "フジウ",
    "url": "https://tabelog.com/tokyo/A1329/A132903/13006009/",
    "image": "https://tblg.k-img.com/restaurant/images/Rvw/115981/640x640_rect_115981654.jpg",
    "address": "東京都日野市高幡17-8",
    "rating": 3.75,
    "ratingCount": 644,
    "lat": 35.661598437810426,
    "lng": 139.41260148327237,
    "year": 2023,
    "award": "2023 ・ 百名店 スイーツ 東京"
  },
  {
    "rank": 62,
    "id": "13047298",
    "name": "フランス菓子 パティシエ ショコラティエ イナムラショウゾウ",
    "url": "https://tabelog.com/tokyo/A1311/A131105/13047298/",
    "image": "https://tblg.k-img.com/restaurant/images/Rvw/245257/640x640_rect_7e04d645a02cd6f0ce33d9154873d54d.jpg",
    "address": "東京都台東区谷中7-19-5",
    "rating": 3.83,
    "ratingCount": 1503,
    "lat": 35.72739990868764,
    "lng": 139.7693749448487,
    "year": 2023,
    "award": "2023 ・ 百名店 スイーツ 東京"
  },
  {
    "rank": 63,
    "id": "13022977",
    "name": "ザ マンダリン オリエンタル グルメショップ",
    "url": "https://tabelog.com/tokyo/A1302/A130202/13022977/",
    "image": "https://tblg.k-img.com/restaurant/images/Rvw/299517/640x640_rect_0c5f12f3c1916cda6af3b303225a4390.jpg",
    "address": "東京都中央区日本橋室町2-1-1 マンダリン オリエンタル 東京 1F",
    "rating": 3.77,
    "ratingCount": 1441,
    "lat": 35.68680423790919,
    "lng": 139.77299028327434,
    "year": 2023,
    "award": "2023 ・ 百名店 スイーツ 東京"
  },
  {
    "rank": 64,
    "id": "13096439",
    "name": "エシレ・メゾン デュ ブール",
    "url": "https://tabelog.com/tokyo/A1302/A130201/13096439/",
    "image": "https://tblg.k-img.com/restaurant/images/Rvw/164905/640x640_rect_9b3d587d637a10fc340abf1d66f2dff5.jpg",
    "address": "東京都千代田区丸の内2-6-1 丸の内ブリックスクエア 1F",
    "rating": 3.79,
    "ratingCount": 2508,
    "lat": 35.67857893791109,
    "lng": 139.7625413831986,
    "year": 2023,
    "award": "2023 ・ 百名店 スイーツ 東京"
  },
  {
    "rank": 65,
    "id": "13175122",
    "name": "パティスリートレカルム",
    "url": "https://tabelog.com/tokyo/A1323/A132301/13175122/",
    "image": "https://tblg.k-img.com/restaurant/images/Rvw/315197/640x640_rect_715a04ff2622e0f3188e0dfade570fca.jpg",
    "address": "東京都文京区千石4-40-25",
    "rating": 3.82,
    "ratingCount": 777,
    "lat": 35.72860969867828,
    "lng": 139.74240041487982,
    "year": 2023,
    "award": "2023 ・ 百名店 スイーツ 東京"
  },
  {
    "rank": 66,
    "id": "13005198",
    "name": "パティスリー・パリセヴェイユ",
    "url": "https://tabelog.com/tokyo/A1317/A131703/13005198/",
    "image": "https://tblg.k-img.com/restaurant/images/Rvw/141999/640x640_rect_141999807.jpg",
    "address": "東京都目黒区自由が丘2-14-5 館山ビル 1F",
    "rating": 3.87,
    "ratingCount": 3138,
    "lat": 35.606971537926015,
    "lng": 139.66658228254258,
    "year": 2023,
    "award": "2023 ・ 百名店 スイーツ 東京"
  },
  {
    "rank": 67,
    "id": "13004023",
    "name": "クラブハリエ 日本橋三越店",
    "url": "https://tabelog.com/tokyo/A1302/A130202/13004023/",
    "image": "https://tblg.k-img.com/restaurant/images/Rvw/236389/640x640_rect_b65d5e8bda3b1e80e8a3a8b601ec40b5.jpg",
    "address": "東京都中央区日本橋室町1-3-10 日本橋三越本店 新館 B2F",
    "rating": 3.76,
    "ratingCount": 983,
    "lat": 35.685167140641,
    "lng": 139.77396711012406,
    "year": 2023,
    "award": "2023 ・ 百名店 スイーツ 東京"
  },
  {
    "rank": 68,
    "id": "13203619",
    "name": "レ・カカオ 本店",
    "url": "https://tabelog.com/tokyo/A1316/A131603/13203619/",
    "image": "https://tblg.k-img.com/restaurant/images/Rvw/204216/640x640_rect_4ef5381685ad876160960a71fc09e784.jpg",
    "address": "東京都品川区東五反田2-19-2 第2東都ビル 1F",
    "rating": 3.81,
    "ratingCount": 1307,
    "lat": 35.62527353793434,
    "lng": 139.72921688268355,
    "year": 2023,
    "award": "2023 ・ 百名店 スイーツ 東京"
  },
  {
    "rank": 69,
    "id": "13183428",
    "name": "メゾン・ダーニ",
    "url": "https://tabelog.com/tokyo/A1316/A131602/13183428/",
    "image": "https://tblg.k-img.com/restaurant/images/Rvw/361736/640x640_rect_88cd698ec4df04620b6755051493e2c0.jpg",
    "address": "東京都港区白金1-11-15 1F",
    "rating": 3.8,
    "ratingCount": 1147,
    "lat": 35.64552143792276,
    "lng": 139.73325448288523,
    "year": 2023,
    "award": "2023 ・ 百名店 スイーツ 東京"
  },
  {
    "rank": 70,
    "id": "13205650",
    "name": "クレープリー チロル",
    "url": "https://tabelog.com/tokyo/A1318/A131814/13205650/",
    "image": "https://tblg.k-img.com/restaurant/images/Rvw/363306/320x320_rect_90476d84cfa1eeb433d752f2f6684152.jpg",
    "address": "東京都世田谷区砧8-7-17",
    "rating": 3.84,
    "ratingCount": 713,
    "lat": 35.641193448691055,
    "lng": 139.60819414409093,
    "year": 2023,
    "award": "2023 ・ 百名店 スイーツ 東京"
  },
  {
    "rank": 71,
    "id": "13038342",
    "name": "パンケーキママカフェ VoiVoi",
    "url": "https://tabelog.com/tokyo/A1317/A131706/13038342/",
    "image": "https://tblg.k-img.com/restaurant/images/Rvw/64580/320x320_rect_64580545.jpg",
    "address": "東京都世田谷区三軒茶屋1-35-15 １Ｆ",
    "rating": 3.73,
    "ratingCount": 959,
    "lat": 35.64306312871021,
    "lng": 139.67206487406503,
    "year": 2023,
    "award": "2023 ・ 百名店 スイーツ 東京"
  },
  {
    "rank": 72,
    "id": "13223261",
    "name": "GAZTA",
    "url": "https://tabelog.com/tokyo/A1316/A131602/13223261/",
    "image": "https://tblg.k-img.com/restaurant/images/Rvw/144973/640x640_rect_144973453.jpg",
    "address": "東京都港区白金1-14-10 1F",
    "rating": 3.84,
    "ratingCount": 1392,
    "lat": 35.64527404872837,
    "lng": 139.73348274404432,
    "year": 2023,
    "award": "2023 ・ 百名店 スイーツ 東京"
  },
  {
    "rank": 73,
    "id": "13060521",
    "name": "フィオレンティーナ ペストリーブティック",
    "url": "https://tabelog.com/tokyo/A1307/A130701/13060521/",
    "image": "https://tblg.k-img.com/restaurant/images/Rvw/117302/640x640_rect_117302756.jpg",
    "address": "東京都港区六本木6-10-3 グランド ハイアット 東京 1F ロビーフロア",
    "rating": 3.78,
    "ratingCount": 903,
    "lat": 35.65964173791224,
    "lng": 139.72837208303127,
    "year": 2023,
    "award": "2023 ・ 百名店 スイーツ 東京"
  },
  {
    "rank": 74,
    "id": "13239458",
    "name": "LESS Labo",
    "url": "https://tabelog.com/tokyo/A1303/A130302/13239458/",
    "image": "https://tblg.k-img.com/restaurant/images/Rvw/204501/640x640_rect_7b6154fd1469ecf836bff59f7dbac215.jpg",
    "address": "東京都目黒区三田1-12-25 金子ビル 1F",
    "rating": 3.93,
    "ratingCount": 594,
    "lat": 35.642007937918265,
    "lng": 139.71213408286454,
    "year": 2023,
    "award": "2023 ・ 百名店 スイーツ 東京"
  },
  {
    "rank": 75,
    "id": "13149501",
    "name": "パティスリー レザネフォール 恵比寿本店",
    "url": "https://tabelog.com/tokyo/A1303/A130302/13149501/",
    "image": "https://tblg.k-img.com/restaurant/images/Rvw/245540/640x640_rect_994b231d0c9529af2b589c99b4429252.jpg",
    "address": "東京都渋谷区恵比寿西1-21-3 グレイス代官山 1F",
    "rating": 3.77,
    "ratingCount": 1361,
    "lat": 35.646454537913584,
    "lng": 139.70629028291353,
    "year": 2023,
    "award": "2023 ・ 百名店 スイーツ 東京"
  },
  {
    "rank": 76,
    "id": "13038473",
    "name": "ショコラティエ パレ ド オール 東京",
    "url": "https://tabelog.com/tokyo/A1302/A130201/13038473/",
    "image": "https://tblg.k-img.com/restaurant/images/Rvw/148948/640x640_rect_148948626.jpg",
    "address": "東京都千代田区丸の内1-5-1 新丸の内ビルディング 1F",
    "rating": 3.86,
    "ratingCount": 2025,
    "lat": 35.68274060871429,
    "lng": 139.76400839440134,
    "year": 2023,
    "award": "2023 ・ 百名店 スイーツ 東京"
  },
  {
    "rank": 77,
    "id": "13199223",
    "name": "ラトリエ モトゾー",
    "url": "https://tabelog.com/tokyo/A1317/A131705/13199223/",
    "image": "https://tblg.k-img.com/restaurant/images/Rvw/120652/640x640_rect_120652439.jpg",
    "address": "東京都目黒区東山3-1-4 ニューリバー東山　1Ｆ",
    "rating": 3.76,
    "ratingCount": 655,
    "lat": 35.65076463790449,
    "lng": 139.68633838297106,
    "year": 2023,
    "award": "2023 ・ 百名店 スイーツ 東京"
  },
  {
    "rank": 78,
    "id": "13000687",
    "name": "ノリエット",
    "url": "https://tabelog.com/tokyo/A1318/A131809/13000687/",
    "image": "https://tblg.k-img.com/restaurant/images/Rvw/99659/640x640_rect_99659875.jpg",
    "address": "東京都世田谷区赤堤5-43-1",
    "rating": 3.73,
    "ratingCount": 558,
    "lat": 35.66565147868527,
    "lng": 139.63878993431655,
    "year": 2023,
    "award": "2023 ・ 百名店 スイーツ 東京"
  },
  {
    "rank": 79,
    "id": "13175834",
    "name": "ミニマル 富ヶ谷本店",
    "url": "https://tabelog.com/tokyo/A1303/A130301/13175834/",
    "image": "https://tblg.k-img.com/restaurant/images/Rvw/165266/640x640_rect_6b23ba76ede15a32906e2724a06e7fdf.jpg",
    "address": "東京都渋谷区富ヶ谷2-1-9",
    "rating": 3.85,
    "ratingCount": 833,
    "lat": 35.66680503789472,
    "lng": 139.68764498313217,
    "year": 2023,
    "award": "2023 ・ 百名店 スイーツ 東京"
  },
  {
    "rank": 80,
    "id": "13032289",
    "name": "パティスリィ ドゥ・ボン・クーフゥ 武蔵小山本店",
    "url": "https://tabelog.com/tokyo/A1317/A131710/13032289/",
    "image": "https://tblg.k-img.com/restaurant/images/Rvw/237219/640x640_rect_59655613aaf522c509af7ad076da9ebb.jpg",
    "address": "東京都品川区小山3-11-2",
    "rating": 3.75,
    "ratingCount": 943,
    "lat": 35.619928418735824,
    "lng": 139.70634542380733,
    "year": 2023,
    "award": "2023 ・ 百名店 スイーツ 東京"
  },
  {
    "rank": 81,
    "id": "13140735",
    "name": "アステリスク",
    "url": "https://tabelog.com/tokyo/A1318/A131811/13140735/",
    "image": "https://tblg.k-img.com/restaurant/images/Rvw/226459/640x640_rect_0b056b819c45853bad1b1e5ae12bc918.jpg",
    "address": "東京都渋谷区上原1-26-16 タマテクノビル 1F",
    "rating": 3.85,
    "ratingCount": 1799,
    "lat": 35.668281148697154,
    "lng": 139.68138120431325,
    "year": 2023,
    "award": "2023 ・ 百名店 スイーツ 東京"
  },
  {
    "rank": 82,
    "id": "13118933",
    "name": "ロートンヌ 中野店",
    "url": "https://tabelog.com/tokyo/A1321/A132101/13118933/",
    "image": "https://tblg.k-img.com/restaurant/images/Rvw/151045/640x640_rect_151045029.jpg",
    "address": "東京都中野区江原町2-30-1",
    "rating": 3.85,
    "ratingCount": 655,
    "lat": 35.73225190865313,
    "lng": 139.6706952749669,
    "year": 2023,
    "award": "2023 ・ 百名店 スイーツ 東京"
  },
  {
    "rank": 83,
    "id": "13005967",
    "name": "ロートンヌ 秋津本店",
    "url": "https://tabelog.com/tokyo/A1328/A132806/13005967/",
    "image": "https://tblg.k-img.com/restaurant/images/Rvw/359641/640x640_rect_b235ef93c60d382498888fc16b78b94c.jpg",
    "address": "東京都東村山市秋津町5-13-4",
    "rating": 3.8,
    "ratingCount": 809,
    "lat": 35.778173598567825,
    "lng": 139.4944411855543,
    "year": 2023,
    "award": "2023 ・ 百名店 スイーツ 東京"
  },
  {
    "rank": 84,
    "id": "13242556",
    "name": "ラトリエ ア マ ファソン",
    "url": "https://tabelog.com/tokyo/A1317/A131715/13242556/",
    "image": "https://tblg.k-img.com/restaurant/images/Rvw/335735/640x640_rect_1dbd1d33490b1c6754f54f4fd0a722c0.jpg",
    "address": "東京都世田谷区上野毛1-26-14",
    "rating": 3.82,
    "ratingCount": 611,
    "lat": 35.61260433791359,
    "lng": 139.63881168261892,
    "year": 2023,
    "award": "2023 ・ 百名店 スイーツ 東京"
  },
  {
    "rank": 85,
    "id": "13047005",
    "name": "パティスリーサロン・ドゥ・テ アミティエ",
    "url": "https://tabelog.com/tokyo/A1309/A130905/13047005/",
    "image": "https://tblg.k-img.com/restaurant/images/Rvw/251925/640x640_rect_7b754badbcd6b44420368b9b596d257b.jpg",
    "address": "東京都新宿区築地町8-10 KDXレジデンス神楽坂 1F",
    "rating": 3.75,
    "ratingCount": 872,
    "lat": 35.706375138690255,
    "lng": 139.73569338465995,
    "year": 2023,
    "award": "2023 ・ 百名店 スイーツ 東京"
  },
  {
    "rank": 86,
    "id": "13039063",
    "name": "パティシェリア",
    "url": "https://tabelog.com/tokyo/A1304/A130401/13039063/",
    "image": "https://tblg.k-img.com/restaurant/images/Rvw/182940/640x640_rect_3a878af74c6b29fe8b3550e5aee0713f.jpg",
    "address": "東京都渋谷区千駄ヶ谷5-24-2 新宿タカシマヤ B1F",
    "rating": 3.75,
    "ratingCount": 769,
    "lat": 35.68774477642999,
    "lng": 139.70210879260418,
    "year": 2023,
    "award": "2023 ・ 百名店 スイーツ 東京"
  },
  {
    "rank": 87,
    "id": "13164533",
    "name": "チリムーロ",
    "url": "https://tabelog.com/tokyo/A1303/A130301/13164533/",
    "image": "https://tblg.k-img.com/restaurant/images/Rvw/274301/640x640_rect_3365ee87cce1fd916ed4938f9c19bcbc.jpg",
    "address": "東京都渋谷区猿楽町1-3",
    "rating": 3.82,
    "ratingCount": 660,
    "lat": 35.65367203790865,
    "lng": 139.70516868298722,
    "year": 2023,
    "award": "2023 ・ 百名店 スイーツ 東京"
  },
  {
    "rank": 88,
    "id": "13155662",
    "name": "パティスリー ユウ ササゲ",
    "url": "https://tabelog.com/tokyo/A1318/A131809/13155662/",
    "image": "https://tblg.k-img.com/restaurant/images/Rvw/235153/640x640_rect_7cbf6d48bc025ddfa294fe0a3d1df480.jpg",
    "address": "東京都世田谷区南烏山6-28-13",
    "rating": 3.84,
    "ratingCount": 858,
    "lat": 35.66989976866988,
    "lng": 139.59895757438738,
    "year": 2023,
    "award": "2023 ・ 百名店 スイーツ 東京"
  },
  {
    "rank": 89,
    "id": "13155288",
    "name": "ホットケーキパーラー フルフル 赤坂店",
    "url": "https://tabelog.com/tokyo/A1308/A130801/13155288/",
    "image": "https://tblg.k-img.com/restaurant/images/Rvw/267471/640x640_rect_f720e7fe0c831278fef8257d5bf5f6fc.jpg",
    "address": "東京都港区赤坂2-17-52 パラッツォ赤坂 1F",
    "rating": 3.78,
    "ratingCount": 1207,
    "lat": 35.67035953790876,
    "lng": 139.7388265831322,
    "year": 2023,
    "award": "2023 ・ 百名店 スイーツ 東京"
  },
  {
    "rank": 90,
    "id": "13238644",
    "name": "おかしやうっちー",
    "url": "https://tabelog.com/tokyo/A1309/A130901/13238644/",
    "image": "https://tblg.k-img.com/restaurant/images/Rvw/363675/640x640_rect_37f9ae1ffe7f68e0bccca7d4593d0a11.jpg",
    "address": "東京都渋谷区千駄ヶ谷3-27-9 ウエスト青山 1F",
    "rating": 4.2,
    "ratingCount": 709,
    "lat": 35.67744546869985,
    "lng": 139.70810652438706,
    "year": 2023,
    "award": "2023 ・ 百名店 スイーツ 東京"
  },
  {
    "rank": 91,
    "id": "13053865",
    "name": "ラデュレ サロン・ド・テ 銀座三越店",
    "url": "https://tabelog.com/tokyo/A1301/A130101/13053865/",
    "image": "https://tblg.k-img.com/restaurant/images/Rvw/160050/640x640_rect_160050793.jpg",
    "address": "東京都中央区銀座4-6-16 銀座三越 2F",
    "rating": 3.77,
    "ratingCount": 1501,
    "lat": 35.67129486384501,
    "lng": 139.76540984839758,
    "year": 2023,
    "award": "2023 ・ 百名店 スイーツ 東京"
  },
  {
    "rank": 92,
    "id": "13164246",
    "name": "オクシタニアル 東京本店",
    "url": "https://tabelog.com/tokyo/A1302/A130204/13164246/",
    "image": "https://tblg.k-img.com/restaurant/images/Rvw/281250/640x640_rect_cf43398cc96175d8303259bdd5756462.jpg",
    "address": "東京都中央区日本橋蛎殻町1-39-7",
    "rating": 3.75,
    "ratingCount": 1030,
    "lat": 35.683470937915004,
    "lng": 139.78457218323257,
    "year": 2023,
    "award": "2023 ・ 百名店 スイーツ 東京"
  },
  {
    "rank": 93,
    "id": "13188208",
    "name": "リョウラ",
    "url": "https://tabelog.com/tokyo/A1317/A131707/13188208/",
    "image": "https://tblg.k-img.com/restaurant/images/Rvw/359647/640x640_rect_8055d39f4fdb1fb25047d3596a478449.jpg",
    "address": "東京都世田谷区用賀4-29-5 グリーンヒルズ用賀ST 1F",
    "rating": 3.86,
    "ratingCount": 952,
    "lat": 35.628940758706776,
    "lng": 139.6331191339497,
    "year": 2023,
    "award": "2023 ・ 百名店 スイーツ 東京"
  },
  {
    "rank": 94,
    "id": "13156812",
    "name": "和kitchen かんな",
    "url": "https://tabelog.com/tokyo/A1317/A131706/13156812/",
    "image": "https://tblg.k-img.com/restaurant/images/Rvw/359977/640x640_rect_38291e911c9326a3d55645d73d3eff1c.jpg",
    "address": "東京都世田谷区下馬2-43-11 2F",
    "rating": 3.77,
    "ratingCount": 1512,
    "lat": 35.643414478712394,
    "lng": 139.67960664406328,
    "year": 2023,
    "award": "2023 ・ 百名店 スイーツ 東京"
  },
  {
    "rank": 95,
    "id": "13000036",
    "name": "ラ･メゾン･デュ･ショコラ 丸の内店",
    "url": "https://tabelog.com/tokyo/A1301/A130102/13000036/",
    "image": "https://tblg.k-img.com/restaurant/images/Rvw/347398/640x640_rect_bea1d03d753c327c1f5b8ad36d2383e3.jpg",
    "address": "東京都千代田区丸の内3-4-1 新国際ビル 1F",
    "rating": 3.83,
    "ratingCount": 1327,
    "lat": 35.67611638871784,
    "lng": 139.76195018433592,
    "year": 2023,
    "award": "2023 ・ 百名店 スイーツ 東京"
  },
  {
    "rank": 96,
    "id": "13124571",
    "name": "ノワ・ドゥ・ブール 新宿伊勢丹店",
    "url": "https://tabelog.com/tokyo/A1304/A130401/13124571/",
    "image": "https://tblg.k-img.com/restaurant/images/Rvw/101472/640x640_rect_101472274.jpg",
    "address": "東京都新宿区新宿3-14-1 伊勢丹新宿店 B1F",
    "rating": 3.79,
    "ratingCount": 1846,
    "lat": 35.69174743788426,
    "lng": 139.70455388337226,
    "year": 2023,
    "award": "2023 ・ 百名店 スイーツ 東京"
  },
  {
    "rank": 97,
    "id": "13018799",
    "name": "パティスリー・スリール",
    "url": "https://tabelog.com/tokyo/A1317/A131701/13018799/",
    "image": "https://tblg.k-img.com/restaurant/images/Rvw/197221/640x640_rect_6f96c9622322618c9380cc1d0d3932ee.jpg",
    "address": "東京都目黒区五本木2-40-8",
    "rating": 3.74,
    "ratingCount": 580,
    "lat": 35.63471103791477,
    "lng": 139.68659768280875,
    "year": 2023,
    "award": "2023 ・ 百名店 スイーツ 東京"
  },
  {
    "rank": 98,
    "id": "13198490",
    "name": "ラ・プレシューズ 紀尾井町店",
    "url": "https://tabelog.com/tokyo/A1308/A130801/13198490/",
    "image": "https://tblg.k-img.com/restaurant/images/Rvw/275336/320x320_rect_685b4a07a6f2b9d3725f36f030f51c39.jpg",
    "address": "東京都千代田区紀尾井町1-2 東京ガーデンテラス紀尾井町 4F",
    "rating": 3.74,
    "ratingCount": 1037,
    "lat": 35.679692278707726,
    "lng": 139.7373373443893,
    "year": 2023,
    "award": "2023 ・ 百名店 スイーツ 東京"
  },
  {
    "rank": 99,
    "id": "13002002",
    "name": "成城アルプス",
    "url": "https://tabelog.com/tokyo/A1318/A131814/13002002/",
    "image": "https://tblg.k-img.com/restaurant/images/Rvw/93806/640x640_rect_93806329.jpg",
    "address": "東京都世田谷区成城6-8-1",
    "rating": 3.74,
    "ratingCount": 982,
    "lat": 35.64036166868836,
    "lng": 139.5980621940896,
    "year": 2023,
    "award": "2023 ・ 百名店 スイーツ 東京"
  },
  {
    "rank": 100,
    "id": "13096438",
    "name": "カカオサンパカ 丸の内本店",
    "url": "https://tabelog.com/tokyo/A1302/A130201/13096438/",
    "image": "https://tblg.k-img.com/restaurant/images/Rvw/286805/640x640_rect_e72e14ea9485fdd9eea628bb7de4c77b.jpg",
    "address": "東京都千代田区丸の内2-6-1 丸の内ブリックスクエア １F",
    "rating": 3.77,
    "ratingCount": 1291,
    "lat": 35.67864362871642,
    "lng": 139.76252459436103,
    "year": 2023,
    "award": "2023 ・ 百名店 スイーツ 東京"
  }
]